"Interval"|"ms"|0|0|1,"Utc"|"ms"|0|0|1,"Analog1"|""|0.0|5.0|25,"Battery"|"Volts"|0.0|20.0|1,"AccelX"|"G"|-3.0|3.0|25,"AccelY"|"G"|-3.0|3.0|25,"AccelZ"|"G"|-3.0|3.0|25,"Yaw"|"Deg/Sec"|-120|120|25,"Pitch"|"Deg/Sec"|-120|120|25,"Roll"|"Deg/Sec"|-120|120|25,"RPM"|""|0|10000|100,"EngineRPM"|""|0|10000|100,"AxleRpm"|""|0|10000|100,"Latitude"|"Degrees"|-180.0|180.0|10,"Longitude"|"Degrees"|-180.0|180.0|10,"Speed"|"mph"|0.0|150.0|10,"Distance"|"mi"|0.0|0.0|10,"Altitude"|"ft"|0.0|4000.0|10,"GPSSats"|""|0|20|10,"GPSQual"|""|0|5|10,"GPSDOP"|""|0.0|20.0|10,"LapCount"|""|0|0|10,"LapTime"|"Min"|0.0|0.0|10,"Sector"|""|0|0|10,"SectorTime"|"Min"|0.0|0.0|10,"PredTime"|"Min"|0.0|0.0|10,"ElapsedTime"|"Min"|0.0|0.0|10,"CurrentLap"|""|0|0|10
3028434,1501039130978,,,,,,,,,0,1650,0,,,,,,,,,,,,,,,
3028444,1501039130988,3.09,,-0.0,-0.05,1.15,-2,-6,4,0,1590,0,36.113674,-115.145676,0.0,6.475,2047.3,9,3,1.9,0,0.0,-1,0.0,0.0,0.0,0
3028454,1501039130998,,,,,,,,,0,1560,0,,,,,,,,,,,,,,,
3028464,1501039131000,,,,,,,,,0,1530,0,,,,,,,,,,,,,,,
3028474,1501039131010,,,,,,,,,0,1500,0,,,,,,,,,,,,,,,
3028484,1501039131020,3.15,,-0.03,-0.05,1.12,-2,-5,4,0,1410,0,,,,,,,,,,,,,,,
3028494,1501039131030,,,,,,,,,0,1575,0,,,,,,,,,,,,,,,
3028504,1501039131040,,,,,,,,,0,1650,0,,,,,,,,,,,,,,,
3028514,1501039131050,,,,,,,,,0,1635,0,,,,,,,,,,,,,,,
3028524,1501039131060,3.19,,-0.06,-0.06,0.99,-2,-5,5,0,1590,0,,,,,,,,,,,,,,,
3028534,1501039131070,,,,,,,,,0,1560,0,,,,,,,,,,,,,,,
3028544,1501039131080,,,,,,,,,0,1530,0,36.113674,-115.145676,0.0,6.475,2047.3,9,3,1.9,0,0.0,-1,0.0,0.0,0.0,0
3028554,1501039131098,,,,,,,,,0,1500,0,,,,,,,,,,,,,,,
3028564,1501039131108,3.15,,-0.02,-0.08,0.86,-2,-7,5,0,1410,0,,,,,,,,,,,,,,,
3028574,1501039131118,,,,,,,,,0,1575,0,,,,,,,,,,,,,,,
3028584,1501039131128,,,,,,,,,0,1650,0,,,,,,,,,,,,,,,
3028594,1501039131138,,,,,,,,,0,1635,0,,,,,,,,,,,,,,,
3028604,1501039131148,3.19,,-0.01,-0.08,0.75,-1,-8,5,0,1590,0,,,,,,,,,,,,,,,
3028614,1501039131158,,,,,,,,,0,1560,0,,,,,,,,,,,,,,,
3028624,1501039131168,,,,,,,,,0,1530,0,,,,,,,,,,,,,,,
3028634,1501039131178,,,,,,,,,0,1500,0,,,,,,,,,,,,,,,
3028644,1501039131188,3.15,,0.03,-0.09,0.7,-1,-10,4,0,1410,0,36.113674,-115.145676,0.0,6.475,2047.3,9,3,1.9,0,0.0,-1,0.0,0.0,0.0,0
3028654,1501039131196,,,,,,,,,0,1575,0,,,,,,,,,,,,,,,
3028664,1501039131206,,,,,,,,,0,1650,0,,,,,,,,,,,,,,,
3028674,1501039131216,,,,,,,,,0,1620,0,,,,,,,,,,,,,,,
3028684,1501039131226,3.16,,0.02,-0.07,0.67,-1,-8,4,0,1590,0,,,,,,,,,,,,,,,
3028694,1501039131236,,,,,,,,,0,1560,0,,,,,,,,,,,,,,,
3028704,1501039131246,,,,,,,,,0,1530,0,,,,,,,,,,,,,,,
3028714,1501039131256,,,,,,,,,0,1500,0,,,,,,,,,,,,,,,
3028724,1501039131266,3.12,,-0.02,-0.06,0.65,-1,-7,2,0,1575,0,,,,,,,,,,,,,,,
3028734,1501039131276,,,,,,,,,0,1665,0,,,,,,,,,,,,,,,
3028744,1501039131286,,,,,,,,,0,1635,0,36.113674,-115.145676,0.0,6.475,2047.3,9,3,1.9,0,0.0,-1,0.0,0.0,0.0,0
3028754,1501039131298,,,,,,,,,0,1590,0,,,,,,,,,,,,,,,
3028764,1501039131308,3.16,,-0.03,-0.08,0.75,-1,-5,4,0,1560,0,,,,,,,,,,,,,,,
3028774,1501039131318,,,,,,,,,0,1530,0,,,,,,,,,,,,,,,
3028784,1501039131328,,,,,,,,,0,1500,0,,,,,,,,,,,,,,,
3028794,1501039131338,,,,,,,,,0,1425,0,,,,,,,,,,,,,,,
3028804,1501039131348,3.18,,-0.03,-0.07,0.83,-1,-0,5,0,1575,0,,,,,,,,,,,,,,,
3028814,1501039131358,,,,,,,,,0,1650,0,,,,,,,,,,,,,,,
3028824,1501039131368,,,,,,,,,0,1635,0,,,,,,,,,,,,,,,
3028834,1501039131378,,,,,,,,,0,1590,0,,,,,,,,,,,,,,,
3028844,1501039131388,3.19,,-0.04,-0.08,0.93,-1,2,4,0,1560,0,36.113674,-115.145676,0.0,6.475,2047.3,9,3,1.9,0,0.0,-1,0.0,0.0,0.0,0
3028854,1501039131398,,,,,,,,,0,1530,0,,,,,,,,,,,,,,,
3028864,1501039131408,,,,,,,,,0,1500,0,,,,,,,,,,,,,,,
3028874,1501039131418,,,,,,,,,0,1410,0,,,,,,,,,,,,,,,
3028884,1501039131428,3.18,,-0.0,-0.06,1.05,-1,3,4,0,1575,0,,,,,,,,,,,,,,,
3028894,1501039131438,,,,,,,,,0,1650,0,,,,,,,,,,,,,,,
3028904,1501039131448,,,,,,,,,0,1620,0,,,,,,,,,,,,,,,
3028914,1501039131458,,,,,,,,,0,1605,0,,,,,,,,,,,,,,,
3028924,1501039131468,3.16,,0.02,-0.08,1.08,-1,2,3,0,1560,0,,,,,,,,,,,,,,,
3028934,1501039131478,,,,,,,,,0,1530,0,,,,,,,,,,,,,,,
3028944,1501039131488,,,,,,,,,0,1500,0,36.113674,-115.145676,0.0,6.475,2047.3,9,3,1.9,0,0.0,-1,0.0,0.0,0.0,0
3028954,1501039131498,,,,,,,,,0,1575,0,,,,,,,,,,,,,,,
3028964,1501039131508,3.16,,-0.01,-0.1,1.23,-2,4,3,0,1665,0,,,,,,,,,,,,,,,
3028974,1501039131518,,,,,,,,,0,1635,0,,,,,,,,,,,,,,,
3028984,1501039131528,,,,,,,,,0,1590,0,,,,,,,,,,,,,,,
3028994,1501039131538,,,,,,,,,0,1560,0,,,,,,,,,,,,,,,
3029004,1501039131548,3.17,,0.01,-0.07,1.15,-1,-0,2,0,1530,0,,,,,,,,,,,,,,,
3029014,1501039131558,,,,,,,,,0,1500,0,,,,,,,,,,,,,,,
3029024,1501039131568,,,,,,,,,0,1425,0,,,,,,,,,,,,,,,
3029034,1501039131578,,,,,,,,,0,1590,0,,,,,,,,,,,,,,,
3029044,1501039131588,3.18,4.51,0.03,-0.07,1.12,-0,-1,3,0,1650,0,36.113674,-115.145676,0.0,6.475,2047.3,9,3,1.9,0,0.0,-1,0.0,0.0,0.0,0
3029054,1501039131598,,,,,,,,,0,1635,0,,,,,,,,,,,,,,,
3029064,1501039131608,,,,,,,,,0,1605,0,,,,,,,,,,,,,,,
3029074,1501039131618,,,,,,,,,0,1560,0,,,,,,,,,,,,,,,
3029084,1501039131628,3.16,,0.01,-0.02,1.01,-0,-6,3,0,1530,0,,,,,,,,,,,,,,,
3029094,1501039131638,,,,,,,,,0,1500,0,,,,,,,,,,,,,,,
3029104,1501039131648,,,,,,,,,0,1425,0,,,,,,,,,,,,,,,
3029114,1501039131658,,,,,,,,,0,1590,0,,,,,,,,,,,,,,,
3029124,1501039131668,3.19,,0.04,-0.04,0.97,-1,-9,3,0,1665,0,,,,,,,,,,,,,,,
3029134,1501039131678,,,,,,,,,0,1635,0,,,,,,,,,,,,,,,
3029144,1501039131688,,,,,,,,,0,1605,0,36.113674,-115.145676,0.0,6.475,2047.3,9,3,1.9,0,0.0,-1,0.0,0.0,0.0,0
3029154,1501039131697,,,,,,,,,0,1560,0,,,,,,,,,,,,,,,
3029164,1501039131707,3.19,,-0.02,-0.01,0.9,-1,-8,4,0,1530,0,,,,,,,,,,,,,,,
3029174,1501039131717,,,,,,,,,0,1500,0,,,,,,,,,,,,,,,
3029184,1501039131727,,,,,,,,,0,1590,0,,,,,,,,,,,,,,,
3029194,1501039131737,,,,,,,,,0,1665,0,,,,,,,,,,,,,,,
3029204,1501039131747,3.19,,-0.03,0.01,0.86,-1,-10,3,0,1635,0,,,,,,,,,,,,,,,
3029214,1501039131757,,,,,,,,,0,1605,0,,,,,,,,,,,,,,,
3029224,1501039131767,,,,,,,,,0,1560,0,,,,,,,,,,,,,,,
3029234,1501039131777,,,,,,,,,0,1530,0,,,,,,,,,,,,,,,
3029244,1501039131787,3.2,,-0.05,-0.01,0.89,-1,-5,3,0,1500,0,36.113674,-115.145676,0.0,6.475,2047.3,9,3,1.9,0,0.0,-1,0.0,0.0,0.0,0
3029254,1501039131797,,,,,,,,,0,1425,0,,,,,,,,,,,,,,,
3029264,1501039131807,,,,,,,,,0,1575,0,,,,,,,,,,,,,,,
3029274,1501039131817,,,,,,,,,0,1650,0,,,,,,,,,,,,,,,
3029284,1501039131827,3.18,,-0.08,-0.01,0.87,-1,-5,4,0,1635,0,,,,,,,,,,,,,,,
3029294,1501039131837,,,,,,,,,0,1590,0,,,,,,,,,,,,,,,
3029304,1501039131847,,,,,,,,,0,1560,0,,,,,,,,,,,,,,,
3029314,1501039131857,,,,,,,,,0,1530,0,,,,,,,,,,,,,,,
3029324,1501039131867,3.19,,-0.05,-0.04,0.96,-1,-2,5,0,1500,0,,,,,,,,,,,,,,,
3029334,1501039131877,,,,,,,,,0,1410,0,,,,,,,,,,,,,,,
3029344,1501039131887,,,,,,,,,0,1575,0,36.113674,-115.145676,0.0,6.475,2047.3,9,3,1.9,0,0.0,-1,0.0,0.0,0.0,0
3029354,1501039131897,,,,,,,,,0,1650,0,,,,,,,,,,,,,,,
3029364,1501039131907,3.18,,-0.03,-0.05,0.99,-2,0,5,0,1620,0,,,,,,,,,,,,,,,
3029374,1501039131917,,,,,,,,,0,1590,0,,,,,,,,,,,,,,,
3029384,1501039131927,,,,,,,,,0,1560,0,,,,,,,,,,,,,,,
3029394,1501039131937,,,,,,,,,0,1530,0,,,,,,,,,,,,,,,
3029404,1501039131947,3.2,,-0.01,-0.07,1.15,-3,-1,6,0,1500,0,,,,,,,,,,,,,,,
3029414,1501039131957,,,,,,,,,0,1410,0,,,,,,,,,,,,,,,
3029424,1501039131967,,,,,,,,,0,1650,0,,,,,,,,,,,,,,,
3029434,1501039131977,,,,,,,,,0,1635,0,,,,,,,,,,,,,,,
3029444,1501039131987,3.2,,-0.01,-0.07,1.18,-2,-0,3,0,1590,0,36.113674,-115.145676,0.0,6.475,2047.3,9,3,1.9,0,0.0,-1,0.0,0.0,0.0,0
3029454,1501039131991,,,,,,,,,0,1560,0,,,,,,,,,,,,,,,
3029464,1501039132001,,,,,,,,,0,1530,0,,,,,,,,,,,,,,,
3029474,1501039132011,,,,,,,,,0,1500,0,,,,,,,,,,,,,,,
3029484,1501039132021,3.19,,-0.02,-0.04,1.19,-1,-3,3,0,1410,0,,,,,,,,,,,,,,,
3029494,1501039132031,,,,,,,,,0,1575,0,,,,,,,,,,,,,,,
3029504,1501039132041,,,,,,,,,0,1650,0,,,,,,,,,,,,,,,
3029514,1501039132051,,,,,,,,,0,1635,0,,,,,,,,,,,,,,,
3029524,1501039132061,3.21,,-0.0,-0.03,1.17,-1,-3,3,0,1590,0,,,,,,,,,,,,,,,
3029534,1501039132071,,,,,,,,,0,1560,0,,,,,,,,,,,,,,,
3029544,1501039132081,,,,,,,,,0,1530,0,36.113674,-115.145676,0.0,6.475,2047.3,9,3,1.9,0,0.0,-1,0.0,0.0,0.0,0
3029554,1501039132093,,,,,,,,,0,1485,0,,,,,,,,,,,,,,,
3029564,1501039132103,3.17,,0.02,-0.04,1.09,-1,-7,4,0,1425,0,,,,,,,,,,,,,,,
3029574,1501039132113,,,,,,,,,0,1575,0,,,,,,,,,,,,,,,
3029584,1501039132123,,,,,,,,,0,1650,0,,,,,,,,,,,,,,,
3029594,1501039132133,,,,,,,,,0,1620,0,,,,,,,,,,,,,,,
3029604,1501039132143,3.21,,0.04,-0.03,1.05,-1,-8,4,0,1605,0,,,,,,,,,,,,,,,
3029614,1501039132153,,,,,,,,,0,1560,0,,,,,,,,,,,,,,,
3029624,1501039132163,,,,,,,,,0,1530,0,,,,,,,,,,,,,,,
3029634,1501039132173,,,,,,,,,0,1500,0,,,,,,,,,,,,,,,
3029644,1501039132183,3.19,,0.05,-0.01,0.91,-1,-11,3,0,1410,0,36.113674,-115.145676,0.0,6.475,2047.3,9,3,1.9,0,0.0,-1,0.0,0.0,0.0,0
3029654,1501039132197,,,,,,,,,0,1575,0,,,,,,,,,,,,,,,
3029664,1501039132207,,,,,,,,,0,1635,0,,,,,,,,,,,,,,,
3029674,1501039132217,,,,,,,,,0,1590,0,,,,,,,,,,,,,,,
3029684,1501039132227,3.19,,0.01,0.02,0.93,-1,-10,4,0,1560,0,,,,,,,,,,,,,,,
3029694,1501039132237,,,,,,,,,0,1530,0,,,,,,,,,,,,,,,
3029704,1501039132247,,,,,,,,,0,1500,0,,,,,,,,,,,,,,,
3029714,1501039132257,,,,,,,,,0,1425,0,,,,,,,,,,,,,,,
3029724,1501039132267,3.2,,-0.02,0.02,0.87,-1,-8,3,0,1590,0,,,,,,,,,,,,,,,
3029734,1501039132277,,,,,,,,,0,1650,0,,,,,,,,,,,,,,,
3029744,1501039132287,,,,,,,,,0,1635,0,36.113674,-115.145676,0.0,6.475,2047.3,9,3,1.9,0,0.0,-1,0.0,0.0,0.0,0
3029754,1501039132297,,,,,,,,,0,1590,0,,,,,,,,,,,,,,,
3029764,1501039132307,3.2,,-0.03,-0.01,0.93,-1,-5,3,0,1560,0,,,,,,,,,,,,,,,
3029774,1501039132317,,,,,,,,,0,1530,0,,,,,,,,,,,,,,,
3029784,1501039132327,,,,,,,,,0,1500,0,,,,,,,,,,,,,,,
3029794,1501039132337,,,,,,,,,0,1425,0,,,,,,,,,,,,,,,
3029804,1501039132347,3.21,,-0.03,0.01,0.91,-2,-1,5,0,1575,0,,,,,,,,,,,,,,,
3029814,1501039132357,,,,,,,,,0,1650,0,,,,,,,,,,,,,,,
3029824,1501039132367,,,,,,,,,0,1635,0,,,,,,,,,,,,,,,
3029834,1501039132377,,,,,,,,,0,1590,0,,,,,,,,,,,,,,,
3029844,1501039132387,3.19,,-0.03,-0.03,0.97,-2,0,4,0,1560,0,36.113674,-115.145676,0.0,6.475,2047.3,9,3,1.9,0,0.0,-1,0.0,0.0,0.0,0
3029854,1501039132397,,,,,,,,,0,1530,0,,,,,,,,,,,,,,,
3029864,1501039132407,,,,,,,,,0,1500,0,,,,,,,,,,,,,,,
3029874,1501039132417,,,,,,,,,0,1410,0,,,,,,,,,,,,,,,
3029884,1501039132427,3.2,,-0.01,-0.03,1.08,-3,3,5,0,1575,0,,,,,,,,,,,,,,,
3029894,1501039132437,,,,,,,,,0,1650,0,,,,,,,,,,,,,,,
3029904,1501039132447,,,,,,,,,0,1590,0,,,,,,,,,,,,,,,
3029914,1501039132457,,,,,,,,,0,1560,0,,,,,,,,,,,,,,,
3029924,1501039132467,3.14,,0.01,-0.05,1.09,-3,0,5,0,1530,0,,,,,,,,,,,,,,,
3029934,1501039132477,,,,,,,,,0,1500,0,,,,,,,,,,,,,,,
3029944,1501039132487,,,,,,,,,0,1410,0,36.113674,-115.145676,0.0,6.475,2047.3,9,3,1.9,0,0.0,-1,0.0,0.0,0.0,0
3029954,1501039132497,,,,,,,,,0,1575,0,,,,,,,,,,,,,,,
3029964,1501039132507,3.19,,-0.01,-0.07,1.19,-2,2,5,0,1650,0,,,,,,,,,,,,,,,
3029974,1501039132517,,,,,,,,,0,1635,0,,,,,,,,,,,,,,,
3029984,1501039132527,,,,,,,,,0,1605,0,,,,,,,,,,,,,,,
3029994,1501039132537,,,,,,,,,0,1560,0,,,,,,,,,,,,,,,
3030004,1501039132547,3.2,,0.0,-0.03,1.14,-2,-2,4,0,1530,0,,,,,,,,,,,,,,,
3030014,1501039132557,,,,,,,,,0,1500,0,,,,,,,,,,,,,,,
3030024,1501039132567,,,,,,,,,0,1425,0,,,,,,,,,,,,,,,
3030034,1501039132577,,,,,,,,,0,1590,0,,,,,,,,,,,,,,,
3030044,1501039132587,3.23,4.49,0.02,-0.04,1.11,-1,-4,4,0,1650,0,36.113674,-115.145676,0.0,6.475,2047.3,9,3,1.9,0,0.0,-1,0.0,0.0,0.0,0
3030054,1501039132595,,,,,,,,,0,1635,0,,,,,,,,,,,,,,,
3030064,1501039132605,,,,,,,,,0,1605,0,,,,,,,,,,,,,,,
3030074,1501039132615,,,,,,,,,0,1560,0,,,,,,,,,,,,,,,
3030084,1501039132625,3.19,,0.01,-0.01,1.01,-1,-6,4,0,1530,0,,,,,,,,,,,,,,,
3030094,1501039132635,,,,,,,,,0,1500,0,,,,,,,,,,,,,,,
3030104,1501039132645,,,,,,,,,0,1425,0,,,,,,,,,,,,,,,
3030114,1501039132655,,,,,,,,,0,1575,0,,,,,,,,,,,,,,,
3030124,1501039132665,3.2,,0.04,-0.02,1.0,-1,-10,4,0,1665,0,,,,,,,,,,,,,,,
3030134,1501039132675,,,,,,,,,0,1605,0,,,,,,,,,,,,,,,
3030144,1501039132685,,,,,,,,,0,1560,0,36.113674,-115.145676,0.0,6.475,2047.3,9,3,1.9,0,0.0,-1,0.0,0.0,0.0,0
3030154,1501039132698,,,,,,,,,0,1530,0,,,,,,,,,,,,,,,
3030164,1501039132708,3.2,,-0.01,0.0,0.93,-2,-8,5,0,1530,0,,,,,,,,,,,,,,,
3030174,1501039132718,,,,,,,,,0,1425,0,,,,,,,,,,,,,,,
3030184,1501039132728,,,,,,,,,0,1590,0,,,,,,,,,,,,,,,
3030194,1501039132738,,,,,,,,,0,1665,0,,,,,,,,,,,,,,,
3030204,1501039132748,3.2,,-0.02,-0.0,0.9,-1,-10,3,0,1635,0,,,,,,,,,,,,,,,
3030214,1501039132758,,,,,,,,,0,1605,0,,,,,,,,,,,,,,,
3030224,1501039132768,,,,,,,,,0,1575,0,,,,,,,,,,,,,,,
3030234,1501039132778,,,,,,,,,0,1530,0,,,,,,,,,,,,,,,
3030244,1501039132788,3.2,,-0.04,-0.02,0.93,-1,-5,4,0,1500,0,36.113674,-115.145676,0.0,6.475,2047.3,9,3,1.9,0,0.0,-1,0.0,0.0,0.0,0
3030254,1501039132798,,,,,,,,,0,1425,0,,,,,,,,,,,,,,,
3030264,1501039132808,,,,,,,,,0,1590,0,,,,,,,,,,,,,,,
3030274,1501039132818,,,,,,,,,0,1665,0,,,,,,,,,,,,,,,
3030284,1501039132828,3.18,,-0.06,-0.01,0.94,-1,-4,4,0,1635,0,,,,,,,,,,,,,,,
3030294,1501039132838,,,,,,,,,0,1605,0,,,,,,,,,,,,,,,
3030304,1501039132848,,,,,,,,,0,1560,0,,,,,,,,,,,,,,,
3030314,1501039132858,,,,,,,,,0,1530,0,,,,,,,,,,,,,,,
3030324,1501039132868,3.2,,-0.03,-0.01,1.04,-3,-2,6,0,1500,0,,,,,,,,,,,,,,,
3030334,1501039132878,,,,,,,,,0,1425,0,,,,,,,,,,,,,,,
3030344,1501039132888,,,,,,,,,0,1590,0,36.113674,-115.145676,0.0,6.475,2047.3,9,3,1.9,0,0.0,-1,0.0,0.0,0.0,0
3030354,1501039132898,,,,,,,,,0,1650,0,,,,,,,,,,,,,,,
3030364,1501039132908,3.13,,-0.04,-0.03,1.06,-2,0,5,0,1605,0,,,,,,,,,,,,,,,
3030374,1501039132918,,,,,,,,,0,1560,0,,,,,,,,,,,,,,,
3030384,1501039132928,,,,,,,,,0,1530,0,,,,,,,,,,,,,,,
3030394,1501039132938,,,,,,,,,0,1500,0,,,,,,,,,,,,,,,
3030404,1501039132948,3.14,,-0.02,-0.04,1.18,-2,-2,4,0,1425,0,,,,,,,,,,,,,,,
3030414,1501039132958,,,,,,,,,0,1575,0,,,,,,,,,,,,,,,
3030424,1501039132968,,,,,,,,,0,1650,0,,,,,,,,,,,,,,,
3030434,1501039132978,,,,,,,,,0,1635,0,,,,,,,,,,,,,,,
3030444,1501039132988,3.19,,-0.02,-0.03,1.18,-2,-1,4,0,1590,0,36.113674,-115.145676,0.0,6.475,2047.3,9,3,1.9,0,0.0,-1,0.0,0.0,0.0,0
3030454,1501039132998,,,,,,,,,0,1560,0,,,,,,,,,,,,,,,
3030464,1501039133000,,,,,,,,,0,1530,0,,,,,,,,,,,,,,,
3030474,1501039133010,,,,,,,,,0,1500,0,,,,,,,,,,,,,,,
3030484,1501039133020,3.15,,-0.01,-0.03,1.12,-1,-4,4,0,1410,0,,,,,,,,,,,,,,,
3030494,1501039133030,,,,,,,,,0,1590,0,,,,,,,,,,,,,,,
3030504,1501039133040,,,,,,,,,0,1650,0,,,,,,,,,,,,,,,
3030514,1501039133050,,,,,,,,,0,1635,0,,,,,,,,,,,,,,,
3030524,1501039133060,3.2,,0.01,-0.01,1.04,-1,-5,5,0,1605,0,,,,,,,,,,,,,,,
3030534,1501039133070,,,,,,,,,0,1560,0,,,,,,,,,,,,,,,
3030544,1501039133080,,,,,,,,,0,1530,0,36.113674,-115.145676,0.0,6.475,2047.3,9,3,1.9,0,0.0,-1,0.0,0.0,0.0,0
3030554,1501039133096,,,,,,,,,0,1500,0,,,,,,,,,,,,,,,
3030564,1501039133106,3.15,,0.04,-0.02,0.98,-2,-10,5,0,1425,0,,,,,,,,,,,,,,,
3030574,1501039133116,,,,,,,,,0,1590,0,,,,,,,,,,,,,,,
3030584,1501039133126,,,,,,,,,0,1665,0,,,,,,,,,,,,,,,
3030594,1501039133136,,,,,,,,,0,1635,0,,,,,,,,,,,,,,,
3030604,1501039133146,3.13,,0.01,-0.0,0.96,-2,-10,5,0,1560,0,,,,,,,,,,,,,,,
3030614,1501039133156,,,,,,,,,0,1530,0,,,,,,,,,,,,,,,
3030624,1501039133166,,,,,,,,,0,1530,0,,,,,,,,,,,,,,,
3030634,1501039133176,,,,,,,,,0,1425,0,,,,,,,,,,,,,,,
3030644,1501039133186,3.18,,-0.02,0.01,0.92,-1,-11,3,0,1575,0,36.113674,-115.145676,0.0,6.475,2047.3,9,3,1.9,0,0.0,-1,0.0,0.0,0.0,0
3030654,1501039133198,,,,,,,,,0,1665,0,,,,,,,,,,,,,,,
3030664,1501039133208,,,,,,,,,0,1635,0,,,,,,,,,,,,,,,
3030674,1501039133218,,,,,,,,,0,1605,0,,,,,,,,,,,,,,,
3030684,1501039133228,3.19,,-0.03,-0.01,0.96,-2,-9,4,0,1560,0,,,,,,,,,,,,,,,
3030694,1501039133238,,,,,,,,,0,1530,0,,,,,,,,,,,,,,,
3030704,1501039133248,,,,,,,,,0,1500,0,,,,,,,,,,,,,,,
3030714,1501039133258,,,,,,,,,0,1425,0,,,,,,,,,,,,,,,
3030724,1501039133268,3.19,,-0.05,0.0,1.01,-2,-4,5,0,1590,0,,,,,,,,,,,,,,,
3030734,1501039133278,,,,,,,,,0,1665,0,,,,,,,,,,,,,,,
3030744,1501039133288,,,,,,,,,0,1635,0,36.113674,-115.145676,0.0,6.475,2047.3,9,3,1.9,0,0.0,-1,0.0,0.0,0.0,0
3030754,1501039133298,,,,,,,,,0,1605,0,,,,,,,,,,,,,,,
3030764,1501039133308,3.18,,-0.05,-0.03,1.05,-2,-3,4,0,1560,0,,,,,,,,,,,,,,,
3030774,1501039133318,,,,,,,,,0,1530,0,,,,,,,,,,,,,,,
3030784,1501039133328,,,,,,,,,0,1500,0,,,,,,,,,,,,,,,
3030794,1501039133338,,,,,,,,,0,1425,0,,,,,,,,,,,,,,,
3030804,1501039133348,3.19,,-0.03,-0.03,1.16,-2,1,5,0,1590,0,,,,,,,,,,,,,,,
3030814,1501039133358,,,,,,,,,0,1650,0,,,,,,,,,,,,,,,
3030824,1501039133368,,,,,,,,,0,1605,0,,,,,,,,,,,,,,,
3030834,1501039133378,,,,,,,,,0,1560,0,,,,,,,,,,,,,,,
3030844,1501039133388,3.14,,-0.01,-0.05,1.15,-2,-1,3,0,1530,0,36.113674,-115.145676,0.0,6.475,2047.3,9,3,1.9,0,0.0,-1,0.0,0.0,0.0,0
3030854,1501039133398,,,,,,,,,0,1500,0,,,,,,,,,,,,,,,
3030864,1501039133408,,,,,,,,,0,1425,0,,,,,,,,,,,,,,,
3030874,1501039133418,,,,,,,,,0,1590,0,,,,,,,,,,,,,,,
3030884,1501039133428,3.18,,-0.02,-0.05,1.22,-2,1,3,0,1665,0,,,,,,,,,,,,,,,
3030894,1501039133438,,,,,,,,,0,1635,0,,,,,,,,,,,,,,,
3030904,1501039133448,,,,,,,,,0,1605,0,,,,,,,,,,,,,,,
3030914,1501039133458,,,,,,,,,0,1560,0,,,,,,,,,,,,,,,
3030924,1501039133468,3.19,,-0.01,-0.02,1.16,-1,-3,2,0,1530,0,,,,,,,,,,,,,,,
3030934,1501039133478,,,,,,,,,0,1500,0,,,,,,,,,,,,,,,
3030944,1501039133488,,,,,,,,,0,1425,0,36.113674,-115.145676,0.0,6.475,2047.3,9,3,1.9,0,0.0,-1,0.0,0.0,0.0,0
3030954,1501039133498,,,,,,,,,0,1590,0,,,,,,,,,,,,,,,
3030964,1501039133508,3.21,,0.02,-0.03,1.11,-1,-5,2,0,1665,0,,,,,,,,,,,,,,,
3030974,1501039133518,,,,,,,,,0,1635,0,,,,,,,,,,,,,,,
3030984,1501039133528,,,,,,,,,0,1605,0,,,,,,,,,,,,,,,
3030994,1501039133538,,,,,,,,,0,1560,0,,,,,,,,,,,,,,,
3031004,1501039133548,3.2,,0.0,-0.0,1.03,-1,-6,3,0,1530,0,,,,,,,,,,,,,,,
3031014,1501039133558,,,,,,,,,0,1500,0,,,,,,,,,,,,,,,
3031024,1501039133568,,,,,,,,,0,1425,0,,,,,,,,,,,,,,,
3031034,1501039133578,,,,,,,,,0,1590,0,,,,,,,,,,,,,,,
3031044,1501039133588,3.2,4.49,0.02,-0.01,0.98,-1,-10,4,0,1650,0,36.113674,-115.145676,0.0,6.475,2047.3,9,3,1.9,0,0.0,-1,0.0,0.0,0.0,0
3031054,1501039133598,,,,,,,,,0,1605,0,,,,,,,,,,,,,,,
3031064,1501039133608,,,,,,,,,0,1560,0,,,,,,,,,,,,,,,
3031074,1501039133618,,,,,,,,,0,1530,0,,,,,,,,,,,,,,,
3031084,1501039133628,3.15,,-0.03,0.0,0.96,-1,-7,4,0,1500,0,,,,,,,,,,,,,,,
3031094,1501039133638,,,,,,,,,0,1425,0,,,,,,,,,,,,,,,
3031104,1501039133648,,,,,,,,,0,1575,0,,,,,,,,,,,,,,,
3031114,1501039133658,,,,,,,,,0,1650,0,,,,,,,,,,,,,,,
3031124,1501039133668,3.18,,-0.05,0.0,0.96,-1,-9,2,0,1635,0,,,,,,,,,,,,,,,
3031134,1501039133678,,,,,,,,,0,1590,0,,,,,,,,,,,,,,,
3031144,1501039133688,,,,,,,,,0,1560,0,36.113674,-115.145676,0.0,6.475,2047.3,9,3,1.9,0,0.0,-1,0.0,0.0,0.0,0
3031154,1501039133697,,,,,,,,,0,1530,0,,,,,,,,,,,,,,,
3031164,1501039133707,3.19,,-0.06,-0.02,1.0,-1,-4,3,0,1500,0,,,,,,,,,,,,,,,
3031174,1501039133717,,,,,,,,,0,1425,0,,,,,,,,,,,,,,,
3031184,1501039133727,,,,,,,,,0,1590,0,,,,,,,,,,,,,,,
3031194,1501039133737,,,,,,,,,0,1665,0,,,,,,,,,,,,,,,
3031204,1501039133747,3.18,,-0.08,-0.02,1.03,-1,-3,3,0,1635,0,,,,,,,,,,,,,,,
3031214,1501039133757,,,,,,,,,0,1605,0,,,,,,,,,,,,,,,
3031224,1501039133767,,,,,,,,,0,1560,0,,,,,,,,,,,,,,,
3031234,1501039133777,,,,,,,,,0,1530,0,,,,,,,,,,,,,,,
3031244,1501039133787,3.19,,-0.04,-0.04,1.18,-2,-1,5,0,1500,0,36.113674,-115.145676,0.0,6.475,2047.3,9,3,1.9,0,0.0,-1,0.0,0.0,0.0,0
3031254,1501039133797,,,,,,,,,0,1425,0,,,,,,,,,,,,,,,
3031264,1501039133807,,,,,,,,,0,1590,0,,,,,,,,,,,,,,,
3031274,1501039133817,,,,,,,,,0,1635,0,,,,,,,,,,,,,,,
3031284,1501039133827,3.13,,-0.04,-0.05,1.16,-2,1,5,0,1605,0,,,,,,,,,,,,,,,
3031294,1501039133837,,,,,,,,,0,1560,0,,,,,,,,,,,,,,,
3031304,1501039133847,,,,,,,,,0,1530,0,,,,,,,,,,,,,,,
3031314,1501039133857,,,,,,,,,0,1500,0,,,,,,,,,,,,,,,
3031324,1501039133867,3.14,,-0.02,-0.04,1.22,-1,-1,3,0,1425,0,,,,,,,,,,,,,,,
3031334,1501039133877,,,,,,,,,0,1575,0,,,,,,,,,,,,,,,
3031344,1501039133887,,,,,,,,,0,1665,0,36.113674,-115.145676,0.0,6.475,2047.3,9,3,1.9,0,0.0,-1,0.0,0.0,0.0,0
3031354,1501039133897,,,,,,,,,0,1635,0,,,,,,,,,,,,,,,
3031364,1501039133907,3.19,,-0.02,-0.02,1.22,-1,-1,2,0,1605,0,,,,,,,,,,,,,,,
3031374,1501039133917,,,,,,,,,0,1560,0,,,,,,,,,,,,,,,
3031384,1501039133927,,,,,,,,,0,1530,0,,,,,,,,,,,,,,,
3031394,1501039133937,,,,,,,,,0,1515,0,,,,,,,,,,,,,,,
3031404,1501039133947,3.17,,0.01,-0.04,1.14,-0,-4,3,0,1425,0,,,,,,,,,,,,,,,
3031414,1501039133957,,,,,,,,,0,1590,0,,,,,,,,,,,,,,,
3031424,1501039133967,,,,,,,,,0,1665,0,,,,,,,,,,,,,,,
3031434,1501039133977,,,,,,,,,0,1650,0,,,,,,,,,,,,,,,
3031444,1501039133987,3.2,,0.03,-0.02,1.07,-1,-6,3,0,1605,0,36.113674,-115.145676,0.0,6.475,2047.3,9,3,1.9,0,0.0,-1,0.0,0.0,0.0,0
3031454,1501039133991,,,,,,,,,0,1575,0,,,,,,,,,,,,,,,
3031464,1501039134001,,,,,,,,,0,1530,0,,,,,,,,,,,,,,,
3031474,1501039134011,,,,,,,,,0,1515,0,,,,,,,,,,,,,,,
3031484,1501039134021,3.18,,0.05,-0.01,0.99,-1,-9,2,0,1425,0,,,,,,,,,,,,,,,
3031494,1501039134031,,,,,,,,,0,1590,0,,,,,,,,,,,,,,,
3031504,1501039134041,,,,,,,,,0,1650,0,,,,,,,,,,,,,,,
3031514,1501039134051,,,,,,,,,0,1605,0,,,,,,,,,,,,,,,
3031524,1501039134061,3.17,,0.02,0.01,0.97,-1,-8,4,0,1575,0,,,,,,,,,,,,,,,
3031534,1501039134071,,,,,,,,,0,1545,0,,,,,,,,,,,,,,,
3031544,1501039134081,,,,,,,,,0,1515,0,36.113674,-115.145676,0.0,6.475,2047.3,9,3,1.9,0,0.0,-1,0.0,0.0,0.0,0
3031554,1501039134097,,,,,,,,,0,1425,0,,,,,,,,,,,,,,,
3031564,1501039134107,3.18,,-0.02,0.01,0.94,-1,-7,3,0,1590,0,,,,,,,,,,,,,,,
3031574,1501039134117,,,,,,,,,0,1665,0,,,,,,,,,,,,,,,
3031584,1501039134127,,,,,,,,,0,1635,0,,,,,,,,,,,,,,,
3031594,1501039134137,,,,,,,,,0,1605,0,,,,,,,,,,,,,,,
3031604,1501039134147,3.2,,-0.03,-0.02,1.0,-1,-5,2,0,1560,0,,,,,,,,,,,,,,,
3031614,1501039134157,,,,,,,,,0,1545,0,,,,,,,,,,,,,,,
3031624,1501039134167,,,,,,,,,0,1500,0,,,,,,,,,,,,,,,
3031634,1501039134177,,,,,,,,,0,1425,0,,,,,,,,,,,,,,,
3031644,1501039134187,3.19,,-0.03,0.0,0.99,-2,-1,3,0,1590,0,36.113674,-115.145676,0.0,6.475,2047.3,9,3,1.9,0,0.0,-1,0.0,0.0,0.0,0
3031654,1501039134197,,,,,,,,,0,1665,0,,,,,,,,,,,,,,,
3031664,1501039134207,,,,,,,,,0,1635,0,,,,,,,,,,,,,,,
3031674,1501039134217,,,,,,,,,0,1605,0,,,,,,,,,,,,,,,
3031684,1501039134227,3.19,,-0.02,-0.05,1.06,-2,-2,3,0,1560,0,,,,,,,,,,,,,,,
3031694,1501039134237,,,,,,,,,0,1530,0,,,,,,,,,,,,,,,
3031704,1501039134247,,,,,,,,,0,1500,0,,,,,,,,,,,,,,,
3031714,1501039134257,,,,,,,,,0,1425,0,,,,,,,,,,,,,,,
3031724,1501039134267,3.13,,-0.02,-0.04,1.18,-2,1,3,0,1665,0,,,,,,,,,,,,,,,
3031734,1501039134277,,,,,,,,,0,1635,0,,,,,,,,,,,,,,,
3031744,1501039134287,,,,,,,,,0,1605,0,36.113674,-115.145676,0.0,6.475,2047.3,9,3,1.9,0,0.0,-1,0.0,0.0,0.0,0
3031754,1501039134297,,,,,,,,,0,1575,0,,,,,,,,,,,,,,,
3031764,1501039134307,3.18,,-0.0,-0.04,1.12,-1,-2,2,0,1530,0,,,,,,,,,,,,,,,
3031774,1501039134317,,,,,,,,,0,1500,0,,,,,,,,,,,,,,,
3031784,1501039134327,,,,,,,,,0,1425,0,,,,,,,,,,,,,,,
3031794,1501039134337,,,,,,,,,0,1590,0,,,,,,,,,,,,,,,
3031804,1501039134347,3.2,,-0.01,-0.04,1.14,-1,-2,3,0,1665,0,,,,,,,,,,,,,,,
3031814,1501039134357,,,,,,,,,0,1635,0,,,,,,,,,,,,,,,
3031824,1501039134367,,,,,,,,,0,1605,0,,,,,,,,,,,,,,,
3031834,1501039134377,,,,,,,,,0,1560,0,,,,,,,,,,,,,,,
3031844,1501039134387,3.2,,-0.01,-0.01,1.07,-1,-4,3,0,1530,0,36.113674,-115.145676,0.0,6.475,2047.3,9,3,1.9,0,0.0,-1,0.0,0.0,0.0,0
3031854,1501039134397,,,,,,,,,0,1500,0,,,,,,,,,,,,,,,
3031864,1501039134407,,,,,,,,,0,1425,0,,,,,,,,,,,,,,,
3031874,1501039134417,,,,,,,,,0,1590,0,,,,,,,,,,,,,,,
3031884,1501039134427,3.22,,0.04,-0.03,1.04,-0,-8,3,0,1665,0,,,,,,,,,,,,,,,
3031894,1501039134437,,,,,,,,,0,1635,0,,,,,,,,,,,,,,,
3031904,1501039134447,,,,,,,,,0,1605,0,,,,,,,,,,,,,,,
3031914,1501039134457,,,,,,,,,0,1560,0,,,,,,,,,,,,,,,
3031924,1501039134467,3.19,,0.01,-0.01,0.96,-1,-7,4,0,1530,0,,,,,,,,,,,,,,,
3031934,1501039134477,,,,,,,,,0,1500,0,,,,,,,,,,,,,,,
3031944,1501039134487,,,,,,,,,0,1590,0,36.113674,-115.145676,0.0,6.475,2047.3,9,3,1.9,0,0.0,-1,0.0,0.0,0.0,0
3031954,1501039134497,,,,,,,,,0,1665,0,,,,,,,,,,,,,,,
3031964,1501039134507,3.19,,0.0,0.0,0.93,-1,-10,5,0,1635,0,,,,,,,,,,,,,,,
3031974,1501039134517,,,,,,,,,0,1605,0,,,,,,,,,,,,,,,
3031984,1501039134527,,,,,,,,,0,1575,0,,,,,,,,,,,,,,,
3031994,1501039134537,,,,,,,,,0,1545,0,,,,,,,,,,,,,,,
3032004,1501039134547,3.2,,-0.03,-0.0,0.91,-1,-6,5,0,1500,0,,,,,,,,,,,,,,,
3032014,1501039134557,,,,,,,,,0,1425,0,,,,,,,,,,,,,,,
3032024,1501039134567,,,,,,,,,0,1590,0,,,,,,,,,,,,,,,
3032034,1501039134577,,,,,,,,,0,1665,0,,,,,,,,,,,,,,,
3032044,1501039134587,3.17,4.49,-0.05,0.0,0.86,-1,-5,4,0,1635,0,36.113674,-115.145676,0.0,6.475,2047.3,9,3,1.9,0,0.0,-1,0.0,0.0,0.0,0
3032054,1501039134597,,,,,,,,,0,1605,0,,,,,,,,,,,,,,,
3032064,1501039134607,,,,,,,,,0,1560,0,,,,,,,,,,,,,,,
3032074,1501039134617,,,,,,,,,0,1545,0,,,,,,,,,,,,,,,
3032084,1501039134627,3.19,,-0.03,-0.01,0.92,-2,-1,5,0,1500,0,,,,,,,,,,,,,,,
3032094,1501039134637,,,,,,,,,0,1425,0,,,,,,,,,,,,,,,
3032104,1501039134647,,,,,,,,,0,1590,0,,,,,,,,,,,,,,,
3032114,1501039134657,,,,,,,,,0,1665,0,,,,,,,,,,,,,,,
3032124,1501039134667,3.17,,-0.03,-0.03,0.9,-2,0,5,0,1635,0,,,,,,,,,,,,,,,
3032134,1501039134677,,,,,,,,,0,1575,0,,,,,,,,,,,,,,,
3032144,1501039134687,,,,,,,,,0,1545,0,36.113674,-115.145676,0.0,6.475,2047.3,9,3,1.9,0,0.0,-1,0.0,0.0,0.0,0
3032154,1501039134698,,,,,,,,,0,1515,0,,,,,,,,,,,,,,,
3032164,1501039134708,3.15,,-0.01,-0.04,1.05,-2,-1,4,0,1425,0,,,,,,,,,,,,,,,
3032174,1501039134718,,,,,,,,,0,1590,0,,,,,,,,,,,,,,,
3032184,1501039134728,,,,,,,,,0,1665,0,,,,,,,,,,,,,,,
3032194,1501039134738,,,,,,,,,0,1635,0,,,,,,,,,,,,,,,
3032204,1501039134748,3.2,,-0.02,-0.03,1.07,-1,-1,3,0,1605,0,,,,,,,,,,,,,,,
3032214,1501039134758,,,,,,,,,0,1560,0,,,,,,,,,,,,,,,
3032224,1501039134768,,,,,,,,,0,1530,0,,,,,,,,,,,,,,,
3032234,1501039134778,,,,,,,,,0,1500,0,,,,,,,,,,,,,,,
3032244,1501039134788,3.19,,-0.0,-0.04,1.03,-0,-4,3,0,1425,0,36.113674,-115.145676,0.0,6.475,2047.3,9,3,1.9,0,0.0,-1,0.0,0.0,0.0,0
3032254,1501039134798,,,,,,,,,0,1590,0,,,,,,,,,,,,,,,
3032264,1501039134808,,,,,,,,,0,1665,0,,,,,,,,,,,,,,,
3032274,1501039134818,,,,,,,,,0,1635,0,,,,,,,,,,,,,,,
3032284,1501039134828,3.2,,0.03,-0.02,0.97,-1,-5,4,0,1605,0,,,,,,,,,,,,,,,
3032294,1501039134838,,,,,,,,,0,1560,0,,,,,,,,,,,,,,,
3032304,1501039134848,,,,,,,,,0,1530,0,,,,,,,,,,,,,,,
3032314,1501039134858,,,,,,,,,0,1500,0,,,,,,,,,,,,,,,
3032324,1501039134868,3.19,,0.05,-0.03,0.94,-1,-9,4,0,1425,0,,,,,,,,,,,,,,,
3032334,1501039134878,,,,,,,,,0,1590,0,,,,,,,,,,,,,,,
3032344,1501039134888,,,,,,,,,0,1635,0,36.113674,-115.145676,0.0,6.475,2047.3,9,3,1.9,0,0.0,-1,0.0,0.0,0.0,0
3032354,1501039134896,,,,,,,,,0,1605,0,,,,,,,,,,,,,,,
3032364,1501039134906,3.13,,0.04,-0.01,0.91,-1,-9,4,0,1575,0,,,,,,,,,,,,,,,
3032374,1501039134916,,,,,,,,,0,1530,0,,,,,,,,,,,,,,,
3032384,1501039134926,,,,,,,,,0,1515,0,,,,,,,,,,,,,,,
3032394,1501039134936,,,,,,,,,0,1425,0,,,,,,,,,,,,,,,
3032404,1501039134946,3.2,,-0.01,0.0,0.87,-1,-9,2,0,1590,0,,,,,,,,,,,,,,,
3032414,1501039134956,,,,,,,,,0,1665,0,,,,,,,,,,,,,,,
3032424,1501039134966,,,,,,,,,0,1635,0,,,,,,,,,,,,,,,
3032434,1501039134976,,,,,,,,,0,1605,0,,,,,,,,,,,,,,,
3032444,1501039134986,3.2,,-0.02,-0.01,0.94,-1,-7,3,0,1560,0,36.113674,-115.145676,0.0,6.475,2047.3,9,3,1.9,0,0.0,-1,0.0,0.0,0.0,0
3032454,1501039134992,,,,,,,,,0,1530,0,,,,,,,,,,,,,,,
3032464,1501039135002,,,,,,,,,0,1500,0,,,,,,,,,,,,,,,
3032474,1501039135012,,,,,,,,,0,1425,0,,,,,,,,,,,,,,,
3032484,1501039135022,3.2,,-0.04,0.01,0.96,-2,-4,5,0,1590,0,,,,,,,,,,,,,,,
3032494,1501039135032,,,,,,,,,0,1650,0,,,,,,,,,,,,,,,
3032504,1501039135042,,,,,,,,,0,1620,0,,,,,,,,,,,,,,,
3032514,1501039135052,,,,,,,,,0,1605,0,,,,,,,,,,,,,,,
3032524,1501039135062,3.17,,-0.03,-0.05,1.04,-2,-2,5,0,1560,0,,,,,,,,,,,,,,,
3032534,1501039135072,,,,,,,,,0,1530,0,,,,,,,,,,,,,,,
3032544,1501039135082,,,,,,,,,0,1500,0,36.113674,-115.145676,0.0,6.475,2047.3,9,3,1.9,0,0.0,-1,0.0,0.0,0.0,0
3032554,1501039135096,,,,,,,,,0,1425,0,,,,,,,,,,,,,,,
3032564,1501039135106,3.18,,-0.02,-0.03,1.17,-2,1,5,0,1590,0,,,,,,,,,,,,,,,
3032574,1501039135116,,,,,,,,,0,1635,0,,,,,,,,,,,,,,,
3032584,1501039135126,,,,,,,,,0,1605,0,,,,,,,,,,,,,,,
3032594,1501039135136,,,,,,,,,0,1560,0,,,,,,,,,,,,,,,
3032604,1501039135146,3.14,,-0.01,-0.04,1.14,-2,-1,4,0,1530,0,,,,,,,,,,,,,,,
3032614,1501039135156,,,,,,,,,0,1500,0,,,,,,,,,,,,,,,
3032624,1501039135166,,,,,,,,,0,1425,0,,,,,,,,,,,,,,,
3032634,1501039135176,,,,,,,,,0,1575,0,,,,,,,,,,,,,,,
3032644,1501039135186,3.18,,-0.02,-0.04,1.2,-2,0,4,0,1650,0,36.113674,-115.145676,0.0,6.475,2047.3,9,3,1.9,0,0.0,-1,0.0,0.0,0.0,0
3032654,1501039135198,,,,,,,,,0,1635,0,,,,,,,,,,,,,,,
3032664,1501039135208,,,,,,,,,0,1605,0,,,,,,,,,,,,,,,
3032674,1501039135218,,,,,,,,,0,1560,0,,,,,,,,,,,,,,,
3032684,1501039135228,3.19,,-0.01,-0.01,1.15,-1,-3,3,0,1530,0,,,,,,,,,,,,,,,
3032694,1501039135238,,,,,,,,,0,1500,0,,,,,,,,,,,,,,,
3032704,1501039135248,,,,,,,,,0,1425,0,,,,,,,,,,,,,,,
3032714,1501039135258,,,,,,,,,0,1575,0,,,,,,,,,,,,,,,
3032724,1501039135268,3.21,,0.02,-0.03,1.13,-0,-5,3,0,1665,0,,,,,,,,,,,,,,,
3032734,1501039135278,,,,,,,,,0,1635,0,,,,,,,,,,,,,,,
3032744,1501039135288,,,,,,,,,0,1605,0,36.113674,-115.145676,0.0,6.475,2047.3,9,3,1.9,0,0.0,-1,0.0,0.0,0.0,0
3032754,1501039135298,,,,,,,,,0,1575,0,,,,,,,,,,,,,,,
3032764,1501039135308,3.18,,0.01,-0.0,1.04,-0,-6,3,0,1530,0,,,,,,,,,,,,,,,
3032774,1501039135318,,,,,,,,,0,1500,0,,,,,,,,,,,,,,,
3032784,1501039135328,,,,,,,,,0,1425,0,,,,,,,,,,,,,,,
3032794,1501039135338,,,,,,,,,0,1590,0,,,,,,,,,,,,,,,
3032804,1501039135348,3.16,,0.02,-0.01,1.01,-1,-10,4,0,1635,0,,,,,,,,,,,,,,,
3032814,1501039135358,,,,,,,,,0,1605,0,,,,,,,,,,,,,,,
3032824,1501039135368,,,,,,,,,0,1560,0,,,,,,,,,,,,,,,
3032834,1501039135378,,,,,,,,,0,1530,0,,,,,,,,,,,,,,,
3032844,1501039135388,3.15,,-0.03,-0.01,1.01,-2,-7,4,0,1500,0,36.113674,-115.145676,0.0,6.475,2047.3,9,3,1.9,0,0.0,-1,0.0,0.0,0.0,0
3032854,1501039135398,,,,,,,,,0,1425,0,,,,,,,,,,,,,,,
3032864,1501039135408,,,,,,,,,0,1590,0,,,,,,,,,,,,,,,
3032874,1501039135418,,,,,,,,,0,1650,0,,,,,,,,,,,,,,,
3032884,1501039135428,3.18,,-0.05,-0.01,1.0,-1,-10,4,0,1635,0,,,,,,,,,,,,,,,
3032894,1501039135438,,,,,,,,,0,1605,0,,,,,,,,,,,,,,,
3032904,1501039135448,,,,,,,,,0,1560,0,,,,,,,,,,,,,,,
3032914,1501039135458,,,,,,,,,0,1530,0,,,,,,,,,,,,,,,
3032924,1501039135468,3.19,,-0.05,-0.02,1.01,-1,-5,4,0,1500,0,,,,,,,,,,,,,,,
3032934,1501039135478,,,,,,,,,0,1425,0,,,,,,,,,,,,,,,
3032944,1501039135488,,,,,,,,,0,1590,0,36.113674,-115.145676,0.0,6.475,2047.3,9,3,1.9,0,0.0,-1,0.0,0.0,0.0,0
3032954,1501039135498,,,,,,,,,0,1650,0,,,,,,,,,,,,,,,
3032964,1501039135508,3.15,,-0.05,-0.04,0.98,-1,-3,4,0,1635,0,,,,,,,,,,,,,,,
3032974,1501039135518,,,,,,,,,0,1605,0,,,,,,,,,,,,,,,
3032984,1501039135528,,,,,,,,,0,1560,0,,,,,,,,,,,,,,,
3032994,1501039135538,,,,,,,,,0,1530,0,,,,,,,,,,,,,,,
3033004,1501039135548,3.2,,-0.01,-0.04,1.14,-2,-2,5,0,1500,0,,,,,,,,,,,,,,,
3033014,1501039135558,,,,,,,,,0,1425,0,,,,,,,,,,,,,,,
3033024,1501039135568,,,,,,,,,0,1590,0,,,,,,,,,,,,,,,
3033034,1501039135578,,,,,,,,,0,1635,0,,,,,,,,,,,,,,,
3033044,1501039135588,3.13,4.5,-0.03,-0.05,1.12,-2,-0,4,0,1590,0,36.113674,-115.145676,0.0,6.475,2047.3,9,3,1.9,0,0.0,-1,0.0,0.0,0.0,0
3033054,1501039135598,,,,,,,,,0,1560,0,,,,,,,,,,,,,,,
3033064,1501039135608,,,,,,,,,0,1530,0,,,,,,,,,,,,,,,
3033074,1501039135618,,,,,,,,,0,1500,0,,,,,,,,,,,,,,,
3033084,1501039135628,3.19,,-0.02,-0.03,1.12,-1,-3,2,0,1425,0,,,,,,,,,,,,,,,
3033094,1501039135638,,,,,,,,,0,1590,0,,,,,,,,,,,,,,,
3033104,1501039135648,,,,,,,,,0,1650,0,,,,,,,,,,,,,,,
3033114,1501039135658,,,,,,,,,0,1635,0,,,,,,,,,,,,,,,
3033124,1501039135668,3.19,,-0.02,-0.01,1.12,-1,-2,3,0,1605,0,,,,,,,,,,,,,,,
3033134,1501039135678,,,,,,,,,0,1560,0,,,,,,,,,,,,,,,
3033144,1501039135688,,,,,,,,,0,1530,0,36.113674,-115.145676,0.0,6.475,2047.3,9,3,1.9,0,0.0,-1,0.0,0.0,0.0,0
3033154,1501039135697,,,,,,,,,0,1500,0,,,,,,,,,,,,,,,
3033164,1501039135707,3.17,,0.0,-0.03,1.06,-1,-5,4,0,1425,0,,,,,,,,,,,,,,,
3033174,1501039135717,,,,,,,,,0,1575,0,,,,,,,,,,,,,,,
3033184,1501039135727,,,,,,,,,0,1650,0,,,,,,,,,,,,,,,
3033194,1501039135737,,,,,,,,,0,1635,0,,,,,,,,,,,,,,,
3033204,1501039135747,3.21,,0.03,-0.02,1.02,-1,-6,3,0,1605,0,,,,,,,,,,,,,,,
3033214,1501039135757,,,,,,,,,0,1560,0,,,,,,,,,,,,,,,
3033224,1501039135767,,,,,,,,,0,1530,0,,,,,,,,,,,,,,,
3033234,1501039135777,,,,,,,,,0,1500,0,,,,,,,,,,,,,,,
3033244,1501039135787,3.18,,0.04,-0.01,0.94,-1,-9,3,0,1425,0,36.113674,-115.145676,0.0,6.475,2047.3,9,3,1.9,0,0.0,-1,0.0,0.0,0.0,0
3033254,1501039135797,,,,,,,,,0,1590,0,,,,,,,,,,,,,,,
3033264,1501039135807,,,,,,,,,0,1635,0,,,,,,,,,,,,,,,
3033274,1501039135817,,,,,,,,,0,1605,0,,,,,,,,,,,,,,,
3033284,1501039135827,3.19,,0.01,-0.0,0.94,-1,-9,4,0,1560,0,,,,,,,,,,,,,,,
3033294,1501039135837,,,,,,,,,0,1530,0,,,,,,,,,,,,,,,
3033304,1501039135847,,,,,,,,,0,1500,0,,,,,,,,,,,,,,,
3033314,1501039135857,,,,,,,,,0,1425,0,,,,,,,,,,,,,,,
3033324,1501039135867,3.2,,-0.03,0.01,0.92,-1,-9,3,0,1590,0,,,,,,,,,,,,,,,
3033334,1501039135877,,,,,,,,,0,1665,0,,,,,,,,,,,,,,,
3033344,1501039135887,,,,,,,,,0,1635,0,36.113674,-115.145676,0.0,6.475,2047.3,9,3,1.9,0,0.0,-1,0.0,0.0,0.0,0
3033354,1501039135897,,,,,,,,,0,1605,0,,,,,,,,,,,,,,,
3033364,1501039135907,3.19,,-0.04,-0.01,0.99,-1,-7,3,0,1560,0,,,,,,,,,,,,,,,
3033374,1501039135917,,,,,,,,,0,1530,0,,,,,,,,,,,,,,,
3033384,1501039135927,,,,,,,,,0,1500,0,,,,,,,,,,,,,,,
3033394,1501039135937,,,,,,,,,0,1425,0,,,,,,,,,,,,,,,
3033404,1501039135947,3.21,,-0.05,0.01,1.01,-2,-4,5,0,1590,0,,,,,,,,,,,,,,,
3033414,1501039135957,,,,,,,,,0,1650,0,,,,,,,,,,,,,,,
3033424,1501039135967,,,,,,,,,0,1635,0,,,,,,,,,,,,,,,
3033434,1501039135977,,,,,,,,,0,1605,0,,,,,,,,,,,,,,,
3033444,1501039135987,3.17,,-0.03,-0.04,1.07,-1,-3,4,0,1560,0,36.113674,-115.145676,0.0,6.475,2047.3,9,3,1.9,0,0.0,-1,0.0,0.0,0.0,0
3033454,1501039135991,,,,,,,,,0,1530,0,,,,,,,,,,,,,,,
3033464,1501039136001,,,,,,,,,0,1500,0,,,,,,,,,,,,,,,
3033474,1501039136011,,,,,,,,,0,1425,0,,,,,,,,,,,,,,,
3033484,1501039136021,3.17,,-0.01,-0.03,1.19,-3,1,6,0,1575,0,,,,,,,,,,,,,,,
3033494,1501039136031,,,,,,,,,0,1635,0,,,,,,,,,,,,,,,
3033504,1501039136041,,,,,,,,,0,1605,0,,,,,,,,,,,,,,,
3033514,1501039136051,,,,,,,,,0,1560,0,,,,,,,,,,,,,,,
3033524,1501039136061,3.17,,-0.0,-0.04,1.15,-2,-2,5,0,1530,0,,,,,,,,,,,,,,,
3033534,1501039136071,,,,,,,,,0,1500,0,,,,,,,,,,,,,,,
3033544,1501039136081,,,,,,,,,0,1425,0,36.113674,-115.145676,0.0,6.475,2047.3,9,3,1.9,0,0.0,-1,0.0,0.0,0.0,0
3033554,1501039136097,,,,,,,,,0,1590,0,,,,,,,,,,,,,,,
3033564,1501039136107,3.17,,-0.01,-0.03,1.18,-2,-1,4,0,1650,0,,,,,,,,,,,,,,,
3033574,1501039136117,,,,,,,,,0,1635,0,,,,,,,,,,,,,,,
3033584,1501039136127,,,,,,,,,0,1590,0,,,,,,,,,,,,,,,
3033594,1501039136137,,,,,,,,,0,1560,0,,,,,,,,,,,,,,,
3033604,1501039136147,3.2,,-0.01,0.0,1.12,-1,-4,4,0,1530,0,,,,,,,,,,,,,,,
3033614,1501039136157,,,,,,,,,0,1500,0,,,,,,,,,,,,,,,
3033624,1501039136167,,,,,,,,,0,1425,0,,,,,,,,,,,,,,,
3033634,1501039136177,,,,,,,,,0,1575,0,,,,,,,,,,,,,,,
3033644,1501039136187,3.21,,0.02,-0.02,1.07,-1,-6,3,0,1650,0,36.113674,-115.145676,0.0,6.475,2047.3,9,3,1.9,0,0.0,-1,0.0,0.0,0.0,0
3033654,1501039136197,,,,,,,,,0,1635,0,,,,,,,,,,,,,,,
3033664,1501039136207,,,,,,,,,0,1605,0,,,,,,,,,,,,,,,
3033674,1501039136217,,,,,,,,,0,1560,0,,,,,,,,,,,,,,,
3033684,1501039136227,3.2,,0.01,0.0,0.99,-1,-8,4,0,1530,0,,,,,,,,,,,,,,,
3033694,1501039136237,,,,,,,,,0,1500,0,,,,,,,,,,,,,,,
3033704,1501039136247,,,,,,,,,0,1425,0,,,,,,,,,,,,,,,
3033714,1501039136257,,,,,,,,,0,1575,0,,,,,,,,,,,,,,,
3033724,1501039136267,3.16,,0.02,0.01,0.98,-1,-11,5,0,1635,0,,,,,,,,,,,,,,,
3033734,1501039136277,,,,,,,,,0,1605,0,,,,,,,,,,,,,,,
3033744,1501039136287,,,,,,,,,0,1560,0,36.113674,-115.145676,0.0,6.475,2047.3,9,3,1.9,0,0.0,-1,0.0,0.0,0.0,0
3033754,1501039136297,,,,,,,,,0,1530,0,,,,,,,,,,,,,,,
3033764,1501039136307,3.15,,-0.03,0.01,0.96,-2,-8,5,0,1500,0,,,,,,,,,,,,,,,
3033774,1501039136317,,,,,,,,,0,1425,0,,,,,,,,,,,,,,,
3033784,1501039136327,,,,,,,,,0,1575,0,,,,,,,,,,,,,,,
3033794,1501039136337,,,,,,,,,0,1650,0,,,,,,,,,,,,,,,
3033804,1501039136347,3.18,,-0.05,0.0,0.95,-1,-10,4,0,1635,0,,,,,,,,,,,,,,,
3033814,1501039136357,,,,,,,,,0,1590,0,,,,,,,,,,,,,,,
3033824,1501039136367,,,,,,,,,0,1560,0,,,,,,,,,,,,,,,
3033834,1501039136377,,,,,,,,,0,1530,0,,,,,,,,,,,,,,,
3033844,1501039136387,3.19,,-0.05,-0.02,0.99,-1,-5,4,0,1500,0,36.113674,-115.145676,0.0,6.475,2047.3,9,3,1.9,0,0.0,-1,0.0,0.0,0.0,0
3033854,1501039136397,,,,,,,,,0,1425,0,,,,,,,,,,,,,,,
3033864,1501039136407,,,,,,,,,0,1575,0,,,,,,,,,,,,,,,
3033874,1501039136417,,,,,,,,,0,1650,0,,,,,,,,,,,,,,,
3033884,1501039136427,3.18,,-0.07,-0.02,0.99,-1,-4,4,0,1620,0,,,,,,,,,,,,,,,
3033894,1501039136437,,,,,,,,,0,1590,0,,,,,,,,,,,,,,,
3033904,1501039136447,,,,,,,,,0,1560,0,,,,,,,,,,,,,,,
3033914,1501039136457,,,,,,,,,0,1530,0,,,,,,,,,,,,,,,
3033924,1501039136467,3.19,,-0.04,-0.02,1.08,-2,-2,5,0,1500,0,,,,,,,,,,,,,,,
3033934,1501039136477,,,,,,,,,0,1425,0,,,,,,,,,,,,,,,
3033944,1501039136487,,,,,,,,,0,1575,0,36.113674,-115.145676,0.0,6.475,2047.3,9,3,1.9,0,0.0,-1,0.0,0.0,0.0,0
3033954,1501039136497,,,,,,,,,0,1650,0,,,,,,,,,,,,,,,
3033964,1501039136507,3.13,,-0.05,-0.03,1.08,-2,1,4,0,1605,0,,,,,,,,,,,,,,,
3033974,1501039136517,,,,,,,,,0,1560,0,,,,,,,,,,,,,,,
3033984,1501039136527,,,,,,,,,0,1530,0,,,,,,,,,,,,,,,
3033994,1501039136537,,,,,,,,,0,1500,0,,,,,,,,,,,,,,,
3034004,1501039136547,3.14,,-0.03,-0.05,1.18,-1,-2,3,0,1425,0,,,,,,,,,,,,,,,
3034014,1501039136557,,,,,,,,,0,1590,0,,,,,,,,,,,,,,,
3034024,1501039136567,,,,,,,,,0,1665,0,,,,,,,,,,,,,,,
3034034,1501039136577,,,,,,,,,0,1635,0,,,,,,,,,,,,,,,
3034044,1501039136587,3.19,4.51,-0.03,-0.03,1.17,-1,-1,2,0,1605,0,36.113674,-115.145676,0.0,6.475,2047.3,9,3,1.9,0,0.0,-1,0.0,0.0,0.0,0
3034054,1501039136597,,,,,,,,,0,1560,0,,,,,,,,,,,,,,,
3034064,1501039136607,,,,,,,,,0,1530,0,,,,,,,,,,,,,,,
3034074,1501039136617,,,,,,,,,0,1500,0,,,,,,,,,,,,,,,
3034084,1501039136627,3.16,,-0.01,-0.04,1.13,-1,-3,3,0,1425,0,,,,,,,,,,,,,,,
3034094,1501039136637,,,,,,,,,0,1590,0,,,,,,,,,,,,,,,
3034104,1501039136647,,,,,,,,,0,1665,0,,,,,,,,,,,,,,,
3034114,1501039136657,,,,,,,,,0,1635,0,,,,,,,,,,,,,,,
3034124,1501039136667,3.2,,0.02,-0.02,1.05,-1,-5,3,0,1605,0,,,,,,,,,,,,,,,
3034134,1501039136677,,,,,,,,,0,1560,0,,,,,,,,,,,,,,,
3034144,1501039136687,,,,,,,,,0,1545,0,36.113674,-115.145676,0.0,6.475,2047.3,9,3,1.9,0,0.0,-1,0.0,0.0,0.0,0
3034154,1501039136696,,,,,,,,,0,1500,0,,,,,,,,,,,,,,,
3034164,1501039136706,3.17,,0.05,-0.02,1.01,-1,-8,3,0,1425,0,,,,,,,,,,,,,,,
3034174,1501039136716,,,,,,,,,0,1590,0,,,,,,,,,,,,,,,
3034184,1501039136726,,,,,,,,,0,1635,0,,,,,,,,,,,,,,,
3034194,1501039136736,,,,,,,,,0,1605,0,,,,,,,,,,,,,,,
3034204,1501039136746,3.19,,0.03,-0.01,0.98,-1,-8,3,0,1560,0,,,,,,,,,,,,,,,
3034214,1501039136756,,,,,,,,,0,1545,0,,,,,,,,,,,,,,,
3034224,1501039136766,,,,,,,,,0,1500,0,,,,,,,,,,,,,,,
3034234,1501039136776,,,,,,,,,0,1425,0,,,,,,,,,,,,,,,
3034244,1501039136786,3.19,,-0.01,0.01,0.96,-1,-8,2,0,1590,0,36.113674,-115.145676,0.0,6.475,2047.3,9,3,1.9,0,0.0,-1,0.0,0.0,0.0,0
3034254,1501039136798,,,,,,,,,0,1665,0,,,,,,,,,,,,,,,
3034264,1501039136808,,,,,,,,,0,1635,0,,,,,,,,,,,,,,,
3034274,1501039136818,,,,,,,,,0,1605,0,,,,,,,,,,,,,,,
3034284,1501039136828,3.2,,-0.02,-0.02,1.01,-1,-6,3,0,1560,0,,,,,,,,,,,,,,,
3034294,1501039136838,,,,,,,,,0,1530,0,,,,,,,,,,,,,,,
3034304,1501039136848,,,,,,,,,0,1500,0,,,,,,,,,,,,,,,
3034314,1501039136858,,,,,,,,,0,1425,0,,,,,,,,,,,,,,,
3034324,1501039136868,3.19,,-0.03,0.0,0.99,-2,-3,4,0,1575,0,,,,,,,,,,,,,,,
3034334,1501039136878,,,,,,,,,0,1650,0,,,,,,,,,,,,,,,
3034344,1501039136888,,,,,,,,,0,1635,0,36.113674,-115.145676,0.0,6.475,2047.3,9,3,1.9,0,0.0,-1,0.0,0.0,0.0,0
3034354,1501039136898,,,,,,,,,0,1605,0,,,,,,,,,,,,,,,
3034364,1501039136908,3.19,,-0.02,-0.06,1.06,-2,-2,4,0,1560,0,,,,,,,,,,,,,,,
3034374,1501039136918,,,,,,,,,0,1530,0,,,,,,,,,,,,,,,
3034384,1501039136928,,,,,,,,,0,1500,0,,,,,,,,,,,,,,,
3034394,1501039136938,,,,,,,,,0,1425,0,,,,,,,,,,,,,,,
3034404,1501039136948,3.16,,-0.02,-0.04,1.17,-3,2,5,0,1590,0,,,,,,,,,,,,,,,
3034414,1501039136958,,,,,,,,,0,1635,0,,,,,,,,,,,,,,,
3034424,1501039136968,,,,,,,,,0,1605,0,,,,,,,,,,,,,,,
3034434,1501039136978,,,,,,,,,0,1560,0,,,,,,,,,,,,,,,
3034444,1501039136988,3.17,,-0.01,-0.04,1.13,-2,-1,4,0,1530,0,36.113674,-115.145676,0.0,6.475,2047.3,9,3,1.9,0,0.0,-1,0.0,0.0,0.0,0
3034454,1501039136998,,,,,,,,,0,1500,0,,,,,,,,,,,,,,,
3034464,1501039137000,,,,,,,,,0,1425,0,,,,,,,,,,,,,,,
3034474,1501039137010,,,,,,,,,0,1575,0,,,,,,,,,,,,,,,
3034484,1501039137020,3.17,,-0.02,-0.03,1.14,-2,0,5,0,1650,0,,,,,,,,,,,,,,,
3034494,1501039137030,,,,,,,,,0,1635,0,,,,,,,,,,,,,,,
3034504,1501039137040,,,,,,,,,0,1605,0,,,,,,,,,,,,,,,
3034514,1501039137050,,,,,,,,,0,1560,0,,,,,,,,,,,,,,,
3034524,1501039137060,3.19,,-0.02,-0.0,1.08,-1,-3,5,0,1530,0,,,,,,,,,,,,,,,
3034534,1501039137070,,,,,,,,,0,1500,0,,,,,,,,,,,,,,,
3034544,1501039137080,,,,,,,,,0,1410,0,36.113674,-115.145676,0.0,6.475,2047.3,9,3,1.9,0,0.0,-1,0.0,0.0,0.0,0
3034554,1501039137098,,,,,,,,,0,1590,0,,,,,,,,,,,,,,,
3034564,1501039137108,3.2,,0.03,-0.03,1.04,-1,-5,4,0,1665,0,,,,,,,,,,,,,,,
3034574,1501039137118,,,,,,,,,0,1635,0,,,,,,,,,,,,,,,
3034584,1501039137128,,,,,,,,,0,1605,0,,,,,,,,,,,,,,,
3034594,1501039137138,,,,,,,,,0,1575,0,,,,,,,,,,,,,,,
3034604,1501039137148,3.19,,0.02,-0.0,0.98,-1,-6,4,0,1530,0,,,,,,,,,,,,,,,
3034614,1501039137158,,,,,,,,,0,1500,0,,,,,,,,,,,,,,,
3034624,1501039137168,,,,,,,,,0,1425,0,,,,,,,,,,,,,,,
3034634,1501039137178,,,,,,,,,0,1575,0,,,,,,,,,,,,,,,
3034644,1501039137188,3.15,,0.02,-0.0,0.94,-1,-10,4,0,1635,0,36.113674,-115.145676,0.0,6.475,2047.3,9,3,1.9,0,0.0,-1,0.0,0.0,0.0,0
3034654,1501039137198,,,,,,,,,0,1605,0,,,,,,,,,,,,,,,
3034664,1501039137208,,,,,,,,,0,1560,0,,,,,,,,,,,,,,,
3034674,1501039137218,,,,,,,,,0,1530,0,,,,,,,,,,,,,,,
3034684,1501039137228,3.15,,-0.02,-0.0,0.93,-2,-7,4,0,1500,0,,,,,,,,,,,,,,,
3034694,1501039137238,,,,,,,,,0,1425,0,,,,,,,,,,,,,,,
3034704,1501039137248,,,,,,,,,0,1590,0,,,,,,,,,,,,,,,
3034714,1501039137258,,,,,,,,,0,1665,0,,,,,,,,,,,,,,,
3034724,1501039137268,3.18,,-0.05,-0.0,0.94,-1,-8,4,0,1635,0,,,,,,,,,,,,,,,
3034734,1501039137278,,,,,,,,,0,1605,0,,,,,,,,,,,,,,,
3034744,1501039137288,,,,,,,,,0,1560,0,36.113674,-115.145676,0.0,6.475,2047.3,9,3,1.9,0,0.0,-1,0.0,0.0,0.0,0
3034754,1501039137298,,,,,,,,,0,1530,0,,,,,,,,,,,,,,,
3034764,1501039137308,3.19,,-0.04,-0.02,0.97,-1,-4,4,0,1500,0,,,,,,,,,,,,,,,
3034774,1501039137318,,,,,,,,,0,1425,0,,,,,,,,,,,,,,,
3034784,1501039137328,,,,,,,,,0,1590,0,,,,,,,,,,,,,,,
3034794,1501039137338,,,,,,,,,0,1665,0,,,,,,,,,,,,,,,
3034804,1501039137348,3.17,,-0.05,-0.03,0.96,-2,-3,4,0,1635,0,,,,,,,,,,,,,,,
3034814,1501039137358,,,,,,,,,0,1605,0,,,,,,,,,,,,,,,
3034824,1501039137368,,,,,,,,,0,1560,0,,,,,,,,,,,,,,,
3034834,1501039137378,,,,,,,,,0,1530,0,,,,,,,,,,,,,,,
3034844,1501039137388,3.19,,-0.03,-0.03,1.14,-2,-2,5,0,1500,0,36.113674,-115.145676,0.0,6.475,2047.3,9,3,1.9,0,0.0,-1,0.0,0.0,0.0,0
3034854,1501039137396,,,,,,,,,0,1425,0,,,,,,,,,,,,,,,
3034864,1501039137406,,,,,,,,,0,1590,0,,,,,,,,,,,,,,,
3034874,1501039137416,,,,,,,,,0,1635,0,,,,,,,,,,,,,,,
3034884,1501039137426,3.17,,-0.04,-0.04,1.11,-2,-0,4,0,1605,0,,,,,,,,,,,,,,,
3034894,1501039137436,,,,,,,,,0,1560,0,,,,,,,,,,,,,,,
3034904,1501039137446,,,,,,,,,0,1545,0,,,,,,,,,,,,,,,
3034914,1501039137456,,,,,,,,,0,1500,0,,,,,,,,,,,,,,,
3034924,1501039137466,3.17,,-0.03,-0.03,1.1,-1,-3,3,0,1425,0,,,,,,,,,,,,,,,
3034934,1501039137476,,,,,,,,,0,1590,0,,,,,,,,,,,,,,,
3034944,1501039137486,,,,,,,,,0,1665,0,36.113674,-115.145676,0.0,6.475,2047.3,9,3,1.9,0,0.0,-1,0.0,0.0,0.0,0
3034954,1501039137498,,,,,,,,,0,1635,0,,,,,,,,,,,,,,,
3034964,1501039137508,3.18,,-0.02,0.0,1.08,-1,-2,4,0,1605,0,,,,,,,,,,,,,,,
3034974,1501039137518,,,,,,,,,0,1560,0,,,,,,,,,,,,,,,
3034984,1501039137528,,,,,,,,,0,1530,0,,,,,,,,,,,,,,,
3034994,1501039137538,,,,,,,,,0,1500,0,,,,,,,,,,,,,,,
3035004,1501039137548,3.17,,0.01,-0.03,1.03,-1,-6,5,0,1425,0,,,,,,,,,,,,,,,
3035014,1501039137558,,,,,,,,,0,1590,0,,,,,,,,,,,,,,,
3035024,1501039137568,,,,,,,,,0,1650,0,,,,,,,,,,,,,,,
3035034,1501039137578,,,,,,,,,0,1635,0,,,,,,,,,,,,,,,
3035044,1501039137588,3.18,4.5,0.04,-0.02,1.02,-1,-8,4,0,1605,0,36.113674,-115.145676,0.0,6.475,2047.3,9,3,1.9,0,0.0,-1,0.0,0.0,0.0,0
3035054,1501039137598,,,,,,,,,0,1560,0,,,,,,,,,,,,,,,
3035064,1501039137608,,,,,,,,,0,1530,0,,,,,,,,,,,,,,,
3035074,1501039137618,,,,,,,,,0,1500,0,,,,,,,,,,,,,,,
3035084,1501039137628,3.17,,0.05,-0.02,0.93,-1,-10,4,0,1425,0,,,,,,,,,,,,,,,
3035094,1501039137638,,,,,,,,,0,1650,0,,,,,,,,,,,,,,,
3035104,1501039137648,,,,,,,,,0,1635,0,,,,,,,,,,,,,,,
3035114,1501039137658,,,,,,,,,0,1605,0,,,,,,,,,,,,,,,
3035124,1501039137668,3.17,,0.02,-0.0,0.94,-2,-9,5,0,1560,0,,,,,,,,,,,,,,,
3035134,1501039137678,,,,,,,,,0,1530,0,,,,,,,,,,,,,,,
3035144,1501039137688,,,,,,,,,0,1500,0,36.113674,-115.145676,0.0,6.475,2047.3,9,3,1.9,0,0.0,-1,0.0,0.0,0.0,0
3035154,1501039137697,,,,,,,,,0,1425,0,,,,,,,,,,,,,,,
3035164,1501039137707,3.19,,-0.01,0.01,0.91,-1,-9,5,0,1590,0,,,,,,,,,,,,,,,
3035174,1501039137717,,,,,,,,,0,1650,0,,,,,,,,,,,,,,,
3035184,1501039137727,,,,,,,,,0,1635,0,,,,,,,,,,,,,,,
3035194,1501039137737,,,,,,,,,0,1605,0,,,,,,,,,,,,,,,
3035204,1501039137747,3.19,,-0.02,-0.02,0.97,-1,-8,4,0,1560,0,,,,,,,,,,,,,,,
3035214,1501039137757,,,,,,,,,0,1530,0,,,,,,,,,,,,,,,
3035224,1501039137767,,,,,,,,,0,1500,0,,,,,,,,,,,,,,,
3035234,1501039137777,,,,,,,,,0,1425,0,,,,,,,,,,,,,,,
3035244,1501039137787,3.19,,-0.04,0.01,0.98,-2,-4,5,0,1575,0,36.113674,-115.145676,0.0,6.475,2047.3,9,3,1.9,0,0.0,-1,0.0,0.0,0.0,0
3035254,1501039137797,,,,,,,,,0,1650,0,,,,,,,,,,,,,,,
3035264,1501039137807,,,,,,,,,0,1635,0,,,,,,,,,,,,,,,
3035274,1501039137817,,,,,,,,,0,1605,0,,,,,,,,,,,,,,,
3035284,1501039137827,3.19,,-0.03,-0.04,1.05,-2,-2,5,0,1560,0,,,,,,,,,,,,,,,
3035294,1501039137837,,,,,,,,,0,1530,0,,,,,,,,,,,,,,,
3035304,1501039137847,,,,,,,,,0,1500,0,,,,,,,,,,,,,,,
3035314,1501039137857,,,,,,,,,0,1410,0,,,,,,,,,,,,,,,
3035324,1501039137867,3.17,,-0.02,-0.03,1.16,-2,1,6,0,1575,0,,,,,,,,,,,,,,,
3035334,1501039137877,,,,,,,,,0,1620,0,,,,,,,,,,,,,,,
3035344,1501039137887,,,,,,,,,0,1590,0,36.113674,-115.145676,0.0,6.475,2047.3,9,3,1.9,0,0.0,-1,0.0,0.0,0.0,0
3035354,1501039137897,,,,,,,,,0,1560,0,,,,,,,,,,,,,,,
3035364,1501039137907,3.18,,-0.01,-0.04,1.11,-2,-2,5,0,1530,0,,,,,,,,,,,,,,,
3035374,1501039137917,,,,,,,,,0,1500,0,,,,,,,,,,,,,,,
3035384,1501039137927,,,,,,,,,0,1410,0,,,,,,,,,,,,,,,
3035394,1501039137937,,,,,,,,,0,1575,0,,,,,,,,,,,,,,,
3035404,1501039137947,3.17,,-0.01,-0.04,1.22,-2,-1,5,0,1650,0,,,,,,,,,,,,,,,
3035414,1501039137957,,,,,,,,,0,1620,0,,,,,,,,,,,,,,,
3035424,1501039137967,,,,,,,,,0,1590,0,,,,,,,,,,,,,,,
3035434,1501039137977,,,,,,,,,0,1545,0,,,,,,,,,,,,,,,
3035444,1501039137987,3.18,,-0.01,-0.01,1.15,-1,-4,4,0,1530,0,36.113674,-115.145676,0.0,6.475,2047.3,9,3,1.9,0,0.0,-1,0.0,0.0,0.0,0
3035454,1501039137991,,,,,,,,,0,1485,0,,,,,,,,,,,,,,,
3035464,1501039138001,,,,,,,,,0,1410,0,,,,,,,,,,,,,,,
3035474,1501039138011,,,,,,,,,0,1575,0,,,,,,,,,,,,,,,
3035484,1501039138021,3.2,,0.01,-0.02,1.12,-1,-5,4,0,1650,0,,,,,,,,,,,,,,,
3035494,1501039138031,,,,,,,,,0,1620,0,,,,,,,,,,,,,,,
3035504,1501039138041,,,,,,,,,0,1590,0,,,,,,,,,,,,,,,
3035514,1501039138051,,,,,,,,,0,1560,0,,,,,,,,,,,,,,,
3035524,1501039138061,3.18,,0.0,0.01,1.02,-1,-7,4,0,1515,0,,,,,,,,,,,,,,,
3035534,1501039138071,,,,,,,,,0,1485,0,,,,,,,,,,,,,,,
3035544,1501039138081,,,,,,,,,0,1410,0,36.113674,-115.145676,0.0,6.475,2047.3,9,3,2.2,0,0.0,-1,0.0,0.0,0.0,0
3035554,1501039138097,,,,,,,,,0,1575,0,,,,,,,,,,,,,,,
3035564,1501039138107,3.2,,0.04,-0.02,0.99,-1,-10,4,0,1650,0,,,,,,,,,,,,,,,
3035574,1501039138117,,,,,,,,,0,1620,0,,,,,,,,,,,,,,,
3035584,1501039138127,,,,,,,,,0,1590,0,,,,,,,,,,,,,,,
3035594,1501039138137,,,,,,,,,0,1545,0,,,,,,,,,,,,,,,
3035604,1501039138147,3.19,,0.01,-0.01,0.91,-1,-8,4,0,1530,0,,,,,,,,,,,,,,,
3035614,1501039138157,,,,,,,,,0,1485,0,,,,,,,,,,,,,,,
3035624,1501039138167,,,,,,,,,0,1575,0,,,,,,,,,,,,,,,
3035634,1501039138177,,,,,,,,,0,1650,0,,,,,,,,,,,,,,,
3035644,1501039138187,3.17,,-0.0,-0.0,0.87,-1,-10,4,0,1620,0,36.113674,-115.145676,0.0,6.475,2047.3,9,3,2.2,0,0.0,-1,0.0,0.0,0.0,0
3035654,1501039138197,,,,,,,,,0,1590,0,,,,,,,,,,,,,,,
3035664,1501039138207,,,,,,,,,0,1545,0,,,,,,,,,,,,,,,
3035674,1501039138217,,,,,,,,,0,1530,0,,,,,,,,,,,,,,,
3035684,1501039138227,3.2,,-0.03,-0.02,0.87,-1,-6,4,0,1485,0,,,,,,,,,,,,,,,
3035694,1501039138237,,,,,,,,,0,1410,0,,,,,,,,,,,,,,,
3035704,1501039138247,,,,,,,,,0,1575,0,,,,,,,,,,,,,,,
3035714,1501039138257,,,,,,,,,0,1650,0,,,,,,,,,,,,,,,
3035724,1501039138267,3.17,,-0.06,-0.01,0.8,-1,-6,4,0,1635,0,,,,,,,,,,,,,,,
3035734,1501039138277,,,,,,,,,0,1590,0,,,,,,,,,,,,,,,
3035744,1501039138287,,,,,,,,,0,1560,0,36.113674,-115.145676,0.0,6.475,2047.3,9,3,2.2,0,0.0,-1,0.0,0.0,0.0,0
3035754,1501039138297,,,,,,,,,0,1530,0,,,,,,,,,,,,,,,
3035764,1501039138307,3.19,,-0.04,-0.03,0.86,-1,-2,4,0,1485,0,,,,,,,,,,,,,,,
3035774,1501039138317,,,,,,,,,0,1410,0,,,,,,,,,,,,,,,
3035784,1501039138327,,,,,,,,,0,1575,0,,,,,,,,,,,,,,,
3035794,1501039138337,,,,,,,,,0,1650,0,,,,,,,,,,,,,,,
3035804,1501039138347,3.18,,-0.06,-0.03,0.86,-2,-0,4,0,1620,0,,,,,,,,,,,,,,,
3035814,1501039138357,,,,,,,,,0,1590,0,,,,,,,,,,,,,,,
3035824,1501039138367,,,,,,,,,0,1545,0,,,,,,,,,,,,,,,
3035834,1501039138377,,,,,,,,,0,1530,0,,,,,,,,,,,,,,,
3035844,1501039138387,3.2,,-0.02,-0.03,1.05,-3,-1,6,0,1485,0,36.113674,-115.145676,0.0,6.475,2047.3,9,3,2.2,0,0.0,-1,0.0,0.0,0.0,0
3035854,1501039138397,,,,,,,,,0,1410,0,,,,,,,,,,,,,,,
3035864,1501039138407,,,,,,,,,0,1575,0,,,,,,,,,,,,,,,
3035874,1501039138417,,,,,,,,,0,1620,0,,,,,,,,,,,,,,,
3035884,1501039138427,3.14,,-0.03,-0.03,1.03,-3,0,5,0,1590,0,,,,,,,,,,,,,,,
3035894,1501039138437,,,,,,,,,0,1545,0,,,,,,,,,,,,,,,
3035904,1501039138447,,,,,,,,,0,1515,0,,,,,,,,,,,,,,,
3035914,1501039138457,,,,,,,,,0,1485,0,,,,,,,,,,,,,,,
3035924,1501039138467,3.14,,-0.01,-0.03,1.13,-1,-2,3,0,1410,0,,,,,,,,,,,,,,,
3035934,1501039138477,,,,,,,,,0,1575,0,,,,,,,,,,,,,,,
3035944,1501039138487,,,,,,,,,0,1650,0,36.113674,-115.145676,0.0,6.475,2047.3,9,3,2.2,0,0.0,-1,0.0,0.0,0.0,0
3035954,1501039138499,,,,,,,,,0,1620,0,,,,,,,,,,,,,,,
3035964,1501039138509,3.19,,-0.01,-0.02,1.16,-1,-2,4,0,1590,0,,,,,,,,,,,,,,,
3035974,1501039138519,,,,,,,,,0,1545,0,,,,,,,,,,,,,,,
3035984,1501039138529,,,,,,,,,0,1515,0,,,,,,,,,,,,,,,
3035994,1501039138539,,,,,,,,,0,1485,0,,,,,,,,,,,,,,,
3036004,1501039138549,3.17,,-0.02,-0.01,1.11,-1,-5,5,0,1395,0,,,,,,,,,,,,,,,
3036014,1501039138559,,,,,,,,,0,1560,0,,,,,,,,,,,,,,,
3036024,1501039138569,,,,,,,,,0,1650,0,,,,,,,,,,,,,,,
3036034,1501039138579,,,,,,,,,0,1620,0,,,,,,,,,,,,,,,
3036044,1501039138589,3.19,4.47,-0.0,0.01,1.04,-1,-6,5,0,1590,0,36.113674,-115.145676,0.0,6.475,2047.3,9,3,2.2,0,0.0,-1,0.0,0.0,0.0,0
3036054,1501039138597,,,,,,,,,0,1545,0,,,,,,,,,,,,,,,
3036064,1501039138607,,,,,,,,,0,1515,0,,,,,,,,,,,,,,,
3036074,1501039138617,,,,,,,,,0,1485,0,,,,,,,,,,,,,,,
3036084,1501039138627,3.16,,0.03,-0.02,0.97,-1,-9,5,0,1410,0,,,,,,,,,,,,,,,
3036094,1501039138637,,,,,,,,,0,1560,0,,,,,,,,,,,,,,,
3036104,1501039138647,,,,,,,,,0,1650,0,,,,,,,,,,,,,,,
3036114,1501039138657,,,,,,,,,0,1620,0,,,,,,,,,,,,,,,
3036124,1501039138667,3.19,,0.03,-0.01,0.95,-1,-10,4,0,1590,0,,,,,,,,,,,,,,,
3036134,1501039138677,,,,,,,,,0,1560,0,,,,,,,,,,,,,,,
3036144,1501039138687,,,,,,,,,0,1530,0,36.113674,-115.145676,0.0,6.475,2047.3,9,3,2.2,0,0.0,-1,0.0,0.0,0.0,0
3036154,1501039138697,,,,,,,,,0,1485,0,,,,,,,,,,,,,,,
3036164,1501039138707,3.19,,0.01,0.01,0.85,-1,-11,3,0,1410,0,,,,,,,,,,,,,,,
3036174,1501039138717,,,,,,,,,0,1650,0,,,,,,,,,,,,,,,
3036184,1501039138727,,,,,,,,,0,1635,0,,,,,,,,,,,,,,,
3036194,1501039138737,,,,,,,,,0,1590,0,,,,,,,,,,,,,,,
3036204,1501039138747,3.2,,-0.01,-0.0,0.9,-2,-10,5,0,1560,0,,,,,,,,,,,,,,,
3036214,1501039138757,,,,,,,,,0,1530,0,,,,,,,,,,,,,,,
3036224,1501039138767,,,,,,,,,0,1485,0,,,,,,,,,,,,,,,
3036234,1501039138777,,,,,,,,,0,1410,0,,,,,,,,,,,,,,,
3036244,1501039138787,3.19,,-0.04,0.01,0.8,-1,-9,5,0,1575,0,36.113674,-115.145676,0.0,6.475,2047.3,9,3,2.2,0,0.0,-1,0.0,0.0,0.0,0
3036254,1501039138798,,,,,,,,,0,1650,0,,,,,,,,,,,,,,,
3036264,1501039138808,,,,,,,,,0,1635,0,,,,,,,,,,,,,,,
3036274,1501039138818,,,,,,,,,0,1590,0,,,,,,,,,,,,,,,
3036284,1501039138828,3.2,,-0.05,-0.01,0.87,-1,-7,4,0,1560,0,,,,,,,,,,,,,,,
3036294,1501039138838,,,,,,,,,0,1530,0,,,,,,,,,,,,,,,
3036304,1501039138848,,,,,,,,,0,1500,0,,,,,,,,,,,,,,,
3036314,1501039138858,,,,,,,,,0,1425,0,,,,,,,,,,,,,,,
3036324,1501039138868,3.2,,-0.04,0.0,0.87,-2,-3,5,0,1575,0,,,,,,,,,,,,,,,
3036334,1501039138878,,,,,,,,,0,1665,0,,,,,,,,,,,,,,,
3036344,1501039138888,,,,,,,,,0,1635,0,36.113674,-115.145676,0.0,6.475,2047.3,9,3,2.2,0,0.0,-1,0.0,0.0,0.0,0
3036354,1501039138898,,,,,,,,,0,1605,0,,,,,,,,,,,,,,,
3036364,1501039138908,3.2,,-0.02,-0.05,0.96,-2,-3,5,0,1560,0,,,,,,,,,,,,,,,
3036374,1501039138918,,,,,,,,,0,1530,0,,,,,,,,,,,,,,,
3036384,1501039138928,,,,,,,,,0,1500,0,,,,,,,,,,,,,,,
3036394,1501039138938,,,,,,,,,0,1425,0,,,,,,,,,,,,,,,
3036404,1501039138948,3.15,,-0.02,-0.05,1.08,-2,0,5,0,1665,0,,,,,,,,,,,,,,,
3036414,1501039138958,,,,,,,,,0,1635,0,,,,,,,,,,,,,,,
3036424,1501039138968,,,,,,,,,0,1605,0,,,,,,,,,,,,,,,
3036434,1501039138978,,,,,,,,,0,1560,0,,,,,,,,,,,,,,,
3036444,1501039138988,3.18,,-0.01,-0.03,1.06,-2,-3,4,0,1530,0,36.113674,-115.145676,0.0,6.475,2047.3,9,3,2.2,0,0.0,-1,0.0,0.0,0.0,0
3036454,1501039138998,,,,,,,,,0,1500,0,,,,,,,,,,,,,,,
3036464,1501039139000,,,,,,,,,0,1425,0,,,,,,,,,,,,,,,
3036474,1501039139010,,,,,,,,,0,1575,0,,,,,,,,,,,,,,,
3036484,1501039139020,3.19,,-0.01,-0.04,1.12,-1,-3,4,0,1665,0,,,,,,,,,,,,,,,
3036494,1501039139030,,,,,,,,,0,1620,0,,,,,,,,,,,,,,,
3036504,1501039139040,,,,,,,,,0,1605,0,,,,,,,,,,,,,,,
3036514,1501039139050,,,,,,,,,0,1560,0,,,,,,,,,,,,,,,
3036524,1501039139060,3.19,,-0.01,-0.02,1.06,-1,-5,4,0,1530,0,,,,,,,,,,,,,,,
3036534,1501039139070,,,,,,,,,0,1500,0,,,,,,,,,,,,,,,
3036544,1501039139080,,,,,,,,,0,1410,0,36.113674,-115.145676,0.0,6.475,2047.3,9,3,1.9,0,0.0,-1,0.0,0.0,0.0,0
3036554,1501039139096,,,,,,,,,0,1575,0,,,,,,,,,,,,,,,
3036564,1501039139106,3.21,,0.03,-0.04,1.04,-0,-8,4,0,1650,0,,,,,,,,,,,,,,,
3036574,1501039139116,,,,,,,,,0,1620,0,,,,,,,,,,,,,,,
3036584,1501039139126,,,,,,,,,0,1590,0,,,,,,,,,,,,,,,
3036594,1501039139136,,,,,,,,,0,1560,0,,,,,,,,,,,,,,,
3036604,1501039139146,3.19,,0.02,-0.01,0.96,-0,-8,4,0,1530,0,,,,,,,,,,,,,,,
3036614,1501039139156,,,,,,,,,0,1500,0,,,,,,,,,,,,,,,
3036624,1501039139166,,,,,,,,,0,1410,0,,,,,,,,,,,,,,,
3036634,1501039139176,,,,,,,,,0,1575,0,,,,,,,,,,,,,,,
3036644,1501039139186,3.15,,0.03,-0.01,0.93,-1,-11,5,0,1620,0,36.113674,-115.145676,0.0,6.475,2047.3,9,3,1.9,0,0.0,-1,0.0,0.0,0.0,0
3036654,1501039139198,,,,,,,,,0,1590,0,,,,,,,,,,,,,,,
3036664,1501039139208,,,,,,,,,0,1560,0,,,,,,,,,,,,,,,
3036674,1501039139218,,,,,,,,,0,1515,0,,,,,,,,,,,,,,,
3036684,1501039139228,3.15,,-0.01,-0.01,0.94,-2,-8,5,0,1485,0,,,,,,,,,,,,,,,
3036694,1501039139238,,,,,,,,,0,1410,0,,,,,,,,,,,,,,,
3036704,1501039139248,,,,,,,,,0,1575,0,,,,,,,,,,,,,,,
3036714,1501039139258,,,,,,,,,0,1650,0,,,,,,,,,,,,,,,
3036724,1501039139268,3.18,,-0.04,-0.01,0.94,-1,-10,4,0,1620,0,,,,,,,,,,,,,,,
3036734,1501039139278,,,,,,,,,0,1590,0,,,,,,,,,,,,,,,
3036744,1501039139288,,,,,,,,,0,1560,0,36.113674,-115.145676,0.0,6.475,2047.3,9,3,1.9,0,0.0,-1,0.0,0.0,0.0,0
3036754,1501039139298,,,,,,,,,0,1530,0,,,,,,,,,,,,,,,
3036764,1501039139308,3.2,,-0.05,-0.03,0.97,-1,-5,4,0,1485,0,,,,,,,,,,,,,,,
3036774,1501039139318,,,,,,,,,0,1410,0,,,,,,,,,,,,,,,
3036784,1501039139328,,,,,,,,,0,1575,0,,,,,,,,,,,,,,,
3036794,1501039139338,,,,,,,,,0,1650,0,,,,,,,,,,,,,,,
3036804,1501039139348,3.17,,-0.08,-0.02,0.98,-1,-4,4,0,1635,0,,,,,,,,,,,,,,,
3036814,1501039139358,,,,,,,,,0,1590,0,,,,,,,,,,,,,,,
3036824,1501039139368,,,,,,,,,0,1560,0,,,,,,,,,,,,,,,
3036834,1501039139378,,,,,,,,,0,1530,0,,,,,,,,,,,,,,,
3036844,1501039139388,3.18,,-0.04,-0.02,1.06,-2,-0,4,0,1485,0,36.113674,-115.145676,0.0,6.475,2047.3,9,3,1.9,0,0.0,-1,0.0,0.0,0.0,0
3036854,1501039139398,,,,,,,,,0,1410,0,,,,,,,,,,,,,,,
3036864,1501039139408,,,,,,,,,0,1575,0,,,,,,,,,,,,,,,
3036874,1501039139418,,,,,,,,,0,1650,0,,,,,,,,,,,,,,,
3036884,1501039139428,3.18,,-0.05,-0.03,1.06,-2,1,5,0,1620,0,,,,,,,,,,,,,,,
3036894,1501039139438,,,,,,,,,0,1590,0,,,,,,,,,,,,,,,
3036904,1501039139448,,,,,,,,,0,1560,0,,,,,,,,,,,,,,,
3036914,1501039139458,,,,,,,,,0,1530,0,,,,,,,,,,,,,,,
3036924,1501039139468,3.18,,-0.02,-0.04,1.17,-2,-1,4,0,1485,0,,,,,,,,,,,,,,,
3036934,1501039139478,,,,,,,,,0,1575,0,,,,,,,,,,,,,,,
3036944,1501039139488,,,,,,,,,0,1650,0,36.113674,-115.145676,0.0,6.475,2047.3,9,3,1.9,0,0.0,-1,0.0,0.0,0.0,0
3036954,1501039139498,,,,,,,,,0,1635,0,,,,,,,,,,,,,,,
3036964,1501039139508,3.19,,-0.03,-0.03,1.17,-2,-0,3,0,1590,0,,,,,,,,,,,,,,,
3036974,1501039139518,,,,,,,,,0,1560,0,,,,,,,,,,,,,,,
3036984,1501039139528,,,,,,,,,0,1530,0,,,,,,,,,,,,,,,
3036994,1501039139538,,,,,,,,,0,1500,0,,,,,,,,,,,,,,,
3037004,1501039139548,3.17,,-0.04,-0.03,1.11,-1,-3,3,0,1410,0,,,,,,,,,,,,,,,
3037014,1501039139558,,,,,,,,,0,1575,0,,,,,,,,,,,,,,,
3037024,1501039139568,,,,,,,,,0,1650,0,,,,,,,,,,,,,,,
3037034,1501039139578,,,,,,,,,0,1635,0,,,,,,,,,,,,,,,
3037044,1501039139588,3.19,4.51,-0.01,-0.01,1.07,-1,-4,4,0,1590,0,36.113674,-115.145676,0.0,6.475,2047.3,9,3,1.9,0,0.0,-1,0.0,0.0,0.0,0
3037054,1501039139598,,,,,,,,,0,1560,0,,,,,,,,,,,,,,,
3037064,1501039139608,,,,,,,,,0,1530,0,,,,,,,,,,,,,,,
3037074,1501039139618,,,,,,,,,0,1485,0,,,,,,,,,,,,,,,
3037084,1501039139628,3.16,,0.02,-0.04,1.01,-1,-8,5,0,1410,0,,,,,,,,,,,,,,,
3037094,1501039139638,,,,,,,,,0,1575,0,,,,,,,,,,,,,,,
3037104,1501039139648,,,,,,,,,0,1650,0,,,,,,,,,,,,,,,
3037114,1501039139658,,,,,,,,,0,1620,0,,,,,,,,,,,,,,,
3037124,1501039139668,3.18,,0.04,-0.03,0.99,-1,-9,4,0,1590,0,,,,,,,,,,,,,,,
3037134,1501039139678,,,,,,,,,0,1560,0,,,,,,,,,,,,,,,
3037144,1501039139688,,,,,,,,,0,1530,0,36.113674,-115.145676,0.0,6.475,2047.3,9,3,1.9,0,0.0,-1,0.0,0.0,0.0,0
3037154,1501039139691,,,,,,,,,0,1485,0,,,,,,,,,,,,,,,
3037164,1501039139701,3.18,,0.04,-0.02,0.87,-1,-12,3,0,1410,0,,,,,,,,,,,,,,,
3037174,1501039139711,,,,,,,,,0,1650,0,,,,,,,,,,,,,,,
3037184,1501039139721,,,,,,,,,0,1620,0,,,,,,,,,,,,,,,
3037194,1501039139731,,,,,,,,,0,1590,0,,,,,,,,,,,,,,,
3037204,1501039139741,3.19,,0.03,-0.02,0.9,-2,-11,4,0,1545,0,,,,,,,,,,,,,,,
3037214,1501039139751,,,,,,,,,0,1515,0,,,,,,,,,,,,,,,
3037224,1501039139761,,,,,,,,,0,1485,0,,,,,,,,,,,,,,,
3037234,1501039139771,,,,,,,,,0,1410,0,,,,,,,,,,,,,,,
3037244,1501039139781,3.19,,-0.02,-0.01,0.85,-1,-10,4,0,1575,0,36.113674,-115.145676,0.0,6.475,2047.3,9,3,1.9,0,0.0,-1,0.0,0.0,0.0,0
3037254,1501039139797,,,,,,,,,0,1650,0,,,,,,,,,,,,,,,
3037264,1501039139807,,,,,,,,,0,1620,0,,,,,,,,,,,,,,,
3037274,1501039139817,,,,,,,,,0,1590,0,,,,,,,,,,,,,,,
3037284,1501039139827,3.19,,-0.04,-0.03,0.91,-1,-8,4,0,1545,0,,,,,,,,,,,,,,,
3037294,1501039139837,,,,,,,,,0,1515,0,,,,,,,,,,,,,,,
3037304,1501039139847,,,,,,,,,0,1485,0,,,,,,,,,,,,,,,
3037314,1501039139857,,,,,,,,,0,1410,0,,,,,,,,,,,,,,,
3037324,1501039139867,3.19,,-0.06,-0.01,0.93,-2,-4,5,0,1575,0,,,,,,,,,,,,,,,
3037334,1501039139877,,,,,,,,,0,1650,0,,,,,,,,,,,,,,,
3037344,1501039139887,,,,,,,,,0,1620,0,36.113674,-115.145676,0.0,6.475,2047.3,9,3,1.9,0,0.0,-1,0.0,0.0,0.0,0
3037354,1501039139897,,,,,,,,,0,1590,0,,,,,,,,,,,,,,,
3037364,1501039139907,3.19,,-0.06,-0.03,0.98,-2,-2,4,0,1545,0,,,,,,,,,,,,,,,
3037374,1501039139917,,,,,,,,,0,1515,0,,,,,,,,,,,,,,,
3037384,1501039139927,,,,,,,,,0,1485,0,,,,,,,,,,,,,,,
3037394,1501039139937,,,,,,,,,0,1395,0,,,,,,,,,,,,,,,
3037404,1501039139947,3.19,,-0.03,-0.02,1.02,-3,2,6,0,1575,0,,,,,,,,,,,,,,,
3037414,1501039139957,,,,,,,,,0,1650,0,,,,,,,,,,,,,,,
3037424,1501039139967,,,,,,,,,0,1620,0,,,,,,,,,,,,,,,
3037434,1501039139977,,,,,,,,,0,1590,0,,,,,,,,,,,,,,,
3037444,1501039139987,3.19,,-0.02,-0.05,1.04,-2,1,5,0,1545,0,36.113674,-115.145676,0.0,6.475,2047.3,9,3,1.9,0,0.0,-1,0.0,0.0,0.0,0
3037454,1501039139991,,,,,,,,,0,1515,0,,,,,,,,,,,,,,,
3037464,1501039140001,,,,,,,,,0,1485,0,,,,,,,,,,,,,,,
3037474,1501039140011,,,,,,,,,0,1575,0,,,,,,,,,,,,,,,
3037484,1501039140021,3.17,,-0.01,-0.05,1.16,-2,2,4,0,1650,0,,,,,,,,,,,,,,,
3037494,1501039140031,,,,,,,,,0,1620,0,,,,,,,,,,,,,,,
3037504,1501039140041,,,,,,,,,0,1590,0,,,,,,,,,,,,,,,
3037514,1501039140051,,,,,,,,,0,1545,0,,,,,,,,,,,,,,,
3037524,1501039140061,3.18,,-0.01,-0.02,1.12,-1,-1,2,0,1515,0,,,,,,,,,,,,,,,
