"Interval"|"ms"|0|0|1,"Utc"|"ms"|0|0|1,"Analog1"|""|0.0|5.0|25,"Battery"|"Volts"|0.0|20.0|1,"AccelX"|"G"|-3.0|3.0|25,"AccelY"|"G"|-3.0|3.0|25,"AccelZ"|"G"|-3.0|3.0|25,"Yaw"|"Deg/Sec"|-120|120|25,"Pitch"|"Deg/Sec"|-120|120|25,"Roll"|"Deg/Sec"|-120|120|25,"RPM"|""|0|10000|100,"EngineRPM"|""|0|10000|100,"AxleRpm"|""|0|10000|100,"Latitude"|"Degrees"|-180.0|180.0|10,"Longitude"|"Degrees"|-180.0|180.0|10,"Speed"|"mph"|0.0|150.0|10,"Distance"|"mi"|0.0|0.0|10,"Altitude"|"ft"|0.0|4000.0|10,"GPSSats"|""|0|20|10,"GPSQual"|""|0|5|10,"GPSDOP"|""|0.0|20.0|10,"LapCount"|""|0|0|10,"LapTime"|"Min"|0.0|0.0|10,"Sector"|""|0|0|10,"SectorTime"|"Min"|0.0|0.0|10,"PredTime"|"Min"|0.0|0.0|10,"ElapsedTime"|"Min"|0.0|0.0|10,"CurrentLap"|""|0|0|10
4118024,1501040220582,,,,,,,,,0,1575,0,,,,,,,,,,,,,,,
4118034,1501040220592,,,,,,,,,0,1605,0,,,,,,,,,,,,,,,
4118044,1501040220602,3.4,4.45,-0.04,-0.08,1.06,-1,-1,4,0,1650,0,36.113472,-115.145988,0.0,9.203,2040.5,8,2,2.4,0,0.0,-1,0.0,0.0,0.0,0
4118054,1501040220612,,,,,,,,,0,1650,0,,,,,,,,,,,,,,,
4118064,1501040220622,,,,,,,,,0,1620,0,,,,,,,,,,,,,,,
4118074,1501040220632,,,,,,,,,0,1635,0,,,,,,,,,,,,,,,
4118084,1501040220642,3.4,,-0.06,-0.08,1.02,-1,-1,4,0,1650,0,,,,,,,,,,,,,,,
4118094,1501040220652,,,,,,,,,0,1620,0,,,,,,,,,,,,,,,
4118104,1501040220662,,,,,,,,,0,1620,0,,,,,,,,,,,,,,,
4118114,1501040220672,,,,,,,,,0,1635,0,,,,,,,,,,,,,,,
4118124,1501040220682,3.39,,-0.06,-0.08,0.97,-1,-2,4,0,1635,0,,,,,,,,,,,,,,,
4118134,1501040220692,,,,,,,,,0,1590,0,,,,,,,,,,,,,,,
4118144,1501040220702,,,,,,,,,0,1620,0,36.113472,-115.145988,0.0,9.203,2040.5,8,2,2.4,0,0.0,-1,0.0,0.0,0.0,0
4118154,1501040220712,,,,,,,,,0,1620,0,,,,,,,,,,,,,,,
4118164,1501040220722,3.41,,-0.01,-0.09,0.96,-1,-4,4,0,1605,0,,,,,,,,,,,,,,,
4118174,1501040220732,,,,,,,,,0,1560,0,,,,,,,,,,,,,,,
4118184,1501040220742,,,,,,,,,0,1590,0,,,,,,,,,,,,,,,
4118194,1501040220752,,,,,,,,,0,1635,0,,,,,,,,,,,,,,,
4118204,1501040220762,3.4,,0.0,-0.09,0.98,-1,-4,4,0,1650,0,,,,,,,,,,,,,,,
4118214,1501040220772,,,,,,,,,0,1620,0,,,,,,,,,,,,,,,
4118224,1501040220782,,,,,,,,,0,1635,0,,,,,,,,,,,,,,,
4118234,1501040220791,,,,,,,,,0,1620,0,,,,,,,,,,,,,,,
4118244,1501040220801,3.4,,-0.02,-0.08,1.03,-1,-3,4,0,1590,0,36.113472,-115.145988,0.0,9.203,2040.5,8,2,2.4,0,0.0,-1,0.0,0.0,0.0,0
4118254,1501040220811,,,,,,,,,0,1605,0,,,,,,,,,,,,,,,
4118264,1501040220821,,,,,,,,,0,1635,0,,,,,,,,,,,,,,,
4118274,1501040220831,,,,,,,,,0,1650,0,,,,,,,,,,,,,,,
4118284,1501040220841,3.4,,-0.05,-0.08,1.04,-1,-2,4,0,1620,0,,,,,,,,,,,,,,,
4118294,1501040220851,,,,,,,,,0,1635,0,,,,,,,,,,,,,,,
4118304,1501040220861,,,,,,,,,0,1650,0,,,,,,,,,,,,,,,
4118314,1501040220871,,,,,,,,,0,1620,0,,,,,,,,,,,,,,,
4118324,1501040220881,3.39,,-0.07,-0.08,0.99,-2,-3,4,0,1590,0,,,,,,,,,,,,,,,
4118334,1501040220891,,,,,,,,,0,1605,0,,,,,,,,,,,,,,,
4118344,1501040220901,,,,,,,,,0,1650,0,36.113472,-115.145988,0.0,9.203,2040.5,8,2,2.4,0,0.0,-1,0.0,0.0,0.0,0
4118354,1501040220911,,,,,,,,,0,1620,0,,,,,,,,,,,,,,,
4118364,1501040220921,3.39,,-0.05,-0.09,0.94,-1,-5,4,0,1635,0,,,,,,,,,,,,,,,
4118374,1501040220931,,,,,,,,,0,1635,0,,,,,,,,,,,,,,,
4118384,1501040220941,,,,,,,,,0,1620,0,,,,,,,,,,,,,,,
4118394,1501040220951,,,,,,,,,0,1590,0,,,,,,,,,,,,,,,
4118404,1501040220961,3.39,,-0.01,-0.09,0.95,-2,-7,4,0,1605,0,,,,,,,,,,,,,,,
4118414,1501040220971,,,,,,,,,0,1635,0,,,,,,,,,,,,,,,
4118424,1501040220981,,,,,,,,,0,1620,0,,,,,,,,,,,,,,,
4118434,1501040220991,,,,,,,,,0,1590,0,,,,,,,,,,,,,,,
4118444,1501040220995,3.39,,0.0,-0.09,1.01,-2,-7,4,0,1605,0,36.113472,-115.145988,0.0,9.203,2040.5,8,2,2.4,0,0.0,-1,0.0,0.0,0.0,0
4118454,1501040221005,,,,,,,,,0,1620,0,,,,,,,,,,,,,,,
4118464,1501040221015,,,,,,,,,0,1590,0,,,,,,,,,,,,,,,
4118474,1501040221025,,,,,,,,,0,1575,0,,,,,,,,,,,,,,,
4118484,1501040221035,3.38,,-0.02,-0.08,1.03,-2,-6,4,0,1635,0,,,,,,,,,,,,,,,
4118494,1501040221045,,,,,,,,,0,1650,0,,,,,,,,,,,,,,,
4118504,1501040221055,,,,,,,,,0,1605,0,,,,,,,,,,,,,,,
4118514,1501040221065,,,,,,,,,0,1635,0,,,,,,,,,,,,,,,
4118524,1501040221075,3.37,,-0.07,-0.08,1.07,-2,-4,4,0,1635,0,,,,,,,,,,,,,,,
4118534,1501040221093,,,,,,,,,0,1605,0,,,,,,,,,,,,,,,
4118544,1501040221103,,,,,,,,,0,1590,0,36.113472,-115.145988,0.0,9.203,2040.5,8,2,2.4,0,0.0,-1,0.0,0.0,0.0,0
4118554,1501040221113,,,,,,,,,0,1605,0,,,,,,,,,,,,,,,
4118564,1501040221123,3.38,,-0.08,-0.07,1.07,-2,-4,5,0,1650,0,,,,,,,,,,,,,,,
4118574,1501040221133,,,,,,,,,0,1665,0,,,,,,,,,,,,,,,
4118584,1501040221143,,,,,,,,,0,1650,0,,,,,,,,,,,,,,,
4118594,1501040221153,,,,,,,,,0,1650,0,,,,,,,,,,,,,,,
4118604,1501040221163,3.37,,-0.08,-0.06,1.01,-1,-5,4,0,1620,0,,,,,,,,,,,,,,,
4118614,1501040221173,,,,,,,,,0,1605,0,,,,,,,,,,,,,,,
4118624,1501040221183,,,,,,,,,0,1620,0,,,,,,,,,,,,,,,
4118634,1501040221193,,,,,,,,,0,1650,0,,,,,,,,,,,,,,,
4118644,1501040221203,3.37,,-0.05,-0.05,0.97,-1,-6,4,0,1665,0,36.113472,-115.145988,0.0,9.203,2040.5,8,2,2.4,0,0.0,-1,0.0,0.0,0.0,0
4118654,1501040221213,,,,,,,,,0,1620,0,,,,,,,,,,,,,,,
4118664,1501040221223,,,,,,,,,0,1650,0,,,,,,,,,,,,,,,
4118674,1501040221233,,,,,,,,,0,1650,0,,,,,,,,,,,,,,,
4118684,1501040221243,3.38,,-0.04,-0.06,0.97,-1,-7,4,0,1620,0,,,,,,,,,,,,,,,
4118694,1501040221253,,,,,,,,,0,1620,0,,,,,,,,,,,,,,,
4118704,1501040221263,,,,,,,,,0,1650,0,,,,,,,,,,,,,,,
4118714,1501040221273,,,,,,,,,0,1650,0,,,,,,,,,,,,,,,
4118724,1501040221283,3.37,,-0.07,-0.06,1.0,-1,-6,3,0,1620,0,,,,,,,,,,,,,,,
4118734,1501040221291,,,,,,,,,0,1650,0,,,,,,,,,,,,,,,
4118744,1501040221301,,,,,,,,,0,1650,0,36.113472,-115.145988,0.0,9.203,2040.5,8,2,2.4,0,0.0,-1,0.0,0.0,0.0,0
4118754,1501040221311,,,,,,,,,0,1620,0,,,,,,,,,,,,,,,
4118764,1501040221321,3.35,,-0.07,-0.04,1.05,-1,-5,4,0,1590,0,,,,,,,,,,,,,,,
4118774,1501040221331,,,,,,,,,0,1620,0,,,,,,,,,,,,,,,
4118784,1501040221341,,,,,,,,,0,1650,0,,,,,,,,,,,,,,,
4118794,1501040221351,,,,,,,,,0,1650,0,,,,,,,,,,,,,,,
4118804,1501040221361,3.3,,-0.07,-0.04,1.04,-1,-6,4,0,1635,0,,,,,,,,,,,,,,,
4118814,1501040221371,,,,,,,,,0,1635,0,,,,,,,,,,,,,,,
4118824,1501040221381,,,,,,,,,0,1620,0,,,,,,,,,,,,,,,
4118834,1501040221391,,,,,,,,,0,1590,0,,,,,,,,,,,,,,,
4118844,1501040221401,3.34,,-0.05,-0.04,1.02,-1,-6,3,0,1620,0,36.113472,-115.145988,0.0,9.203,2040.5,8,2,2.4,0,0.0,-1,0.0,0.0,0.0,0
4118854,1501040221411,,,,,,,,,0,1650,0,,,,,,,,,,,,,,,
4118864,1501040221421,,,,,,,,,0,1650,0,,,,,,,,,,,,,,,
4118874,1501040221431,,,,,,,,,0,1620,0,,,,,,,,,,,,,,,
4118884,1501040221441,3.34,,-0.02,-0.05,1.0,-1,-7,3,0,1650,0,,,,,,,,,,,,,,,
4118894,1501040221451,,,,,,,,,0,1650,0,,,,,,,,,,,,,,,
4118904,1501040221461,,,,,,,,,0,1620,0,,,,,,,,,,,,,,,
4118914,1501040221471,,,,,,,,,0,1620,0,,,,,,,,,,,,,,,
4118924,1501040221481,3.36,,-0.02,-0.05,0.98,-1,-6,3,0,1650,0,,,,,,,,,,,,,,,
4118934,1501040221491,,,,,,,,,0,1650,0,,,,,,,,,,,,,,,
4118944,1501040221501,,,,,,,,,0,1605,0,36.113472,-115.145988,0.0,9.203,2040.5,8,2,2.4,0,0.0,-1,0.0,0.0,0.0,0
4118954,1501040221511,,,,,,,,,0,1635,0,,,,,,,,,,,,,,,
4118964,1501040221521,3.37,,-0.04,-0.05,1.01,-1,-4,3,0,1635,0,,,,,,,,,,,,,,,
4118974,1501040221531,,,,,,,,,0,1605,0,,,,,,,,,,,,,,,
4118984,1501040221541,,,,,,,,,0,1575,0,,,,,,,,,,,,,,,
4118994,1501040221551,,,,,,,,,0,1605,0,,,,,,,,,,,,,,,
4119004,1501040221561,3.39,,-0.05,-0.06,1.03,-1,-3,3,0,1635,0,,,,,,,,,,,,,,,
4119014,1501040221571,,,,,,,,,0,1635,0,,,,,,,,,,,,,,,
4119024,1501040221581,,,,,,,,,0,1605,0,,,,,,,,,,,,,,,
4119034,1501040221593,,,,,,,,,0,1620,0,,,,,,,,,,,,,,,
4119044,1501040221603,3.35,4.47,-0.05,-0.05,1.01,-1,-3,3,0,1605,0,36.113472,-115.145988,0.0,9.203,2040.5,8,2,2.4,0,0.0,-1,0.0,0.0,0.0,0
4119054,1501040221613,,,,,,,,,0,1575,0,,,,,,,,,,,,,,,
4119064,1501040221623,,,,,,,,,0,1590,0,,,,,,,,,,,,,,,
4119074,1501040221633,,,,,,,,,0,1635,0,,,,,,,,,,,,,,,
4119084,1501040221643,3.4,,-0.04,-0.05,0.99,-1,-4,2,0,1620,0,,,,,,,,,,,,,,,
4119094,1501040221653,,,,,,,,,0,1605,0,,,,,,,,,,,,,,,
4119104,1501040221663,,,,,,,,,0,1620,0,,,,,,,,,,,,,,,
4119114,1501040221673,,,,,,,,,0,1620,0,,,,,,,,,,,,,,,
4119124,1501040221683,3.41,,-0.02,-0.06,0.97,-1,-6,3,0,1590,0,,,,,,,,,,,,,,,
4119134,1501040221693,,,,,,,,,0,1560,0,,,,,,,,,,,,,,,
4119144,1501040221703,,,,,,,,,0,1590,0,36.113472,-115.145988,0.0,9.203,2040.5,8,2,2.4,0,0.0,-1,0.0,0.0,0.0,0
4119154,1501040221713,,,,,,,,,0,1635,0,,,,,,,,,,,,,,,
4119164,1501040221723,3.37,,-0.02,-0.08,0.98,-1,-6,3,0,1605,0,,,,,,,,,,,,,,,
4119174,1501040221733,,,,,,,,,0,1635,0,,,,,,,,,,,,,,,
4119184,1501040221743,,,,,,,,,0,1635,0,,,,,,,,,,,,,,,
4119194,1501040221753,,,,,,,,,0,1605,0,,,,,,,,,,,,,,,
4119204,1501040221763,3.4,,-0.03,-0.09,1.0,-1,-4,3,0,1575,0,,,,,,,,,,,,,,,
4119214,1501040221773,,,,,,,,,0,1605,0,,,,,,,,,,,,,,,
4119224,1501040221783,,,,,,,,,0,1635,0,,,,,,,,,,,,,,,
4119234,1501040221792,,,,,,,,,0,1650,0,,,,,,,,,,,,,,,
4119244,1501040221802,3.39,,-0.05,-0.09,1.0,-1,-3,3,0,1605,0,36.113472,-115.145988,0.0,9.203,2040.5,8,2,2.4,0,0.0,-1,0.0,0.0,0.0,0
4119254,1501040221812,,,,,,,,,0,1635,0,,,,,,,,,,,,,,,
4119264,1501040221822,,,,,,,,,0,1635,0,,,,,,,,,,,,,,,
4119274,1501040221832,,,,,,,,,0,1605,0,,,,,,,,,,,,,,,
4119284,1501040221842,3.33,,-0.07,-0.08,0.99,-1,-3,3,0,1605,0,,,,,,,,,,,,,,,
4119294,1501040221852,,,,,,,,,0,1635,0,,,,,,,,,,,,,,,
4119304,1501040221862,,,,,,,,,0,1650,0,,,,,,,,,,,,,,,
4119314,1501040221872,,,,,,,,,0,1620,0,,,,,,,,,,,,,,,
4119324,1501040221882,3.37,,-0.05,-0.07,0.98,-1,-5,3,0,1635,0,,,,,,,,,,,,,,,
4119334,1501040221892,,,,,,,,,0,1635,0,,,,,,,,,,,,,,,
4119344,1501040221902,,,,,,,,,0,1620,0,36.113472,-115.145988,0.0,9.203,2040.5,8,2,2.4,0,0.0,-1,0.0,0.0,0.0,0
4119354,1501040221912,,,,,,,,,0,1590,0,,,,,,,,,,,,,,,
4119364,1501040221922,3.37,,-0.02,-0.08,0.96,-1,-6,3,0,1605,0,,,,,,,,,,,,,,,
4119374,1501040221932,,,,,,,,,0,1635,0,,,,,,,,,,,,,,,
4119384,1501040221942,,,,,,,,,0,1635,0,,,,,,,,,,,,,,,
4119394,1501040221952,,,,,,,,,0,1590,0,,,,,,,,,,,,,,,
4119404,1501040221962,3.33,,-0.01,-0.08,0.97,-2,-5,2,0,1620,0,,,,,,,,,,,,,,,
4119414,1501040221972,,,,,,,,,0,1590,0,,,,,,,,,,,,,,,
4119424,1501040221982,,,,,,,,,0,1560,0,,,,,,,,,,,,,,,
4119434,1501040221992,,,,,,,,,0,1590,0,,,,,,,,,,,,,,,
4119444,1501040221994,3.37,,-0.02,-0.07,0.98,-2,-5,2,0,1635,0,36.113472,-115.145988,0.0,9.203,2040.5,8,2,2.4,0,0.0,-1,0.0,0.0,0.0,0
4119454,1501040222004,,,,,,,,,0,1650,0,,,,,,,,,,,,,,,
4119464,1501040222014,,,,,,,,,0,1620,0,,,,,,,,,,,,,,,
4119474,1501040222024,,,,,,,,,0,1635,0,,,,,,,,,,,,,,,
4119484,1501040222034,3.37,,-0.04,-0.07,1.01,-2,-3,2,0,1635,0,,,,,,,,,,,,,,,
4119494,1501040222044,,,,,,,,,0,1620,0,,,,,,,,,,,,,,,
4119504,1501040222054,,,,,,,,,0,1590,0,,,,,,,,,,,,,,,
4119514,1501040222064,,,,,,,,,0,1605,0,,,,,,,,,,,,,,,
4119524,1501040222074,3.33,,-0.05,-0.06,1.05,-2,-3,3,0,1665,0,,,,,,,,,,,,,,,
4119534,1501040222084,,,,,,,,,0,1620,0,,,,,,,,,,,,,,,
4119544,1501040222100,,,,,,,,,0,1650,0,36.113472,-115.145988,0.0,9.203,2040.5,8,2,2.4,0,0.0,-1,0.0,0.0,0.0,0
4119554,1501040222110,,,,,,,,,0,1650,0,,,,,,,,,,,,,,,
4119564,1501040222120,3.39,,-0.04,-0.05,1.03,-2,-5,3,0,1620,0,,,,,,,,,,,,,,,
4119574,1501040222130,,,,,,,,,0,1590,0,,,,,,,,,,,,,,,
4119584,1501040222140,,,,,,,,,0,1620,0,,,,,,,,,,,,,,,
4119594,1501040222150,,,,,,,,,0,1650,0,,,,,,,,,,,,,,,
4119604,1501040222160,3.39,,-0.02,-0.05,1.03,-2,-6,3,0,1650,0,,,,,,,,,,,,,,,
4119614,1501040222170,,,,,,,,,0,1620,0,,,,,,,,,,,,,,,
4119624,1501040222180,,,,,,,,,0,1635,0,,,,,,,,,,,,,,,
4119634,1501040222192,,,,,,,,,0,1620,0,,,,,,,,,,,,,,,
4119644,1501040222202,3.39,,-0.02,-0.06,1.03,-2,-6,3,0,1590,0,36.113472,-115.145988,0.0,9.203,2040.5,8,2,2.4,0,0.0,-1,0.0,0.0,0.0,0
4119654,1501040222212,,,,,,,,,0,1620,0,,,,,,,,,,,,,,,
4119664,1501040222222,,,,,,,,,0,1650,0,,,,,,,,,,,,,,,
4119674,1501040222232,,,,,,,,,0,1650,0,,,,,,,,,,,,,,,
4119684,1501040222242,3.39,,-0.05,-0.06,1.03,-2,-3,3,0,1620,0,,,,,,,,,,,,,,,
4119694,1501040222252,,,,,,,,,0,1650,0,,,,,,,,,,,,,,,
4119704,1501040222262,,,,,,,,,0,1635,0,,,,,,,,,,,,,,,
4119714,1501040222272,,,,,,,,,0,1620,0,,,,,,,,,,,,,,,
4119724,1501040222282,3.38,,-0.07,-0.05,1.07,-2,-3,3,0,1590,0,,,,,,,,,,,,,,,
4119734,1501040222292,,,,,,,,,0,1620,0,,,,,,,,,,,,,,,
4119744,1501040222302,,,,,,,,,0,1635,0,36.113472,-115.145988,0.0,9.203,2040.5,8,2,2.4,0,0.0,-1,0.0,0.0,0.0,0
4119754,1501040222312,,,,,,,,,0,1605,0,,,,,,,,,,,,,,,
4119764,1501040222322,3.39,,-0.06,-0.06,1.05,-2,-5,4,0,1620,0,,,,,,,,,,,,,,,
4119774,1501040222332,,,,,,,,,0,1620,0,,,,,,,,,,,,,,,
4119784,1501040222342,,,,,,,,,0,1605,0,,,,,,,,,,,,,,,
4119794,1501040222352,,,,,,,,,0,1575,0,,,,,,,,,,,,,,,
4119804,1501040222362,3.38,,-0.04,-0.06,1.02,-2,-7,4,0,1605,0,,,,,,,,,,,,,,,
4119814,1501040222372,,,,,,,,,0,1635,0,,,,,,,,,,,,,,,
4119824,1501040222382,,,,,,,,,0,1650,0,,,,,,,,,,,,,,,
4119834,1501040222392,,,,,,,,,0,1620,0,,,,,,,,,,,,,,,
4119844,1501040222402,3.39,,-0.01,-0.06,1.0,-2,-7,4,0,1635,0,36.113472,-115.145988,0.0,9.203,2040.5,8,2,2.4,0,0.0,-1,0.0,0.0,0.0,0
4119854,1501040222412,,,,,,,,,0,1650,0,,,,,,,,,,,,,,,
4119864,1501040222422,,,,,,,,,0,1590,0,,,,,,,,,,,,,,,
4119874,1501040222432,,,,,,,,,0,1620,0,,,,,,,,,,,,,,,
4119884,1501040222442,3.37,,-0.02,-0.07,1.0,-2,-7,4,0,1635,0,,,,,,,,,,,,,,,
4119894,1501040222452,,,,,,,,,0,1650,0,,,,,,,,,,,,,,,
4119904,1501040222462,,,,,,,,,0,1605,0,,,,,,,,,,,,,,,
4119914,1501040222472,,,,,,,,,0,1635,0,,,,,,,,,,,,,,,
4119924,1501040222482,3.39,,-0.05,-0.05,1.03,-2,-4,3,0,1635,0,,,,,,,,,,,,,,,
4119934,1501040222492,,,,,,,,,0,1605,0,,,,,,,,,,,,,,,
4119944,1501040222502,,,,,,,,,0,1590,0,36.113472,-115.145988,0.0,9.203,2040.5,8,2,2.4,0,0.0,-1,0.0,0.0,0.0,0
4119954,1501040222512,,,,,,,,,0,1605,0,,,,,,,,,,,,,,,
4119964,1501040222522,3.39,,-0.05,-0.05,1.06,-2,-3,3,0,1650,0,,,,,,,,,,,,,,,
4119974,1501040222532,,,,,,,,,0,1635,0,,,,,,,,,,,,,,,
4119984,1501040222542,,,,,,,,,0,1635,0,,,,,,,,,,,,,,,
4119994,1501040222552,,,,,,,,,0,1665,0,,,,,,,,,,,,,,,
4120004,1501040222562,3.39,,-0.04,-0.04,1.04,-2,-5,4,0,1635,0,,,,,,,,,,,,,,,
4120014,1501040222572,,,,,,,,,0,1605,0,,,,,,,,,,,,,,,
4120024,1501040222582,,,,,,,,,0,1620,0,,,,,,,,,,,,,,,
4120034,1501040222592,,,,,,,,,0,1650,0,,,,,,,,,,,,,,,
4120044,1501040222600,3.39,4.47,-0.03,-0.05,1.04,-2,-6,4,0,1650,0,36.113472,-115.145988,0.0,9.203,2040.5,8,2,2.4,0,0.0,-1,0.0,0.0,0.0,0
4120054,1501040222610,,,,,,,,,0,1620,0,,,,,,,,,,,,,,,
4120064,1501040222620,,,,,,,,,0,1635,0,,,,,,,,,,,,,,,
4120074,1501040222630,,,,,,,,,0,1635,0,,,,,,,,,,,,,,,
4120084,1501040222640,3.34,,-0.03,-0.06,1.02,-2,-6,3,0,1590,0,,,,,,,,,,,,,,,
4120094,1501040222650,,,,,,,,,0,1605,0,,,,,,,,,,,,,,,
4120104,1501040222660,,,,,,,,,0,1635,0,,,,,,,,,,,,,,,
4120114,1501040222670,,,,,,,,,0,1650,0,,,,,,,,,,,,,,,
4120124,1501040222680,3.38,,-0.05,-0.06,1.02,-2,-4,4,0,1605,0,,,,,,,,,,,,,,,
4120134,1501040222692,,,,,,,,,0,1635,0,,,,,,,,,,,,,,,
4120144,1501040222702,,,,,,,,,0,1635,0,36.113472,-115.145988,0.0,9.203,2040.5,8,2,2.4,0,0.0,-1,0.0,0.0,0.0,0
4120154,1501040222712,,,,,,,,,0,1605,0,,,,,,,,,,,,,,,
4120164,1501040222722,3.4,,-0.07,-0.05,1.05,-2,-3,4,0,1575,0,,,,,,,,,,,,,,,
4120174,1501040222732,,,,,,,,,0,1605,0,,,,,,,,,,,,,,,
4120184,1501040222742,,,,,,,,,0,1620,0,,,,,,,,,,,,,,,
4120194,1501040222752,,,,,,,,,0,1620,0,,,,,,,,,,,,,,,
4120204,1501040222762,3.34,,-0.06,-0.06,1.04,-2,-4,4,0,1605,0,,,,,,,,,,,,,,,
4120214,1501040222772,,,,,,,,,0,1605,0,,,,,,,,,,,,,,,
4120224,1501040222782,,,,,,,,,0,1590,0,,,,,,,,,,,,,,,
4120234,1501040222791,,,,,,,,,0,1560,0,,,,,,,,,,,,,,,
4120244,1501040222801,3.39,,-0.05,-0.06,1.01,-2,-4,3,0,1590,0,36.113472,-115.145988,0.0,9.203,2040.5,8,2,2.4,0,0.0,-1,0.0,0.0,0.0,0
4120254,1501040222811,,,,,,,,,0,1605,0,,,,,,,,,,,,,,,
4120264,1501040222821,,,,,,,,,0,1620,0,,,,,,,,,,,,,,,
4120274,1501040222831,,,,,,,,,0,1575,0,,,,,,,,,,,,,,,
4120284,1501040222841,3.38,,-0.02,-0.06,0.98,-1,-6,3,0,1605,0,,,,,,,,,,,,,,,
4120294,1501040222851,,,,,,,,,0,1605,0,,,,,,,,,,,,,,,
4120304,1501040222861,,,,,,,,,0,1590,0,,,,,,,,,,,,,,,
4120314,1501040222871,,,,,,,,,0,1545,0,,,,,,,,,,,,,,,
4120324,1501040222881,3.38,,0.01,-0.08,0.97,-1,-8,3,0,1575,0,,,,,,,,,,,,,,,
4120334,1501040222891,,,,,,,,,0,1635,0,,,,,,,,,,,,,,,
4120344,1501040222901,,,,,,,,,0,1635,0,36.113472,-115.145988,0.0,9.203,2040.5,8,2,2.4,0,0.0,-1,0.0,0.0,0.0,0
4120354,1501040222911,,,,,,,,,0,1620,0,,,,,,,,,,,,,,,
4120364,1501040222921,3.39,,0.01,-0.08,0.99,-1,-7,4,0,1635,0,,,,,,,,,,,,,,,
4120374,1501040222931,,,,,,,,,0,1605,0,,,,,,,,,,,,,,,
4120384,1501040222941,,,,,,,,,0,1575,0,,,,,,,,,,,,,,,
4120394,1501040222951,,,,,,,,,0,1605,0,,,,,,,,,,,,,,,
4120404,1501040222961,3.38,,-0.01,-0.08,1.01,-1,-5,3,0,1635,0,,,,,,,,,,,,,,,
4120414,1501040222971,,,,,,,,,0,1650,0,,,,,,,,,,,,,,,
4120424,1501040222981,,,,,,,,,0,1620,0,,,,,,,,,,,,,,,
4120434,1501040222991,,,,,,,,,0,1635,0,,,,,,,,,,,,,,,
4120444,1501040222995,3.39,,-0.04,-0.07,1.02,-2,-3,3,0,1635,0,36.113472,-115.145988,0.0,9.203,2040.5,8,2,2.4,0,0.0,-1,0.0,0.0,0.0,0
4120454,1501040223005,,,,,,,,,0,1620,0,,,,,,,,,,,,,,,
4120464,1501040223015,,,,,,,,,0,1575,0,,,,,,,,,,,,,,,
4120474,1501040223025,,,,,,,,,0,1635,0,,,,,,,,,,,,,,,
4120484,1501040223035,3.38,,-0.04,-0.08,1.01,-1,-3,3,0,1650,0,,,,,,,,,,,,,,,
4120494,1501040223045,,,,,,,,,0,1620,0,,,,,,,,,,,,,,,
4120504,1501040223055,,,,,,,,,0,1635,0,,,,,,,,,,,,,,,
4120514,1501040223065,,,,,,,,,0,1650,0,,,,,,,,,,,,,,,
4120524,1501040223075,3.39,,-0.03,-0.08,0.99,-2,-6,3,0,1620,0,,,,,,,,,,,,,,,
4120534,1501040223091,,,,,,,,,0,1590,0,,,,,,,,,,,,,,,
4120544,1501040223101,,,,,,,,,0,1620,0,36.113472,-115.145988,0.0,9.203,2040.5,8,2,2.4,0,0.0,-1,0.0,0.0,0.0,0
4120554,1501040223111,,,,,,,,,0,1635,0,,,,,,,,,,,,,,,
4120564,1501040223121,3.4,,-0.01,-0.09,0.97,-2,-6,4,0,1635,0,,,,,,,,,,,,,,,
4120574,1501040223131,,,,,,,,,0,1590,0,,,,,,,,,,,,,,,
4120584,1501040223141,,,,,,,,,0,1620,0,,,,,,,,,,,,,,,
4120594,1501040223151,,,,,,,,,0,1590,0,,,,,,,,,,,,,,,
4120604,1501040223161,3.38,,-0.01,-0.08,1.0,-2,-5,3,0,1560,0,,,,,,,,,,,,,,,
4120614,1501040223171,,,,,,,,,0,1590,0,,,,,,,,,,,,,,,
4120624,1501040223181,,,,,,,,,0,1620,0,,,,,,,,,,,,,,,
4120634,1501040223193,,,,,,,,,0,1635,0,,,,,,,,,,,,,,,
4120644,1501040223203,3.39,,-0.03,-0.08,0.99,-2,-3,3,0,1605,0,36.113472,-115.145988,0.0,9.203,2040.5,8,2,2.4,0,0.0,-1,0.0,0.0,0.0,0
4120654,1501040223213,,,,,,,,,0,1635,0,,,,,,,,,,,,,,,
4120664,1501040223223,,,,,,,,,0,1620,0,,,,,,,,,,,,,,,
4120674,1501040223233,,,,,,,,,0,1605,0,,,,,,,,,,,,,,,
4120684,1501040223243,3.39,,-0.06,-0.07,1.04,-2,-3,3,0,1575,0,,,,,,,,,,,,,,,
4120694,1501040223253,,,,,,,,,0,1605,0,,,,,,,,,,,,,,,
4120704,1501040223263,,,,,,,,,0,1635,0,,,,,,,,,,,,,,,
4120714,1501040223273,,,,,,,,,0,1635,0,,,,,,,,,,,,,,,
4120724,1501040223283,3.39,,-0.05,-0.06,1.04,-2,-4,4,0,1635,0,,,,,,,,,,,,,,,
4120734,1501040223293,,,,,,,,,0,1635,0,,,,,,,,,,,,,,,
4120744,1501040223303,,,,,,,,,0,1620,0,36.113472,-115.145988,0.0,9.203,2040.5,8,2,2.5,0,0.0,-1,0.0,0.0,0.0,0
4120754,1501040223313,,,,,,,,,0,1590,0,,,,,,,,,,,,,,,
4120764,1501040223323,3.39,,-0.04,-0.06,1.02,-2,-5,3,0,1620,0,,,,,,,,,,,,,,,
4120774,1501040223333,,,,,,,,,0,1635,0,,,,,,,,,,,,,,,
4120784,1501040223343,,,,,,,,,0,1650,0,,,,,,,,,,,,,,,
4120794,1501040223353,,,,,,,,,0,1620,0,,,,,,,,,,,,,,,
4120804,1501040223363,3.39,,-0.01,-0.06,1.01,-2,-6,4,0,1635,0,,,,,,,,,,,,,,,
4120814,1501040223373,,,,,,,,,0,1650,0,,,,,,,,,,,,,,,
4120824,1501040223383,,,,,,,,,0,1620,0,,,,,,,,,,,,,,,
4120834,1501040223393,,,,,,,,,0,1620,0,,,,,,,,,,,,,,,
4120844,1501040223403,3.39,,-0.02,-0.06,1.0,-2,-5,3,0,1635,0,36.113472,-115.145988,0.0,9.203,2040.5,8,2,2.4,0,0.0,-1,0.0,0.0,0.0,0
4120854,1501040223413,,,,,,,,,0,1635,0,,,,,,,,,,,,,,,
4120864,1501040223423,,,,,,,,,0,1590,0,,,,,,,,,,,,,,,
4120874,1501040223433,,,,,,,,,0,1620,0,,,,,,,,,,,,,,,
4120884,1501040223443,3.39,,-0.04,-0.05,1.02,-2,-3,3,0,1620,0,,,,,,,,,,,,,,,
4120894,1501040223453,,,,,,,,,0,1605,0,,,,,,,,,,,,,,,
4120904,1501040223463,,,,,,,,,0,1575,0,,,,,,,,,,,,,,,
4120914,1501040223473,,,,,,,,,0,1605,0,,,,,,,,,,,,,,,
4120924,1501040223483,3.39,,-0.05,-0.05,1.04,-2,-2,3,0,1635,0,,,,,,,,,,,,,,,
4120934,1501040223493,,,,,,,,,0,1650,0,,,,,,,,,,,,,,,
4120944,1501040223503,,,,,,,,,0,1620,0,36.113472,-115.145988,0.0,9.203,2040.5,8,2,2.5,0,0.0,-1,0.0,0.0,0.0,0
4120954,1501040223513,,,,,,,,,0,1635,0,,,,,,,,,,,,,,,
4120964,1501040223523,3.4,,-0.05,-0.05,1.03,-1,-3,3,0,1620,0,,,,,,,,,,,,,,,
4120974,1501040223533,,,,,,,,,0,1575,0,,,,,,,,,,,,,,,
4120984,1501040223543,,,,,,,,,0,1620,0,,,,,,,,,,,,,,,
4120994,1501040223553,,,,,,,,,0,1650,0,,,,,,,,,,,,,,,
4121004,1501040223563,3.4,,-0.04,-0.05,1.01,-1,-4,3,0,1665,0,,,,,,,,,,,,,,,
4121014,1501040223573,,,,,,,,,0,1635,0,,,,,,,,,,,,,,,
4121024,1501040223583,,,,,,,,,0,1650,0,,,,,,,,,,,,,,,
4121034,1501040223591,,,,,,,,,0,1665,0,,,,,,,,,,,,,,,
4121044,1501040223601,3.4,4.47,-0.04,-0.05,0.97,-1,-5,3,0,1635,0,36.113472,-115.145988,0.0,9.203,2040.5,8,2,2.5,0,0.0,-1,0.0,0.0,0.0,0
4121054,1501040223611,,,,,,,,,0,1635,0,,,,,,,,,,,,,,,
4121064,1501040223621,,,,,,,,,0,1650,0,,,,,,,,,,,,,,,
4121074,1501040223631,,,,,,,,,0,1635,0,,,,,,,,,,,,,,,
4121084,1501040223641,3.38,,-0.06,-0.05,0.99,-1,-4,3,0,1605,0,,,,,,,,,,,,,,,
4121094,1501040223651,,,,,,,,,0,1620,0,,,,,,,,,,,,,,,
4121104,1501040223661,,,,,,,,,0,1635,0,,,,,,,,,,,,,,,
4121114,1501040223671,,,,,,,,,0,1605,0,,,,,,,,,,,,,,,
4121124,1501040223681,3.39,,-0.07,-0.05,1.01,-1,-2,3,0,1575,0,,,,,,,,,,,,,,,
4121134,1501040223693,,,,,,,,,0,1605,0,,,,,,,,,,,,,,,
4121144,1501040223703,,,,,,,,,0,1650,0,36.113472,-115.145988,0.0,9.203,2040.5,8,2,2.5,0,0.0,-1,0.0,0.0,0.0,0
4121154,1501040223713,,,,,,,,,0,1650,0,,,,,,,,,,,,,,,
4121164,1501040223723,3.39,,-0.08,-0.06,1.02,-1,-2,3,0,1635,0,,,,,,,,,,,,,,,
4121174,1501040223733,,,,,,,,,0,1650,0,,,,,,,,,,,,,,,
4121184,1501040223743,,,,,,,,,0,1620,0,,,,,,,,,,,,,,,
4121194,1501040223753,,,,,,,,,0,1605,0,,,,,,,,,,,,,,,
4121204,1501040223763,3.4,,-0.07,-0.06,1.01,-0,-3,3,0,1620,0,,,,,,,,,,,,,,,
4121214,1501040223773,,,,,,,,,0,1650,0,,,,,,,,,,,,,,,
4121224,1501040223783,,,,,,,,,0,1665,0,,,,,,,,,,,,,,,
4121234,1501040223792,,,,,,,,,0,1620,0,,,,,,,,,,,,,,,
4121244,1501040223802,3.4,,-0.04,-0.06,0.98,-0,-5,3,0,1635,0,36.113472,-115.145988,0.0,9.203,2040.5,8,2,2.5,0,0.0,-1,0.0,0.0,0.0,0
4121254,1501040223812,,,,,,,,,0,1650,0,,,,,,,,,,,,,,,
4121264,1501040223822,,,,,,,,,0,1620,0,,,,,,,,,,,,,,,
4121274,1501040223832,,,,,,,,,0,1590,0,,,,,,,,,,,,,,,
4121284,1501040223842,3.38,,-0.03,-0.07,0.97,-0,-5,3,0,1665,0,,,,,,,,,,,,,,,
4121294,1501040223852,,,,,,,,,0,1665,0,,,,,,,,,,,,,,,
4121304,1501040223862,,,,,,,,,0,1635,0,,,,,,,,,,,,,,,
4121314,1501040223872,,,,,,,,,0,1650,0,,,,,,,,,,,,,,,
4121324,1501040223882,3.39,,-0.05,-0.07,1.0,-0,-3,3,0,1665,0,,,,,,,,,,,,,,,
4121334,1501040223892,,,,,,,,,0,1635,0,,,,,,,,,,,,,,,
4121344,1501040223902,,,,,,,,,0,1605,0,36.113472,-115.145988,0.0,9.203,2040.5,8,2,2.5,0,0.0,-1,0.0,0.0,0.0,0
4121354,1501040223912,,,,,,,,,0,1635,0,,,,,,,,,,,,,,,
4121364,1501040223922,3.39,,-0.06,-0.07,1.03,-0,-2,3,0,1665,0,,,,,,,,,,,,,,,
4121374,1501040223932,,,,,,,,,0,1635,0,,,,,,,,,,,,,,,
4121384,1501040223942,,,,,,,,,0,1650,0,,,,,,,,,,,,,,,
4121394,1501040223952,,,,,,,,,0,1650,0,,,,,,,,,,,,,,,
4121404,1501040223962,3.39,,-0.05,-0.07,1.01,-0,-4,4,0,1635,0,,,,,,,,,,,,,,,
4121414,1501040223972,,,,,,,,,0,1605,0,,,,,,,,,,,,,,,
4121424,1501040223982,,,,,,,,,0,1620,0,,,,,,,,,,,,,,,
4121434,1501040223992,,,,,,,,,0,1650,0,,,,,,,,,,,,,,,
4121444,1501040223994,3.4,,-0.04,-0.06,1.0,-1,-5,3,0,1650,0,36.113472,-115.145988,0.0,9.203,2040.5,8,2,2.5,0,0.0,-1,0.0,0.0,0.0,0
4121454,1501040224004,,,,,,,,,0,1620,0,,,,,,,,,,,,,,,
4121464,1501040224014,,,,,,,,,0,1635,0,,,,,,,,,,,,,,,
4121474,1501040224024,,,,,,,,,0,1635,0,,,,,,,,,,,,,,,
4121484,1501040224034,3.35,,-0.03,-0.06,0.99,-1,-5,3,0,1590,0,,,,,,,,,,,,,,,
4121494,1501040224044,,,,,,,,,0,1605,0,,,,,,,,,,,,,,,
4121504,1501040224054,,,,,,,,,0,1635,0,,,,,,,,,,,,,,,
4121514,1501040224064,,,,,,,,,0,1635,0,,,,,,,,,,,,,,,
4121524,1501040224074,3.4,,-0.05,-0.06,1.0,-1,-2,3,0,1590,0,,,,,,,,,,,,,,,
4121534,1501040224084,,,,,,,,,0,1620,0,,,,,,,,,,,,,,,
4121544,1501040224100,,,,,,,,,0,1620,0,36.113472,-115.145988,0.0,9.203,2040.5,8,2,2.5,0,0.0,-1,0.0,0.0,0.0,0
4121554,1501040224110,,,,,,,,,0,1590,0,,,,,,,,,,,,,,,
4121564,1501040224120,3.38,,-0.07,-0.05,1.04,-1,-2,3,0,1575,0,,,,,,,,,,,,,,,
4121574,1501040224130,,,,,,,,,0,1590,0,,,,,,,,,,,,,,,
4121584,1501040224140,,,,,,,,,0,1635,0,,,,,,,,,,,,,,,
4121594,1501040224150,,,,,,,,,0,1635,0,,,,,,,,,,,,,,,
4121604,1501040224160,3.39,,-0.08,-0.06,1.04,-1,-2,4,0,1620,0,,,,,,,,,,,,,,,
4121614,1501040224170,,,,,,,,,0,1635,0,,,,,,,,,,,,,,,
4121624,1501040224180,,,,,,,,,0,1605,0,,,,,,,,,,,,,,,
4121634,1501040224192,,,,,,,,,0,1575,0,,,,,,,,,,,,,,,
4121644,1501040224202,3.39,,-0.07,-0.07,1.02,-1,-3,3,0,1605,0,36.113472,-115.145988,0.0,9.203,2040.5,8,2,2.5,0,0.0,-1,0.0,0.0,0.0,0
4121654,1501040224212,,,,,,,,,0,1620,0,,,,,,,,,,,,,,,
4121664,1501040224222,,,,,,,,,0,1620,0,,,,,,,,,,,,,,,
4121674,1501040224232,,,,,,,,,0,1575,0,,,,,,,,,,,,,,,
4121684,1501040224242,3.39,,-0.04,-0.08,0.99,-1,-5,3,0,1605,0,,,,,,,,,,,,,,,
4121694,1501040224252,,,,,,,,,0,1605,0,,,,,,,,,,,,,,,
4121704,1501040224262,,,,,,,,,0,1590,0,,,,,,,,,,,,,,,
4121714,1501040224272,,,,,,,,,0,1560,0,,,,,,,,,,,,,,,
4121724,1501040224282,3.38,,-0.01,-0.09,0.98,-1,-6,3,0,1590,0,,,,,,,,,,,,,,,
4121734,1501040224292,,,,,,,,,0,1605,0,,,,,,,,,,,,,,,
4121744,1501040224302,,,,,,,,,0,1620,0,36.113472,-115.145988,0.0,9.203,2040.5,8,2,2.5,0,0.0,-1,0.0,0.0,0.0,0
4121754,1501040224312,,,,,,,,,0,1605,0,,,,,,,,,,,,,,,
4121764,1501040224322,3.33,,-0.02,-0.08,1.0,-1,-5,3,0,1620,0,,,,,,,,,,,,,,,
4121774,1501040224332,,,,,,,,,0,1590,0,,,,,,,,,,,,,,,
4121784,1501040224342,,,,,,,,,0,1560,0,,,,,,,,,,,,,,,
4121794,1501040224352,,,,,,,,,0,1590,0,,,,,,,,,,,,,,,
4121804,1501040224362,3.39,,-0.03,-0.07,1.01,-1,-4,3,0,1620,0,,,,,,,,,,,,,,,
4121814,1501040224372,,,,,,,,,0,1650,0,,,,,,,,,,,,,,,
4121824,1501040224382,,,,,,,,,0,1605,0,,,,,,,,,,,,,,,
4121834,1501040224392,,,,,,,,,0,1620,0,,,,,,,,,,,,,,,
4121844,1501040224402,3.39,,-0.06,-0.06,1.02,-2,-3,3,0,1635,0,36.113472,-115.145988,0.0,9.203,2040.5,8,2,2.5,0,0.0,-1,0.0,0.0,0.0,0
4121854,1501040224412,,,,,,,,,0,1605,0,,,,,,,,,,,,,,,
4121864,1501040224422,,,,,,,,,0,1575,0,,,,,,,,,,,,,,,
4121874,1501040224432,,,,,,,,,0,1605,0,,,,,,,,,,,,,,,
4121884,1501040224442,3.33,,-0.06,-0.08,1.04,-2,-4,4,0,1665,0,,,,,,,,,,,,,,,
4121894,1501040224452,,,,,,,,,0,1635,0,,,,,,,,,,,,,,,
4121904,1501040224462,,,,,,,,,0,1650,0,,,,,,,,,,,,,,,
4121914,1501040224472,,,,,,,,,0,1650,0,,,,,,,,,,,,,,,
4121924,1501040224482,3.39,,-0.04,-0.07,1.02,-2,-6,4,0,1620,0,,,,,,,,,,,,,,,
4121934,1501040224492,,,,,,,,,0,1590,0,,,,,,,,,,,,,,,
4121944,1501040224502,,,,,,,,,0,1635,0,36.113472,-115.145988,0.0,9.203,2040.5,8,2,2.5,0,0.0,-1,0.0,0.0,0.0,0
4121954,1501040224512,,,,,,,,,0,1635,0,,,,,,,,,,,,,,,
4121964,1501040224522,3.39,,-0.03,-0.08,1.0,-2,-6,4,0,1635,0,,,,,,,,,,,,,,,
4121974,1501040224532,,,,,,,,,0,1605,0,,,,,,,,,,,,,,,
4121984,1501040224542,,,,,,,,,0,1620,0,,,,,,,,,,,,,,,
4121994,1501040224552,,,,,,,,,0,1605,0,,,,,,,,,,,,,,,
4122004,1501040224562,3.34,,-0.03,-0.08,1.0,-2,-5,3,0,1575,0,,,,,,,,,,,,,,,
4122014,1501040224572,,,,,,,,,0,1605,0,,,,,,,,,,,,,,,
4122024,1501040224582,,,,,,,,,0,1650,0,,,,,,,,,,,,,,,
4122034,1501040224592,,,,,,,,,0,1650,0,,,,,,,,,,,,,,,
4122044,1501040224602,3.38,4.47,-0.05,-0.07,0.99,-2,-3,3,0,1635,0,36.113472,-115.145988,0.0,9.203,2040.5,8,2,2.5,0,0.0,-1,0.0,0.0,0.0,0
4122054,1501040224612,,,,,,,,,0,1635,0,,,,,,,,,,,,,,,
4122064,1501040224622,,,,,,,,,0,1650,0,,,,,,,,,,,,,,,
4122074,1501040224632,,,,,,,,,0,1620,0,,,,,,,,,,,,,,,
4122084,1501040224642,3.37,,-0.07,-0.06,1.03,-2,-3,3,0,1590,0,,,,,,,,,,,,,,,
4122094,1501040224652,,,,,,,,,0,1620,0,,,,,,,,,,,,,,,
4122104,1501040224662,,,,,,,,,0,1650,0,,,,,,,,,,,,,,,
4122114,1501040224672,,,,,,,,,0,1635,0,,,,,,,,,,,,,,,
4122124,1501040224682,3.38,,-0.05,-0.06,1.03,-2,-5,4,0,1635,0,,,,,,,,,,,,,,,
4122134,1501040224692,,,,,,,,,0,1650,0,,,,,,,,,,,,,,,
4122144,1501040224702,,,,,,,,,0,1620,0,36.113472,-115.145988,0.0,9.203,2040.5,8,2,2.5,0,0.0,-1,0.0,0.0,0.0,0
4122154,1501040224712,,,,,,,,,0,1590,0,,,,,,,,,,,,,,,
4122164,1501040224722,3.38,,-0.03,-0.06,1.01,-2,-6,4,0,1620,0,,,,,,,,,,,,,,,
4122174,1501040224732,,,,,,,,,0,1650,0,,,,,,,,,,,,,,,
4122184,1501040224742,,,,,,,,,0,1650,0,,,,,,,,,,,,,,,
4122194,1501040224752,,,,,,,,,0,1620,0,,,,,,,,,,,,,,,
4122204,1501040224762,3.38,,-0.0,-0.07,1.01,-2,-6,4,0,1650,0,,,,,,,,,,,,,,,
4122214,1501040224772,,,,,,,,,0,1620,0,,,,,,,,,,,,,,,
4122224,1501040224782,,,,,,,,,0,1590,0,,,,,,,,,,,,,,,
4122234,1501040224791,,,,,,,,,0,1605,0,,,,,,,,,,,,,,,
4122244,1501040224801,3.38,,-0.02,-0.06,1.01,-2,-5,3,0,1650,0,36.113472,-115.145988,0.0,9.203,2040.5,8,2,2.5,0,0.0,-1,0.0,0.0,0.0,0
4122254,1501040224811,,,,,,,,,0,1650,0,,,,,,,,,,,,,,,
4122264,1501040224821,,,,,,,,,0,1620,0,,,,,,,,,,,,,,,
4122274,1501040224831,,,,,,,,,0,1635,0,,,,,,,,,,,,,,,
4122284,1501040224841,3.39,,-0.05,-0.04,1.03,-2,-3,3,0,1635,0,,,,,,,,,,,,,,,
4122294,1501040224851,,,,,,,,,0,1620,0,,,,,,,,,,,,,,,
4122304,1501040224861,,,,,,,,,0,1590,0,,,,,,,,,,,,,,,
4122314,1501040224871,,,,,,,,,0,1605,0,,,,,,,,,,,,,,,
4122324,1501040224881,3.34,,-0.05,-0.05,1.05,-2,-3,3,0,1650,0,,,,,,,,,,,,,,,
4122334,1501040224891,,,,,,,,,0,1620,0,,,,,,,,,,,,,,,
4122344,1501040224901,,,,,,,,,0,1650,0,36.113472,-115.145988,0.0,9.203,2040.5,8,2,2.5,0,0.0,-1,0.0,0.0,0.0,0
4122354,1501040224911,,,,,,,,,0,1635,0,,,,,,,,,,,,,,,
4122364,1501040224921,3.39,,-0.03,-0.05,1.03,-2,-6,4,0,1620,0,,,,,,,,,,,,,,,
4122374,1501040224931,,,,,,,,,0,1590,0,,,,,,,,,,,,,,,
4122384,1501040224941,,,,,,,,,0,1620,0,,,,,,,,,,,,,,,
4122394,1501040224951,,,,,,,,,0,1650,0,,,,,,,,,,,,,,,
4122404,1501040224961,3.39,,-0.02,-0.06,1.01,-2,-7,4,0,1650,0,,,,,,,,,,,,,,,
4122414,1501040224971,,,,,,,,,0,1620,0,,,,,,,,,,,,,,,
4122424,1501040224981,,,,,,,,,0,1650,0,,,,,,,,,,,,,,,
4122434,1501040224991,,,,,,,,,0,1620,0,,,,,,,,,,,,,,,
4122444,1501040224995,3.35,,-0.02,-0.06,1.01,-2,-5,4,0,1590,0,36.113472,-115.145988,0.0,9.203,2040.5,8,2,2.5,0,0.0,-1,0.0,0.0,0.0,0
4122454,1501040225005,,,,,,,,,0,1620,0,,,,,,,,,,,,,,,
4122464,1501040225015,,,,,,,,,0,1635,0,,,,,,,,,,,,,,,
4122474,1501040225025,,,,,,,,,0,1650,0,,,,,,,,,,,,,,,
4122484,1501040225035,3.38,,-0.04,-0.06,1.0,-2,-3,3,0,1620,0,,,,,,,,,,,,,,,
4122494,1501040225045,,,,,,,,,0,1635,0,,,,,,,,,,,,,,,
4122504,1501040225055,,,,,,,,,0,1650,0,,,,,,,,,,,,,,,
4122514,1501040225065,,,,,,,,,0,1620,0,,,,,,,,,,,,,,,
4122524,1501040225075,3.38,,-0.06,-0.05,1.05,-3,-3,3,0,1590,0,,,,,,,,,,,,,,,
4122534,1501040225091,,,,,,,,,0,1620,0,,,,,,,,,,,,,,,
4122544,1501040225101,,,,,,,,,0,1650,0,36.113472,-115.145988,0.0,9.203,2040.5,8,2,2.5,0,0.0,-1,0.0,0.0,0.0,0
4122554,1501040225111,,,,,,,,,0,1605,0,,,,,,,,,,,,,,,
4122564,1501040225121,3.37,,-0.04,-0.05,1.03,-2,-5,4,0,1635,0,,,,,,,,,,,,,,,
4122574,1501040225131,,,,,,,,,0,1635,0,,,,,,,,,,,,,,,
4122584,1501040225141,,,,,,,,,0,1605,0,,,,,,,,,,,,,,,
4122594,1501040225151,,,,,,,,,0,1590,0,,,,,,,,,,,,,,,
4122604,1501040225161,3.38,,-0.02,-0.05,1.01,-3,-7,4,0,1605,0,,,,,,,,,,,,,,,
4122614,1501040225171,,,,,,,,,0,1650,0,,,,,,,,,,,,,,,
4122624,1501040225181,,,,,,,,,0,1665,0,,,,,,,,,,,,,,,
4122634,1501040225193,,,,,,,,,0,1635,0,,,,,,,,,,,,,,,
4122644,1501040225203,3.38,,-0.0,-0.06,0.99,-2,-7,4,0,1650,0,36.113472,-115.145988,0.0,9.203,2040.5,8,2,2.5,0,0.0,-1,0.0,0.0,0.0,0
4122654,1501040225213,,,,,,,,,0,1635,0,,,,,,,,,,,,,,,
4122664,1501040225223,,,,,,,,,0,1605,0,,,,,,,,,,,,,,,
4122674,1501040225233,,,,,,,,,0,1620,0,,,,,,,,,,,,,,,
4122684,1501040225243,3.37,,-0.01,-0.06,1.0,-2,-5,3,0,1650,0,,,,,,,,,,,,,,,
4122694,1501040225253,,,,,,,,,0,1650,0,,,,,,,,,,,,,,,
4122704,1501040225263,,,,,,,,,0,1620,0,,,,,,,,,,,,,,,
4122714,1501040225273,,,,,,,,,0,1635,0,,,,,,,,,,,,,,,
4122724,1501040225283,3.37,,-0.04,-0.05,1.03,-2,-3,3,0,1635,0,,,,,,,,,,,,,,,
4122734,1501040225291,,,,,,,,,0,1620,0,,,,,,,,,,,,,,,
4122744,1501040225301,,,,,,,,,0,1590,0,36.113472,-115.145988,0.0,9.203,2040.5,8,2,2.5,0,0.0,-1,0.0,0.0,0.0,0
4122754,1501040225311,,,,,,,,,0,1605,0,,,,,,,,,,,,,,,
4122764,1501040225321,3.39,,-0.05,-0.04,1.05,-2,-3,4,0,1635,0,,,,,,,,,,,,,,,
4122774,1501040225331,,,,,,,,,0,1620,0,,,,,,,,,,,,,,,
4122784,1501040225341,,,,,,,,,0,1635,0,,,,,,,,,,,,,,,
4122794,1501040225351,,,,,,,,,0,1650,0,,,,,,,,,,,,,,,
4122804,1501040225361,3.38,,-0.04,-0.05,1.02,-2,-5,4,0,1620,0,,,,,,,,,,,,,,,
4122814,1501040225371,,,,,,,,,0,1590,0,,,,,,,,,,,,,,,
4122824,1501040225381,,,,,,,,,0,1590,0,,,,,,,,,,,,,,,
4122834,1501040225393,,,,,,,,,0,1725,0,,,,,,,,,,,,,,,
4122844,1501040225403,3.4,,-0.03,-0.07,1.0,-2,-6,3,0,1770,0,36.113472,-115.145988,0.0,9.203,2040.5,8,2,2.5,0,0.0,-1,0.0,0.0,0.0,0
4122854,1501040225413,,,,,,,,,0,1755,0,,,,,,,,,,,,,,,
4122864,1501040225423,,,,,,,,,0,1770,0,,,,,,,,,,,,,,,
4122874,1501040225433,,,,,,,,,0,1740,0,,,,,,,,,,,,,,,
4122884,1501040225443,3.39,,-0.01,-0.1,0.96,-2,-6,3,0,1725,0,,,,,,,,,,,,,,,
4122894,1501040225453,,,,,,,,,0,1695,0,,,,,,,,,,,,,,,
4122904,1501040225463,,,,,,,,,0,1980,0,,,,,,,,,,,,,,,
4122914,1501040225473,,,,,,,,,0,1965,0,,,,,,,,,,,,,,,
4122924,1501040225483,3.37,,0.03,-0.1,0.94,-2,-5,3,0,1980,0,,,,,,,,,,,,,,,
4122934,1501040225493,,,,,,,,,0,1980,0,,,,,,,,,,,,,,,
4122944,1501040225503,,,,,,,,,0,1950,0,36.113472,-115.145988,0.0,9.203,2040.5,8,2,2.5,0,0.0,-1,0.0,0.0,0.0,0
4122954,1501040225513,,,,,,,,,0,1920,0,,,,,,,,,,,,,,,
4122964,1501040225523,3.38,,0.02,-0.09,0.98,-2,-3,4,0,2190,0,,,,,,,,,,,,,,,
4122974,1501040225533,,,,,,,,,0,2160,0,,,,,,,,,,,,,,,
4122984,1501040225543,,,,,,,,,0,2190,0,,,,,,,,,,,,,,,
4122994,1501040225553,,,,,,,,,0,2175,0,,,,,,,,,,,,,,,
4123004,1501040225563,3.39,,0.06,-0.1,1.08,-2,-2,5,0,2115,0,,,,,,,,,,,,,,,
4123014,1501040225573,,,,,,,,,0,2310,0,,,,,,,,,,,,,,,
4123024,1501040225583,,,,,,,,,0,2370,0,,,,,,,,,,,,,,,
4123034,1501040225593,,,,,,,,,0,2415,0,,,,,,,,,,,,,,,
4123044,1501040225603,3.38,4.46,0.04,-0.13,1.21,-2,1,6,0,2400,0,36.113472,-115.145988,0.0,9.203,2040.5,8,2,2.5,0,0.0,-1,0.0,0.0,0.0,0
4123054,1501040225613,,,,,,,,,0,2355,0,,,,,,,,,,,,,,,
4123064,1501040225623,,,,,,,,,0,2595,0,,,,,,,,,,,,,,,
4123074,1501040225633,,,,,,,,,0,2565,0,,,,,,,,,,,,,,,
4123084,1501040225643,3.37,,0.14,-0.13,1.14,-2,-4,6,0,2610,0,,,,,,,,,,,,,,,
4123094,1501040225653,,,,,,,,,0,2535,0,,,,,,,,,,,,,,,
4123104,1501040225663,,,,,,,,,0,2535,0,,,,,,,,,,,,,,,
4123114,1501040225673,,,,,,,,,0,2745,0,,,,,,,,,,,,,,,
4123124,1501040225683,3.33,,-0.01,-0.13,1.1,-1,-3,5,0,2730,0,,,,,,,,,,,,,,,
4123134,1501040225693,,,,,,,,,0,2730,0,,,,,,,,,,,,,,,
4123144,1501040225703,,,,,,,,,0,2700,0,36.113472,-115.145988,0.0,9.203,2040.5,8,2,2.5,0,0.0,-1,0.0,0.0,0.0,0
4123154,1501040225713,,,,,,,,,0,2850,0,,,,,,,,,,,,,,,
4123164,1501040225723,3.33,,-0.15,-0.15,1.24,-0,-0,4,0,2835,0,,,,,,,,,,,,,,,
4123174,1501040225733,,,,,,,,,0,2865,0,,,,,,,,,,,,,,,
4123184,1501040225743,,,,,,,,,0,2790,0,,,,,,,,,,,,,,,
4123194,1501040225753,,,,,,,,,0,2895,0,,,,,,,,,,,,,,,
4123204,1501040225763,3.4,,-0.17,-0.19,1.38,1,1,7,0,2850,0,,,,,,,,,,,,,,,
4123214,1501040225773,,,,,,,,,0,2910,0,,,,,,,,,,,,,,,
4123224,1501040225783,,,,,,,,,0,2850,0,,,,,,,,,,,,,,,
4123234,1501040225793,,,,,,,,,0,2925,0,,,,,,,,,,,,,,,
4123244,1501040225803,3.39,,-0.04,-0.23,1.48,-1,1,10,0,2865,0,36.113472,-115.145988,0.0,9.203,2040.5,8,2,2.5,0,0.0,-1,0.0,0.0,0.0,0
4123254,1501040225813,,,,,,,,,0,2940,0,,,,,,,,,,,,,,,
4123264,1501040225823,,,,,,,,,0,2880,0,,,,,,,,,,,,,,,
4123274,1501040225833,,,,,,,,,0,2955,0,,,,,,,,,,,,,,,
4123284,1501040225843,3.39,,0.1,-0.2,1.48,-3,2,12,0,2895,0,,,,,,,,,,,,,,,
4123294,1501040225853,,,,,,,,,0,2970,0,,,,,,,,,,,,,,,
4123304,1501040225863,,,,,,,,,0,2895,0,,,,,,,,,,,,,,,
4123314,1501040225873,,,,,,,,,0,2970,0,,,,,,,,,,,,,,,
4123324,1501040225883,3.35,,0.21,-0.17,1.4,-3,4,14,0,2910,0,,,,,,,,,,,,,,,
4123334,1501040225892,,,,,,,,,0,2955,0,,,,,,,,,,,,,,,
4123344,1501040225902,,,,,,,,,0,2910,0,36.113472,-115.145988,0.0,9.203,2040.5,8,2,2.5,0,0.0,-1,0.0,0.0,0.0,0
4123354,1501040225912,,,,,,,,,0,2925,0,,,,,,,,,,,,,,,
4123364,1501040225922,3.37,,0.26,-0.15,1.29,-3,5,14,0,2955,0,,,,,,,,,,,,,,,
4123374,1501040225932,,,,,,,,,0,2940,0,,,,,,,,,,,,,,,
4123384,1501040225942,,,,,,,,,0,2910,0,,,,,,,,,,,,,,,
4123394,1501040225952,,,,,,,,,0,2910,0,,,,,,,,,,,,,,,
4123404,1501040225962,3.35,,0.29,-0.16,1.22,-2,4,13,0,2940,0,,,,,,,,,,,,,,,
4123414,1501040225972,,,,,,,,,0,2925,0,,,,,,,,,,,,,,,
4123424,1501040225982,,,,,,,,,0,2895,0,,,,,,,,,,,,,,,
4123434,1501040225992,,,,,,,,,0,2910,0,,,,,,,,,,,,,,,
4123444,1501040225996,3.35,,0.3,-0.18,1.17,-2,3,11,0,2925,0,36.113472,-115.145988,0.0,9.203,2040.5,8,2,2.5,0,0.0,-1,0.0,0.0,0.0,0
4123454,1501040226006,,,,,,,,,0,2910,0,,,,,,,,,,,,,,,
4123464,1501040226016,,,,,,,,,0,2880,0,,,,,,,,,,,,,,,
4123474,1501040226026,,,,,,,,,0,2895,0,,,,,,,,,,,,,,,
4123484,1501040226036,3.33,,0.27,-0.18,1.06,-3,1,10,0,2940,0,,,,,,,,,,,,,,,
4123494,1501040226046,,,,,,,,,0,2925,0,,,,,,,,,,,,,,,
4123504,1501040226056,,,,,,,,,0,2925,0,,,,,,,,,,,,,,,
4123514,1501040226066,,,,,,,,,0,2880,0,,,,,,,,,,,,,,,
4123524,1501040226076,3.33,,0.25,-0.14,0.89,-4,-3,9,0,3030,0,,,,,,,,,,,,,,,
4123534,1501040226092,,,,,,,,,0,3030,0,,,,,,,,,,,,,,,
4123544,1501040226102,,,,,,,,,0,2985,0,36.113472,-115.145988,0.0,9.203,2040.5,8,2,2.5,0,0.0,-1,0.0,0.0,0.0,0
4123554,1501040226112,,,,,,,,,0,2985,0,,,,,,,,,,,,,,,
4123564,1501040226122,3.36,,0.25,-0.05,0.7,-4,-4,8,0,3165,0,,,,,,,,,,,,,,,
4123574,1501040226132,,,,,,,,,0,3150,0,,,,,,,,,,,,,,,
4123584,1501040226142,,,,,,,,,0,3120,0,,,,,,,,,,,,,,,
4123594,1501040226152,,,,,,,,,0,3090,0,,,,,,,,,,,,,,,
4123604,1501040226162,3.39,,0.21,0.07,0.59,-4,-7,9,0,3315,0,,,,,,,,,,,,,,,
4123614,1501040226172,,,,,,,,,0,3255,0,,,,,,,,,,,,,,,
4123624,1501040226182,,,,,,,,,0,3150,300,,,,,,,,,,,,,,,
4123634,1501040226192,,,,,,,,,0,3105,300,,,,,,,,,,,,,,,
4123644,1501040226202,3.4,,0.1,0.07,0.37,-3,-11,9,0,3015,300,36.113472,-115.145988,0.0,9.203,2040.5,8,2,2.5,0,0.0,-1,0.0,0.0,0.0,0
4123654,1501040226212,,,,,,,,,0,3000,300,,,,,,,,,,,,,,,
4123664,1501040226222,,,,,,,,,0,2865,300,,,,,,,,,,,,,,,
4123674,1501040226232,,,,,,,,,0,2820,300,,,,,,,,,,,,,,,
4123684,1501040226242,3.44,,0.1,0.05,0.56,-5,-7,12,0,2895,300,,,,,,,,,,,,,,,
4123694,1501040226252,,,,,,,,,0,2895,140,,,,,,,,,,,,,,,
4123704,1501040226262,,,,,,,,,0,2745,140,,,,,,,,,,,,,,,
4123714,1501040226272,,,,,,,,,0,2685,140,,,,,,,,,,,,,,,
4123724,1501040226282,3.43,,0.17,0.01,0.57,-8,-11,12,0,2790,140,,,,,,,,,,,,,,,
4123734,1501040226292,,,,,,,,,0,2745,140,,,,,,,,,,,,,,,
4123744,1501040226302,,,,,,,,,0,2670,140,36.113472,-115.145988,0.0,9.203,2040.5,8,2,2.5,0,0.0,-1,0.0,0.0,0.0,0
4123754,1501040226312,,,,,,,,,0,2580,160,,,,,,,,,,,,,,,
4123764,1501040226322,3.44,,0.29,0.02,0.63,-8,-10,11,0,2625,160,,,,,,,,,,,,,,,
4123774,1501040226332,,,,,,,,,0,2640,160,,,,,,,,,,,,,,,
4123784,1501040226342,,,,,,,,,0,2565,160,,,,,,,,,,,,,,,
4123794,1501040226352,,,,,,,,,0,2445,160,,,,,,,,,,,,,,,
4123804,1501040226362,3.4,,0.41,-0.01,0.82,-6,-11,11,0,2415,160,,,,,,,,,,,,,,,
4123814,1501040226372,,,,,,,,,0,2460,150,,,,,,,,,,,,,,,
4123824,1501040226382,,,,,,,,,0,2415,150,,,,,,,,,,,,,,,
4123834,1501040226392,,,,,,,,,0,2415,150,,,,,,,,,,,,,,,
4123844,1501040226402,3.47,,0.49,-0.04,0.74,-5,-14,9,0,2265,150,36.113472,-115.145988,0.0,9.203,2040.5,8,2,2.5,0,0.0,-1,0.0,0.0,0.0,0
4123854,1501040226412,,,,,,,,,0,2205,150,,,,,,,,,,,,,,,
4123864,1501040226422,,,,,,,,,0,2265,150,,,,,,,,,,,,,,,
4123874,1501040226432,,,,,,,,,0,2310,150,,,,,,,,,,,,,,,
4123884,1501040226442,3.36,,0.48,-0.01,0.66,-4,-12,8,0,2175,150,,,,,,,,,,,,,,,
4123894,1501040226452,,,,,,,,,0,2145,130,,,,,,,,,,,,,,,
4123904,1501040226462,,,,,,,,,0,2055,130,,,,,,,,,,,,,,,
4123914,1501040226472,,,,,,,,,0,1965,130,,,,,,,,,,,,,,,
4123924,1501040226482,3.47,,0.52,0.02,0.66,-4,-11,8,0,1890,130,,,,,,,,,,,,,,,
4123934,1501040226492,,,,,,,,,0,1815,130,,,,,,,,,,,,,,,
4123944,1501040226500,,,,,,,,,0,1755,130,36.113472,-115.145988,0.0,9.203,2040.5,8,2,2.5,0,0.0,-1,0.0,0.0,0.0,0
4123954,1501040226510,,,,,,,,,0,1680,130,,,,,,,,,,,,,,,
4123964,1501040226520,3.42,,0.54,0.03,0.66,-2,-9,7,0,1650,130,,,,,,,,,,,,,,,
4123974,1501040226530,,,,,,,,,0,1545,130,,,,,,,,,,,,,,,
4123984,1501040226540,,,,,,,,,0,1485,130,,,,,,,,,,,,,,,
4123994,1501040226550,,,,,,,,,0,1455,460,,,,,,,,,,,,,,,
4124004,1501040226560,3.4,,0.48,0.01,0.66,-2,-4,6,0,1395,460,,,,,,,,,,,,,,,
4124014,1501040226570,,,,,,,,,0,1380,460,,,,,,,,,,,,,,,
4124024,1501040226580,,,,,,,,,0,1305,460,,,,,,,,,,,,,,,
4124034,1501040226592,,,,,,,,,0,1305,460,,,,,,,,,,,,,,,
4124044,1501040226602,3.39,4.5,0.36,0.01,0.67,-2,0,5,0,1290,460,36.113468,-115.145996,1.29,9.203,2030.3,8,2,2.5,0,0.0,-1,0.0,0.0,0.0,0
4124054,1501040226612,,,,,,,,,0,1290,460,,,,,,,,,,,,,,,
4124064,1501040226622,,,,,,,,,0,1245,460,,,,,,,,,,,,,,,
4124074,1501040226632,,,,,,,,,0,1245,460,,,,,,,,,,,,,,,
4124084,1501040226642,3.36,,0.28,-0.01,0.73,-1,6,3,0,1215,460,,,,,,,,,,,,,,,
4124094,1501040226652,,,,,,,,,0,1335,460,,,,,,,,,,,,,,,
4124104,1501040226662,,,,,,,,,0,1395,460,,,,,,,,,,,,,,,
4124114,1501040226672,,,,,,,,,0,1395,460,,,,,,,,,,,,,,,
4124124,1501040226682,3.32,,0.24,-0.01,0.79,-0,11,3,0,1395,460,,,,,,,,,,,,,,,
4124134,1501040226692,,,,,,,,,0,1395,0,,,,,,,,,,,,,,,
4124144,1501040226702,,,,,,,,,0,1395,180,36.113468,-115.145988,2.74,9.203,2030.0,8,2,2.5,0,0.0,-1,0.0,0.0,0.0,0
4124154,1501040226712,,,,,,,,,0,1365,180,,,,,,,,,,,,,,,
4124164,1501040226722,3.4,,0.19,-0.05,0.82,0,13,3,0,1350,180,,,,,,,,,,,,,,,
4124174,1501040226732,,,,,,,,,0,1320,180,,,,,,,,,,,,,,,
4124184,1501040226742,,,,,,,,,0,1500,180,,,,,,,,,,,,,,,
4124194,1501040226752,,,,,,,,,0,1590,180,,,,,,,,,,,,,,,
4124204,1501040226762,3.37,,0.16,-0.04,0.89,1,14,2,0,1575,180,,,,,,,,,,,,,,,
4124214,1501040226772,,,,,,,,,0,1590,180,,,,,,,,,,,,,,,
4124224,1501040226782,,,,,,,,,0,1590,180,,,,,,,,,,,,,,,
4124234,1501040226791,,,,,,,,,0,1560,180,,,,,,,,,,,,,,,
4124244,1501040226801,3.29,,0.13,0.0,1.03,2,14,3,0,1515,180,36.113468,-115.145988,3.63,9.203,2029.5,8,2,2.5,0,0.0,-1,0.0,0.0,0.0,0
4124254,1501040226811,,,,,,,,,0,1665,180,,,,,,,,,,,,,,,
4124264,1501040226821,,,,,,,,,0,1695,270,,,,,,,,,,,,,,,
4124274,1501040226831,,,,,,,,,0,1680,270,,,,,,,,,,,,,,,
4124284,1501040226841,3.37,,0.2,0.08,1.14,2,10,5,0,1680,270,,,,,,,,,,,,,,,
4124294,1501040226851,,,,,,,,,0,1680,270,,,,,,,,,,,,,,,
4124304,1501040226861,,,,,,,,,0,1620,270,,,,,,,,,,,,,,,
4124314,1501040226871,,,,,,,,,0,1605,270,,,,,,,,,,,,,,,
4124324,1501040226881,3.36,,0.21,0.07,1.08,4,5,6,0,1590,270,,,,,,,,,,,,,,,
4124334,1501040226891,,,,,,,,,0,1710,270,,,,,,,,,,,,,,,
4124344,1501040226901,,,,,,,,,0,1695,270,36.113464,-115.145988,4.67,9.203,2029.5,8,2,2.5,0,0.0,-1,0.0,0.0,0.0,0
4124354,1501040226911,,,,,,,,,0,1695,270,,,,,,,,,,,,,,,
4124364,1501040226921,3.31,,0.17,0.07,1.05,6,3,7,0,1695,270,,,,,,,,,,,,,,,
4124374,1501040226931,,,,,,,,,0,1635,320,,,,,,,,,,,,,,,
4124384,1501040226941,,,,,,,,,0,1620,320,,,,,,,,,,,,,,,
4124394,1501040226951,,,,,,,,,0,1605,320,,,,,,,,,,,,,,,
4124404,1501040226961,3.36,,0.13,0.07,1.03,8,2,6,0,1695,320,,,,,,,,,,,,,,,
4124414,1501040226971,,,,,,,,,0,1710,320,,,,,,,,,,,,,,,
4124424,1501040226981,,,,,,,,,0,1680,320,,,,,,,,,,,,,,,
4124434,1501040226991,,,,,,,,,0,1680,320,,,,,,,,,,,,,,,
4124444,1501040226995,3.36,,0.12,0.07,1.04,10,0,5,0,1620,320,36.113464,-115.145988,4.98,9.203,2029.4,8,2,2.5,0,0.0,-1,0.0,0.0,0.0,0
4124454,1501040227005,,,,,,,,,0,1605,320,,,,,,,,,,,,,,,
4124464,1501040227015,,,,,,,,,0,1590,320,,,,,,,,,,,,,,,
4124474,1501040227025,,,,,,,,,0,1680,0,,,,,,,,,,,,,,,
4124484,1501040227035,3.33,,0.09,0.08,1.01,12,-0,7,0,1710,0,,,,,,,,,,,,,,,
4124494,1501040227045,,,,,,,,,0,1680,340,,,,,,,,,,,,,,,
4124504,1501040227055,,,,,,,,,0,1695,340,,,,,,,,,,,,,,,
4124514,1501040227065,,,,,,,,,0,1650,340,,,,,,,,,,,,,,,
4124524,1501040227075,3.35,,0.03,0.05,0.97,14,-1,7,0,1635,340,,,,,,,,,,,,,,,
4124534,1501040227091,,,,,,,,,0,1635,340,,,,,,,,,,,,,,,
4124544,1501040227101,,,,,,,,,0,1710,340,36.113464,-115.145988,5.18,9.203,2029.2,8,2,2.5,0,0.0,-1,0.0,0.0,0.0,0
4124554,1501040227111,,,,,,,,,0,1740,340,,,,,,,,,,,,,,,
4124564,1501040227121,3.36,,0.0,0.09,0.97,15,-1,7,0,1725,340,,,,,,,,,,,,,,,
4124574,1501040227131,,,,,,,,,0,1725,340,,,,,,,,,,,,,,,
4124584,1501040227141,,,,,,,,,0,1680,340,,,,,,,,,,,,,,,
4124594,1501040227151,,,,,,,,,0,1665,340,,,,,,,,,,,,,,,
4124604,1501040227161,3.36,,-0.02,0.12,1.01,17,-1,8,0,1665,380,,,,,,,,,,,,,,,
4124614,1501040227171,,,,,,,,,0,1740,380,,,,,,,,,,,,,,,
4124624,1501040227181,,,,,,,,,0,1755,380,,,,,,,,,,,,,,,
4124634,1501040227193,,,,,,,,,0,1725,380,,,,,,,,,,,,,,,
4124644,1501040227203,3.38,,0.0,0.1,1.01,19,-2,7,0,1725,380,36.113464,-115.145988,5.63,9.203,2029.4,8,2,2.5,0,0.0,-1,0.0,0.0,0.0,0
4124654,1501040227213,,,,,,,,,0,1695,380,,,,,,,,,,,,,,,
4124664,1501040227223,,,,,,,,,0,1665,380,,,,,,,,,,,,,,,
4124674,1501040227233,,,,,,,,,0,1680,380,,,,,,,,,,,,,,,
4124684,1501040227243,3.37,,-0.02,0.08,0.99,20,-2,6,0,1740,380,,,,,,,,,,,,,,,
4124694,1501040227253,,,,,,,,,0,1740,380,,,,,,,,,,,,,,,
4124704,1501040227263,,,,,,,,,0,1725,380,,,,,,,,,,,,,,,
4124714,1501040227273,,,,,,,,,0,1725,400,,,,,,,,,,,,,,,
4124724,1501040227283,3.31,,-0.04,0.09,0.98,21,-3,5,0,1680,400,,,,,,,,,,,,,,,
4124734,1501040227293,,,,,,,,,0,1665,400,,,,,,,,,,,,,,,
4124744,1501040227303,,,,,,,,,0,1665,400,36.113464,-115.145973,5.71,9.204,2029.3,8,2,2.5,0,0.0,-1,0.0,0.0,0.0,0
4124754,1501040227313,,,,,,,,,0,1725,400,,,,,,,,,,,,,,,
4124764,1501040227323,3.37,,-0.04,0.11,0.98,22,-3,5,0,1740,400,,,,,,,,,,,,,,,
4124774,1501040227333,,,,,,,,,0,1710,400,,,,,,,,,,,,,,,
4124784,1501040227343,,,,,,,,,0,1710,400,,,,,,,,,,,,,,,
4124794,1501040227353,,,,,,,,,0,1665,400,,,,,,,,,,,,,,,
4124804,1501040227363,3.32,,-0.07,0.08,0.93,23,-3,4,0,1650,400,,,,,,,,,,,,,,,
4124814,1501040227373,,,,,,,,,0,1620,0,,,,,,,,,,,,,,,
4124824,1501040227383,,,,,,,,,0,1785,390,,,,,,,,,,,,,,,
4124834,1501040227393,,,,,,,,,0,1830,390,,,,,,,,,,,,,,,
4124844,1501040227399,3.37,,-0.1,0.07,0.88,24,-4,3,0,1785,390,36.113464,-115.145973,5.73,9.204,2029.3,8,2,2.5,0,0.0,-1,0.0,0.0,0.0,0
4124854,1501040227409,,,,,,,,,0,1800,390,,,,,,,,,,,,,,,
4124864,1501040227419,,,,,,,,,0,1755,390,,,,,,,,,,,,,,,
4124874,1501040227429,,,,,,,,,0,1740,390,,,,,,,,,,,,,,,
4124884,1501040227439,3.36,,-0.08,0.11,0.94,26,-4,4,0,1710,390,,,,,,,,,,,,,,,
4124894,1501040227449,,,,,,,,,0,1935,390,,,,,,,,,,,,,,,
4124904,1501040227459,,,,,,,,,0,1905,390,,,,,,,,,,,,,,,
4124914,1501040227469,,,,,,,,,0,1920,390,,,,,,,,,,,,,,,
4124924,1501040227479,3.32,,-0.06,0.1,0.97,27,-4,3,0,1905,390,,,,,,,,,,,,,,,
4124934,1501040227493,,,,,,,,,0,1830,550,,,,,,,,,,,,,,,
4124944,1501040227503,,,,,,,,,0,1800,550,36.113461,-115.145973,5.78,9.204,2029.5,8,2,2.5,0,0.0,-1,0.0,0.0,0.0,0
4124954,1501040227513,,,,,,,,,0,1950,550,,,,,,,,,,,,,,,
4124964,1501040227523,3.34,,-0.02,0.13,1.16,27,-4,2,0,2010,550,,,,,,,,,,,,,,,
4124974,1501040227533,,,,,,,,,0,1980,550,,,,,,,,,,,,,,,
4124984,1501040227543,,,,,,,,,0,1965,550,,,,,,,,,,,,,,,
4124994,1501040227553,,,,,,,,,0,1920,550,,,,,,,,,,,,,,,
4125004,1501040227563,3.37,,-0.01,0.14,1.21,28,-4,3,0,1845,550,,,,,,,,,,,,,,,
4125014,1501040227573,,,,,,,,,0,2010,550,,,,,,,,,,,,,,,
4125024,1501040227583,,,,,,,,,0,2055,550,,,,,,,,,,,,,,,
4125034,1501040227593,,,,,,,,,0,2010,690,,,,,,,,,,,,,,,
4125044,1501040227603,3.39,4.47,0.01,0.21,1.23,28,-6,1,0,2010,690,36.113461,-115.145973,5.6,9.204,2029.7,8,2,2.5,0,0.0,-1,0.0,0.0,0.0,0
4125054,1501040227613,,,,,,,,,0,1980,690,,,,,,,,,,,,,,,
4125064,1501040227623,,,,,,,,,0,1890,690,,,,,,,,,,,,,,,
4125074,1501040227633,,,,,,,,,0,2055,690,,,,,,,,,,,,,,,
4125084,1501040227643,3.34,,-0.0,0.23,1.29,30,-4,-1,0,2100,690,,,,,,,,,,,,,,,
4125094,1501040227653,,,,,,,,,0,2070,690,,,,,,,,,,,,,,,
4125104,1501040227663,,,,,,,,,0,2070,690,,,,,,,,,,,,,,,
4125114,1501040227673,,,,,,,,,0,2025,690,,,,,,,,,,,,,,,
4125124,1501040227683,3.35,,-0.01,0.22,1.31,31,-5,-1,0,1950,860,,,,,,,,,,,,,,,
4125134,1501040227693,,,,,,,,,0,2100,860,,,,,,,,,,,,,,,
4125144,1501040227703,,,,,,,,,0,2115,860,36.113457,-115.145973,5.83,9.204,2030.2,8,2,2.5,0,0.0,-1,0.0,0.0,0.0,0
4125154,1501040227713,,,,,,,,,0,2115,860,,,,,,,,,,,,,,,
4125164,1501040227723,3.37,,0.02,0.29,1.31,31,-5,-0,0,2100,860,,,,,,,,,,,,,,,
4125174,1501040227733,,,,,,,,,0,2025,860,,,,,,,,,,,,,,,
4125184,1501040227743,,,,,,,,,0,1980,860,,,,,,,,,,,,,,,
4125194,1501040227753,,,,,,,,,0,2175,860,,,,,,,,,,,,,,,
4125204,1501040227763,3.31,,-0.01,0.32,1.25,32,-4,0,0,2160,860,,,,,,,,,,,,,,,
4125214,1501040227773,,,,,,,,,0,2160,860,,,,,,,,,,,,,,,
4125224,1501040227783,,,,,,,,,0,2115,1640,,,,,,,,,,,,,,,
4125234,1501040227792,,,,,,,,,0,2085,1640,,,,,,,,,,,,,,,
4125244,1501040227802,3.4,,0.04,0.35,1.2,32,-7,2,0,2190,1640,36.113457,-115.145958,6.36,9.204,2030.4,8,2,2.5,0,0.0,-1,0.0,0.0,0.0,0
4125254,1501040227812,,,,,,,,,0,2235,1640,,,,,,,,,,,,,,,
4125264,1501040227822,,,,,,,,,0,2205,1640,,,,,,,,,,,,,,,
4125274,1501040227832,,,,,,,,,0,2205,1640,,,,,,,,,,,,,,,
4125284,1501040227842,3.36,,0.03,0.28,1.11,34,-6,3,0,2130,1640,,,,,,,,,,,,,,,
4125294,1501040227852,,,,,,,,,0,2100,1640,,,,,,,,,,,,,,,
4125304,1501040227862,,,,,,,,,0,2280,4290,,,,,,,,,,,,,,,
4125314,1501040227872,,,,,,,,,0,2265,4290,,,,,,,,,,,,,,,
4125324,1501040227882,3.39,,0.05,0.2,1.01,34,-10,3,0,2265,4290,,,,,,,,,,,,,,,
4125334,1501040227892,,,,,,,,,0,2205,4290,,,,,,,,,,,,,,,
4125344,1501040227902,,,,,,,,,0,2160,4290,36.113453,-115.145958,6.41,9.205,2030.5,8,2,2.5,0,0.0,-1,0.0,0.0,0.0,0
4125354,1501040227912,,,,,,,,,0,2295,4290,,,,,,,,,,,,,,,
4125364,1501040227922,3.32,,0.02,0.21,1.08,35,-6,3,0,2310,4290,,,,,,,,,,,,,,,
4125374,1501040227932,,,,,,,,,0,2310,4290,,,,,,,,,,,,,,,
4125384,1501040227942,,,,,,,,,0,2265,4290,,,,,,,,,,,,,,,
4125394,1501040227952,,,,,,,,,0,2265,120,,,,,,,,,,,,,,,
4125404,1501040227962,3.38,,0.1,0.23,1.06,35,-8,4,0,2355,120,,,,,,,,,,,,,,,
4125414,1501040227972,,,,,,,,,0,2370,120,,,,,,,,,,,,,,,
4125424,1501040227982,,,,,,,,,0,2325,120,,,,,,,,,,,,,,,
4125434,1501040227992,,,,,,,,,0,2295,120,,,,,,,,,,,,,,,
4125444,1501040227994,3.4,,0.04,0.23,1.05,35,-4,6,0,2265,120,36.113449,-115.145958,6.63,9.205,2030.5,8,2,2.5,0,0.0,-1,0.0,0.0,0.0,0
4125454,1501040228004,,,,,,,,,0,2370,120,,,,,,,,,,,,,,,
4125464,1501040228014,,,,,,,,,0,2400,130,,,,,,,,,,,,,,,
4125474,1501040228024,,,,,,,,,0,2385,130,,,,,,,,,,,,,,,
4125484,1501040228034,3.41,,0.06,0.19,1.07,36,-9,4,0,2385,130,,,,,,,,,,,,,,,
4125494,1501040228044,,,,,,,,,0,2295,130,,,,,,,,,,,,,,,
4125504,1501040228054,,,,,,,,,0,2370,130,,,,,,,,,,,,,,,
4125514,1501040228064,,,,,,,,,0,2385,130,,,,,,,,,,,,,,,
4125524,1501040228074,3.37,,0.03,0.24,1.03,37,-6,6,0,2355,130,,,,,,,,,,,,,,,
4125534,1501040228092,,,,,,,,,0,2355,130,,,,,,,,,,,,,,,
4125544,1501040228102,,,,,,,,,0,2280,130,36.113449,-115.145958,6.48,9.205,2030.9,8,2,2.5,0,0.0,-1,0.0,0.0,0.0,0
4125554,1501040228112,,,,,,,,,0,2250,130,,,,,,,,,,,,,,,
4125564,1501040228122,3.42,,0.05,0.25,1.12,39,-8,7,0,2370,130,,,,,,,,,,,,,,,
4125574,1501040228132,,,,,,,,,0,2325,130,,,,,,,,,,,,,,,
4125584,1501040228142,,,,,,,,,0,2340,130,,,,,,,,,,,,,,,
4125594,1501040228152,,,,,,,,,0,2280,130,,,,,,,,,,,,,,,
4125604,1501040228162,3.38,,0.04,0.24,1.13,40,-8,6,0,2250,130,,,,,,,,,,,,,,,
4125614,1501040228172,,,,,,,,,0,2385,130,,,,,,,,,,,,,,,
4125624,1501040228182,,,,,,,,,0,2340,130,,,,,,,,,,,,,,,
4125634,1501040228192,,,,,,,,,0,2340,130,,,,,,,,,,,,,,,
4125644,1501040228202,3.33,,0.04,0.33,1.29,40,-6,6,0,2280,130,36.113445,-115.14595,6.64,9.205,2031.1,8,2,2.5,0,0.0,-1,0.0,0.0,0.0,0
4125654,1501040228212,,,,,,,,,0,2235,130,,,,,,,,,,,,,,,
4125664,1501040228222,,,,,,,,,0,2355,130,,,,,,,,,,,,,,,
4125674,1501040228232,,,,,,,,,0,2355,130,,,,,,,,,,,,,,,
4125684,1501040228242,3.38,,0.02,0.33,1.14,40,-8,7,0,2355,130,,,,,,,,,,,,,,,
4125694,1501040228252,,,,,,,,,0,2310,130,,,,,,,,,,,,,,,
4125704,1501040228262,,,,,,,,,0,2265,130,,,,,,,,,,,,,,,
4125714,1501040228272,,,,,,,,,0,2370,130,,,,,,,,,,,,,,,
4125724,1501040228282,3.26,,0.03,0.24,1.17,41,-6,8,0,2355,130,,,,,,,,,,,,,,,
4125734,1501040228292,,,,,,,,,0,2370,130,,,,,,,,,,,,,,,
4125744,1501040228302,,,,,,,,,0,2310,130,36.113445,-115.14595,7.02,9.205,2031.4,8,2,2.5,0,0.0,-1,0.0,0.0,0.0,0
4125754,1501040228312,,,,,,,,,0,2295,130,,,,,,,,,,,,,,,
4125764,1501040228322,3.45,,0.04,0.22,1.07,41,-7,11,0,2370,130,,,,,,,,,,,,,,,
4125774,1501040228332,,,,,,,,,0,2355,130,,,,,,,,,,,,,,,
4125784,1501040228342,,,,,,,,,0,2355,130,,,,,,,,,,,,,,,
4125794,1501040228352,,,,,,,,,0,2295,130,,,,,,,,,,,,,,,
4125804,1501040228362,3.39,,-0.06,0.18,1.03,43,-2,13,0,2280,130,,,,,,,,,,,,,,,
4125814,1501040228372,,,,,,,,,0,2385,130,,,,,,,,,,,,,,,
4125824,1501040228382,,,,,,,,,0,2415,130,,,,,,,,,,,,,,,
4125834,1501040228392,,,,,,,,,0,2400,140,,,,,,,,,,,,,,,
4125844,1501040228402,3.38,,0.02,0.22,1.01,44,-6,12,0,2355,140,36.113441,-115.14595,7.51,9.206,2031.8,8,2,2.5,0,0.0,-1,0.0,0.0,0.0,0
4125854,1501040228412,,,,,,,,,0,2310,140,,,,,,,,,,,,,,,
4125864,1501040228422,,,,,,,,,0,2400,140,,,,,,,,,,,,,,,
4125874,1501040228432,,,,,,,,,0,2400,140,,,,,,,,,,,,,,,
4125884,1501040228442,3.39,,-0.02,0.2,0.85,44,-4,15,0,2370,140,,,,,,,,,,,,,,,
4125894,1501040228452,,,,,,,,,0,2370,140,,,,,,,,,,,,,,,
4125904,1501040228462,,,,,,,,,0,2310,140,,,,,,,,,,,,,,,
4125914,1501040228472,,,,,,,,,0,2415,140,,,,,,,,,,,,,,,
4125924,1501040228482,3.38,,0.01,0.27,0.95,44,-4,12,0,2430,140,,,,,,,,,,,,,,,
4125934,1501040228492,,,,,,,,,0,2385,140,,,,,,,,,,,,,,,
4125944,1501040228502,,,,,,,,,0,2370,140,36.113441,-115.14595,7.62,9.206,2031.9,8,2,2.5,0,0.0,-1,0.0,0.0,0.0,0
4125954,1501040228512,,,,,,,,,0,2295,140,,,,,,,,,,,,,,,
4125964,1501040228522,3.39,,-0.01,0.3,0.9,44,-8,11,0,2280,140,,,,,,,,,,,,,,,
4125974,1501040228532,,,,,,,,,0,2400,140,,,,,,,,,,,,,,,
4125984,1501040228542,,,,,,,,,0,2385,140,,,,,,,,,,,,,,,
4125994,1501040228552,,,,,,,,,0,2385,140,,,,,,,,,,,,,,,
4126004,1501040228562,3.29,,-0.09,0.24,0.99,45,-3,12,0,2295,140,,,,,,,,,,,,,,,
4126014,1501040228572,,,,,,,,,0,2265,140,,,,,,,,,,,,,,,
4126024,1501040228582,,,,,,,,,0,2400,140,,,,,,,,,,,,,,,
4126034,1501040228592,,,,,,,,,0,2340,140,,,,,,,,,,,,,,,
4126044,1501040228602,3.42,4.46,-0.05,0.19,0.9,44,-8,11,0,2355,140,36.113438,-115.14595,7.53,9.206,2031.6,8,2,2.5,0,0.0,-1,0.0,0.0,0.0,0
4126054,1501040228612,,,,,,,,,0,2295,140,,,,,,,,,,,,,,,
4126064,1501040228622,,,,,,,,,0,2250,140,,,,,,,,,,,,,,,
4126074,1501040228632,,,,,,,,,0,2385,140,,,,,,,,,,,,,,,
4126084,1501040228642,3.37,,-0.08,0.17,0.94,45,-4,10,0,2355,140,,,,,,,,,,,,,,,
4126094,1501040228652,,,,,,,,,0,2355,140,,,,,,,,,,,,,,,
4126104,1501040228662,,,,,,,,,0,2295,140,,,,,,,,,,,,,,,
4126114,1501040228672,,,,,,,,,0,2250,140,,,,,,,,,,,,,,,
4126124,1501040228682,3.43,,-0.03,0.31,1.0,44,-5,10,0,2370,140,,,,,,,,,,,,,,,
4126134,1501040228692,,,,,,,,,0,2370,140,,,,,,,,,,,,,,,
4126144,1501040228702,,,,,,,,,0,2370,140,36.113434,-115.14595,7.5,9.206,2031.8,8,2,2.5,0,0.0,-1,0.0,0.0,0.0,0
4126154,1501040228712,,,,,,,,,0,2310,140,,,,,,,,,,,,,,,
4126164,1501040228722,3.43,,-0.04,0.41,0.95,45,-4,11,0,2250,140,,,,,,,,,,,,,,,
4126174,1501040228732,,,,,,,,,0,2370,140,,,,,,,,,,,,,,,
4126184,1501040228742,,,,,,,,,0,2370,140,,,,,,,,,,,,,,,
4126194,1501040228752,,,,,,,,,0,2370,140,,,,,,,,,,,,,,,
4126204,1501040228762,3.38,,-0.02,0.42,1.08,46,-3,11,0,2310,140,,,,,,,,,,,,,,,
4126214,1501040228772,,,,,,,,,0,2265,140,,,,,,,,,,,,,,,
4126224,1501040228782,,,,,,,,,0,2385,140,,,,,,,,,,,,,,,
4126234,1501040228791,,,,,,,,,0,2370,140,,,,,,,,,,,,,,,
4126244,1501040228801,3.38,,0.03,0.46,0.91,46,-6,12,0,2370,140,36.11343,-115.14595,8.0,9.206,2031.5,8,2,2.5,0,0.0,-1,0.0,0.0,0.0,0
4126254,1501040228811,,,,,,,,,0,2325,150,,,,,,,,,,,,,,,
4126264,1501040228821,,,,,,,,,0,2295,150,,,,,,,,,,,,,,,
4126274,1501040228831,,,,,,,,,0,2385,150,,,,,,,,,,,,,,,
4126284,1501040228841,3.34,,0.02,0.46,1.01,46,-3,12,0,2370,150,,,,,,,,,,,,,,,
4126294,1501040228851,,,,,,,,,0,2385,150,,,,,,,,,,,,,,,
4126304,1501040228861,,,,,,,,,0,2325,150,,,,,,,,,,,,,,,
4126314,1501040228871,,,,,,,,,0,2310,150,,,,,,,,,,,,,,,
4126324,1501040228881,3.4,,0.06,0.45,0.98,46,-5,9,0,2400,150,,,,,,,,,,,,,,,
4126334,1501040228893,,,,,,,,,0,2415,150,,,,,,,,,,,,,,,
4126344,1501040228903,,,,,,,,,0,2400,150,36.113426,-115.14595,8.15,9.207,2031.5,8,2,2.5,0,0.0,-1,0.0,0.0,0.0,0
4126354,1501040228913,,,,,,,,,0,2325,150,,,,,,,,,,,,,,,
4126364,1501040228923,3.37,,-0.01,0.42,0.98,46,-1,9,0,2310,150,,,,,,,,,,,,,,,
4126374,1501040228933,,,,,,,,,0,2385,150,,,,,,,,,,,,,,,
4126384,1501040228943,,,,,,,,,0,2415,150,,,,,,,,,,,,,,,
4126394,1501040228953,,,,,,,,,0,2385,150,,,,,,,,,,,,,,,
4126404,1501040228963,3.4,,0.05,0.53,1.0,45,-4,6,0,2385,150,,,,,,,,,,,,,,,
4126414,1501040228973,,,,,,,,,0,2310,150,,,,,,,,,,,,,,,
4126424,1501040228983,,,,,,,,,0,2385,150,,,,,,,,,,,,,,,
4126434,1501040228993,,,,,,,,,0,2430,150,,,,,,,,,,,,,,,
4126444,1501040228995,3.41,,-0.02,0.5,0.95,45,-2,7,0,2385,150,36.113426,-115.145935,8.39,9.207,2031.6,8,2,2.5,0,0.0,-1,0.0,0.0,0.0,0
4126454,1501040229005,,,,,,,,,0,2370,150,,,,,,,,,,,,,,,
4126464,1501040229015,,,,,,,,,0,2310,150,,,,,,,,,,,,,,,
4126474,1501040229025,,,,,,,,,0,2265,150,,,,,,,,,,,,,,,
4126484,1501040229035,3.42,,-0.01,0.43,1.02,45,-1,6,0,2400,150,,,,,,,,,,,,,,,
4126494,1501040229045,,,,,,,,,0,2385,150,,,,,,,,,,,,,,,
4126504,1501040229055,,,,,,,,,0,2385,150,,,,,,,,,,,,,,,
4126514,1501040229065,,,,,,,,,0,2310,150,,,,,,,,,,,,,,,
4126524,1501040229075,3.42,,-0.01,0.4,0.94,45,-6,5,0,2280,150,,,,,,,,,,,,,,,
4126534,1501040229093,,,,,,,,,0,2400,150,,,,,,,,,,,,,,,
4126544,1501040229103,,,,,,,,,0,2370,150,36.113422,-115.145935,8.89,9.207,2031.4,8,2,2.5,0,0.0,-1,0.0,0.0,0.0,0
4126554,1501040229113,,,,,,,,,0,2385,150,,,,,,,,,,,,,,,
4126564,1501040229123,3.28,,0.0,0.25,0.97,44,-3,4,0,2310,150,,,,,,,,,,,,,,,
4126574,1501040229133,,,,,,,,,0,2280,150,,,,,,,,,,,,,,,
4126584,1501040229143,,,,,,,,,0,2400,150,,,,,,,,,,,,,,,
4126594,1501040229153,,,,,,,,,0,2370,150,,,,,,,,,,,,,,,
4126604,1501040229163,3.41,,0.04,0.28,0.89,42,-8,1,0,2370,150,,,,,,,,,,,,,,,
4126614,1501040229173,,,,,,,,,0,2295,150,,,,,,,,,,,,,,,
4126624,1501040229183,,,,,,,,,0,2250,150,,,,,,,,,,,,,,,
4126634,1501040229191,,,,,,,,,0,2400,150,,,,,,,,,,,,,,,
4126644,1501040229201,3.33,,0.01,0.25,0.99,40,-4,2,0,2355,150,36.113415,-115.145935,9.51,9.207,2031.2,8,2,2.5,0,0.0,-1,0.0,0.0,0.0,0
4126654,1501040229211,,,,,,,,,0,2370,150,,,,,,,,,,,,,,,
4126664,1501040229221,,,,,,,,,0,2310,150,,,,,,,,,,,,,,,
4126674,1501040229231,,,,,,,,,0,2265,150,,,,,,,,,,,,,,,
4126684,1501040229241,3.4,,0.09,0.25,1.02,38,-8,4,0,2385,150,,,,,,,,,,,,,,,
4126694,1501040229251,,,,,,,,,0,2355,160,,,,,,,,,,,,,,,
4126704,1501040229261,,,,,,,,,0,2370,160,,,,,,,,,,,,,,,
4126714,1501040229271,,,,,,,,,0,2310,160,,,,,,,,,,,,,,,
4126724,1501040229281,3.44,,0.07,0.32,0.95,37,-6,3,0,2250,160,,,,,,,,,,,,,,,
4126734,1501040229291,,,,,,,,,0,2385,160,,,,,,,,,,,,,,,
4126744,1501040229301,,,,,,,,,0,2370,160,36.113411,-115.14595,10.17,9.208,2031.5,8,2,2.5,0,0.0,-1,0.0,0.0,0.0,0
4126754,1501040229311,,,,,,,,,0,2370,160,,,,,,,,,,,,,,,
4126764,1501040229321,3.43,,0.13,0.33,1.08,35,-6,3,0,2310,150,,,,,,,,,,,,,,,
4126774,1501040229331,,,,,,,,,0,2265,150,,,,,,,,,,,,,,,
4126784,1501040229341,,,,,,,,,0,2385,150,,,,,,,,,,,,,,,
4126794,1501040229351,,,,,,,,,0,2370,150,,,,,,,,,,,,,,,
4126804,1501040229361,3.41,,0.14,0.34,0.98,35,-8,5,0,2385,150,,,,,,,,,,,,,,,
4126814,1501040229371,,,,,,,,,0,2310,150,,,,,,,,,,,,,,,
4126824,1501040229381,,,,,,,,,0,2310,150,,,,,,,,,,,,,,,
4126834,1501040229391,,,,,,,,,0,2400,150,,,,,,,,,,,,,,,
4126844,1501040229401,3.31,,0.14,0.28,1.03,34,-7,5,0,2385,150,36.113403,-115.14595,10.22,9.208,2032.1,8,2,2.5,0,0.0,-1,0.0,0.0,0.0,0
4126854,1501040229411,,,,,,,,,0,2370,150,,,,,,,,,,,,,,,
4126864,1501040229421,,,,,,,,,0,2325,150,,,,,,,,,,,,,,,
4126874,1501040229431,,,,,,,,,0,2310,150,,,,,,,,,,,,,,,
4126884,1501040229441,3.38,,0.13,0.24,0.96,33,-10,2,0,2400,160,,,,,,,,,,,,,,,
4126894,1501040229451,,,,,,,,,0,2415,160,,,,,,,,,,,,,,,
4126904,1501040229461,,,,,,,,,0,2385,160,,,,,,,,,,,,,,,
4126914,1501040229471,,,,,,,,,0,2340,160,,,,,,,,,,,,,,,
4126924,1501040229481,3.34,,0.07,0.19,0.98,32,-6,2,0,2310,160,,,,,,,,,,,,,,,
4126934,1501040229491,,,,,,,,,0,2385,160,,,,,,,,,,,,,,,
4126944,1501040229501,,,,,,,,,0,2430,160,36.113403,-115.14595,10.08,9.208,2032.4,8,2,2.5,0,0.0,-1,0.0,0.0,0.0,0
4126954,1501040229511,,,,,,,,,0,2385,160,,,,,,,,,,,,,,,
4126964,1501040229521,3.4,,0.13,0.23,0.93,30,-7,2,0,2385,160,,,,,,,,,,,,,,,
4126974,1501040229531,,,,,,,,,0,2325,160,,,,,,,,,,,,,,,
4126984,1501040229541,,,,,,,,,0,2400,160,,,,,,,,,,,,,,,
4126994,1501040229551,,,,,,,,,0,2445,160,,,,,,,,,,,,,,,
4127004,1501040229561,3.42,,0.05,0.23,0.88,30,-5,4,0,2385,160,,,,,,,,,,,,,,,
4127014,1501040229571,,,,,,,,,0,2385,160,,,,,,,,,,,,,,,
