"Interval"|"ms"|0|0|1,"Utc"|"ms"|0|0|1,"Analog1"|""|0.0|5.0|25,"Battery"|"Volts"|0.0|20.0|1,"AccelX"|"G"|-3.0|3.0|25,"AccelY"|"G"|-3.0|3.0|25,"AccelZ"|"G"|-3.0|3.0|25,"Yaw"|"Deg/Sec"|-120|120|25,"Pitch"|"Deg/Sec"|-120|120|25,"Roll"|"Deg/Sec"|-120|120|25,"RPM"|""|0|10000|100,"EngineRPM"|""|0|10000|100,"AxleRpm"|""|0|10000|100,"Latitude"|"Degrees"|-180.0|180.0|10,"Longitude"|"Degrees"|-180.0|180.0|10,"Speed"|"mph"|0.0|150.0|10,"Distance"|"mi"|0.0|0.0|10,"Altitude"|"ft"|0.0|4000.0|10,"GPSSats"|""|0|20|10,"GPSQual"|""|0|5|10,"GPSDOP"|""|0.0|20.0|10,"LapCount"|""|0|0|10,"LapTime"|"Min"|0.0|0.0|10,"Sector"|""|0|0|10,"SectorTime"|"Min"|0.0|0.0|10,"PredTime"|"Min"|0.0|0.0|10,"ElapsedTime"|"Min"|0.0|0.0|10,"CurrentLap"|""|0|0|10
3366844,1501039469392,3.03,,0.01,-0.04,1.02,-4,-6,5,0,1680,0,36.113659,-115.145653,0.0,6.575,2050.5,9,2,1.9,0,0.0,-1,0.0,0.0,0.0,0
3366854,1501039469402,,,,,,,,,0,1665,0,,,,,,,,,,,,,,,
3366864,1501039469412,,,,,,,,,0,1665,0,,,,,,,,,,,,,,,
3366874,1501039469422,,,,,,,,,0,1710,0,,,,,,,,,,,,,,,
3366884,1501039469432,3.03,,-0.0,-0.06,1.01,-3,-6,5,0,1710,0,,,,,,,,,,,,,,,
3366894,1501039469442,,,,,,,,,0,1695,0,,,,,,,,,,,,,,,
3366904,1501039469452,,,,,,,,,0,1695,0,,,,,,,,,,,,,,,
3366914,1501039469462,,,,,,,,,0,1680,0,,,,,,,,,,,,,,,
3366924,1501039469472,3.05,,-0.02,-0.04,1.02,-3,-4,5,0,1680,0,,,,,,,,,,,,,,,
3366934,1501039469482,,,,,,,,,0,1665,0,,,,,,,,,,,,,,,
3366944,1501039469492,,,,,,,,,0,1710,0,36.113659,-115.145653,0.0,6.575,2050.5,9,2,1.9,0,0.0,-1,0.0,0.0,0.0,0
3366954,1501039469502,,,,,,,,,0,1710,0,,,,,,,,,,,,,,,
3366964,1501039469512,3.04,,-0.01,-0.02,1.02,-3,-4,5,0,1695,0,,,,,,,,,,,,,,,
3366974,1501039469522,,,,,,,,,0,1695,0,,,,,,,,,,,,,,,
3366984,1501039469532,,,,,,,,,0,1680,0,,,,,,,,,,,,,,,
3366994,1501039469542,,,,,,,,,0,1680,0,,,,,,,,,,,,,,,
3367004,1501039469552,3.05,,0.01,-0.02,1.0,-2,-7,4,0,1665,0,,,,,,,,,,,,,,,
3367014,1501039469562,,,,,,,,,0,1710,0,,,,,,,,,,,,,,,
3367024,1501039469572,,,,,,,,,0,1710,0,,,,,,,,,,,,,,,
3367034,1501039469582,,,,,,,,,0,1695,0,,,,,,,,,,,,,,,
3367044,1501039469592,3.05,4.5,0.01,-0.03,0.99,-2,-6,4,0,1695,0,36.113659,-115.145653,0.0,6.575,2050.5,9,2,1.9,0,0.0,-1,0.0,0.0,0.0,0
3367054,1501039469602,,,,,,,,,0,1680,0,,,,,,,,,,,,,,,
3367064,1501039469612,,,,,,,,,0,1680,0,,,,,,,,,,,,,,,
3367074,1501039469622,,,,,,,,,0,1665,0,,,,,,,,,,,,,,,
3367084,1501039469632,3.04,,-0.01,-0.02,1.01,-3,-3,4,0,1695,0,,,,,,,,,,,,,,,
3367094,1501039469642,,,,,,,,,0,1695,0,,,,,,,,,,,,,,,
3367104,1501039469652,,,,,,,,,0,1695,0,,,,,,,,,,,,,,,
3367114,1501039469662,,,,,,,,,0,1680,0,,,,,,,,,,,,,,,
3367124,1501039469672,3.04,,-0.02,-0.01,1.01,-2,-4,4,0,1665,0,,,,,,,,,,,,,,,
3367134,1501039469682,,,,,,,,,0,1650,0,,,,,,,,,,,,,,,
3367144,1501039469692,,,,,,,,,0,1650,0,36.113659,-115.145653,0.0,6.575,2050.5,9,2,1.9,0,0.0,-1,0.0,0.0,0.0,0
3367154,1501039469702,,,,,,,,,0,1680,0,,,,,,,,,,,,,,,
3367164,1501039469712,3.05,,-0.01,-0.03,1.0,-2,-5,4,0,1695,0,,,,,,,,,,,,,,,
3367174,1501039469722,,,,,,,,,0,1680,0,,,,,,,,,,,,,,,
3367184,1501039469732,,,,,,,,,0,1680,0,,,,,,,,,,,,,,,
3367194,1501039469742,,,,,,,,,0,1665,0,,,,,,,,,,,,,,,
3367204,1501039469752,3.04,,-0.02,-0.04,1.0,-1,-5,3,0,1650,0,,,,,,,,,,,,,,,
3367214,1501039469762,,,,,,,,,0,1650,0,,,,,,,,,,,,,,,
3367224,1501039469772,,,,,,,,,0,1680,0,,,,,,,,,,,,,,,
3367234,1501039469782,,,,,,,,,0,1695,0,,,,,,,,,,,,,,,
3367244,1501039469792,3.05,,-0.04,-0.03,1.01,-1,-3,3,0,1680,0,36.113659,-115.145653,0.0,6.575,2050.5,9,2,1.9,0,0.0,-1,0.0,0.0,0.0,0
3367254,1501039469802,,,,,,,,,0,1680,0,,,,,,,,,,,,,,,
3367264,1501039469812,,,,,,,,,0,1680,0,,,,,,,,,,,,,,,
3367274,1501039469822,,,,,,,,,0,1665,0,,,,,,,,,,,,,,,
3367284,1501039469832,3.06,,-0.06,-0.01,1.03,-2,-3,3,0,1650,0,,,,,,,,,,,,,,,
3367294,1501039469842,,,,,,,,,0,1680,0,,,,,,,,,,,,,,,
3367304,1501039469852,,,,,,,,,0,1695,0,,,,,,,,,,,,,,,
3367314,1501039469862,,,,,,,,,0,1680,0,,,,,,,,,,,,,,,
3367324,1501039469872,3.07,,-0.02,-0.01,1.01,-2,-5,3,0,1665,0,,,,,,,,,,,,,,,
3367334,1501039469882,,,,,,,,,0,1665,0,,,,,,,,,,,,,,,
3367344,1501039469894,,,,,,,,,0,1650,0,36.113659,-115.145653,0.0,6.575,2050.5,9,2,1.9,0,0.0,-1,0.0,0.0,0.0,0
3367354,1501039469904,,,,,,,,,0,1650,0,,,,,,,,,,,,,,,
3367364,1501039469914,3.02,,-0.01,-0.04,0.99,-1,-6,3,0,1680,0,,,,,,,,,,,,,,,
3367374,1501039469924,,,,,,,,,0,1680,0,,,,,,,,,,,,,,,
3367384,1501039469934,,,,,,,,,0,1695,0,,,,,,,,,,,,,,,
3367394,1501039469944,,,,,,,,,0,1680,0,,,,,,,,,,,,,,,
3367404,1501039469954,3.06,,-0.02,-0.03,0.98,-1,-4,3,0,1680,0,,,,,,,,,,,,,,,
3367414,1501039469964,,,,,,,,,0,1665,0,,,,,,,,,,,,,,,
3367424,1501039469974,,,,,,,,,0,1665,0,,,,,,,,,,,,,,,
3367434,1501039469984,,,,,,,,,0,1650,0,,,,,,,,,,,,,,,
3367444,1501039469994,3.01,,-0.03,-0.03,1.01,-1,-3,3,0,1680,0,36.113659,-115.145653,0.0,6.575,2050.5,9,2,1.9,0,0.0,-1,0.0,0.0,0.0,0
3367454,1501039469996,,,,,,,,,0,1665,0,,,,,,,,,,,,,,,
3367464,1501039470006,,,,,,,,,0,1665,0,,,,,,,,,,,,,,,
3367474,1501039470016,,,,,,,,,0,1650,0,,,,,,,,,,,,,,,
3367484,1501039470026,3.05,,-0.03,-0.04,1.01,-1,-5,2,0,1650,0,,,,,,,,,,,,,,,
3367494,1501039470036,,,,,,,,,0,1635,0,,,,,,,,,,,,,,,
3367504,1501039470046,,,,,,,,,0,1620,0,,,,,,,,,,,,,,,
3367514,1501039470056,,,,,,,,,0,1680,0,,,,,,,,,,,,,,,
3367524,1501039470066,3.05,,-0.02,-0.04,1.0,-1,-6,2,0,1680,0,,,,,,,,,,,,,,,
3367534,1501039470076,,,,,,,,,0,1665,0,,,,,,,,,,,,,,,
3367544,1501039470086,,,,,,,,,0,1665,0,36.113659,-115.145653,0.0,6.575,2050.5,9,2,1.9,0,0.0,-1,0.0,0.0,0.0,0
3367554,1501039470099,,,,,,,,,0,1650,0,,,,,,,,,,,,,,,
3367564,1501039470109,3.06,,-0.04,-0.04,1.01,-1,-4,3,0,1635,0,,,,,,,,,,,,,,,
3367574,1501039470119,,,,,,,,,0,1635,0,,,,,,,,,,,,,,,
3367584,1501039470129,,,,,,,,,0,1680,0,,,,,,,,,,,,,,,
3367594,1501039470139,,,,,,,,,0,1680,0,,,,,,,,,,,,,,,
3367604,1501039470149,3.06,,-0.05,-0.03,1.02,-1,-3,4,0,1680,0,,,,,,,,,,,,,,,
3367614,1501039470159,,,,,,,,,0,1665,0,,,,,,,,,,,,,,,
3367624,1501039470169,,,,,,,,,0,1665,0,,,,,,,,,,,,,,,
3367634,1501039470179,,,,,,,,,0,1650,0,,,,,,,,,,,,,,,
3367644,1501039470193,3.07,,-0.04,-0.01,1.01,-2,-4,4,0,1635,0,36.113659,-115.145653,0.0,6.575,2050.5,9,2,1.9,0,0.0,-1,0.0,0.0,0.0,0
3367654,1501039470203,,,,,,,,,0,1665,0,,,,,,,,,,,,,,,
3367664,1501039470213,,,,,,,,,0,1680,0,,,,,,,,,,,,,,,
3367674,1501039470223,,,,,,,,,0,1665,0,,,,,,,,,,,,,,,
3367684,1501039470233,3.07,,-0.01,-0.02,0.99,-2,-6,4,0,1650,0,,,,,,,,,,,,,,,
3367694,1501039470243,,,,,,,,,0,1650,0,,,,,,,,,,,,,,,
3367704,1501039470253,,,,,,,,,0,1635,0,,,,,,,,,,,,,,,
3367714,1501039470263,,,,,,,,,0,1635,0,,,,,,,,,,,,,,,
3367724,1501039470273,3.03,,0.0,-0.04,0.97,-1,-7,3,0,1665,0,,,,,,,,,,,,,,,
3367734,1501039470283,,,,,,,,,0,1665,0,,,,,,,,,,,,,,,
3367744,1501039470293,,,,,,,,,0,1665,0,36.113659,-115.145653,0.0,6.575,2050.5,9,2,1.9,0,0.0,-1,0.0,0.0,0.0,0
3367754,1501039470303,,,,,,,,,0,1650,0,,,,,,,,,,,,,,,
3367764,1501039470313,3.06,,-0.02,-0.04,1.0,-1,-5,4,0,1650,0,,,,,,,,,,,,,,,
3367774,1501039470323,,,,,,,,,0,1635,0,,,,,,,,,,,,,,,
3367784,1501039470333,,,,,,,,,0,1635,0,,,,,,,,,,,,,,,
3367794,1501039470343,,,,,,,,,0,1620,0,,,,,,,,,,,,,,,
3367804,1501039470353,3.06,,-0.02,-0.02,1.02,-1,-3,4,0,1665,0,,,,,,,,,,,,,,,
3367814,1501039470363,,,,,,,,,0,1650,0,,,,,,,,,,,,,,,
3367824,1501039470373,,,,,,,,,0,1650,0,,,,,,,,,,,,,,,
3367834,1501039470383,,,,,,,,,0,1650,0,,,,,,,,,,,,,,,
3367844,1501039470393,3.06,,-0.02,-0.04,1.03,-1,-4,3,0,1635,0,36.113659,-115.145653,0.0,6.575,2050.5,9,2,1.9,0,0.0,-1,0.0,0.0,0.0,0
3367854,1501039470403,,,,,,,,,0,1620,0,,,,,,,,,,,,,,,
3367864,1501039470413,,,,,,,,,0,1620,0,,,,,,,,,,,,,,,
3367874,1501039470423,,,,,,,,,0,1650,0,,,,,,,,,,,,,,,
3367884,1501039470433,3.07,,-0.0,-0.03,1.01,-1,-6,3,0,1665,0,,,,,,,,,,,,,,,
3367894,1501039470443,,,,,,,,,0,1665,0,,,,,,,,,,,,,,,
3367904,1501039470453,,,,,,,,,0,1650,0,,,,,,,,,,,,,,,
3367914,1501039470463,,,,,,,,,0,1650,0,,,,,,,,,,,,,,,
3367924,1501039470473,3.03,,-0.01,-0.03,1.01,-1,-6,3,0,1620,0,,,,,,,,,,,,,,,
3367934,1501039470483,,,,,,,,,0,1620,0,,,,,,,,,,,,,,,
3367944,1501039470493,,,,,,,,,0,1680,0,36.113659,-115.145653,0.0,6.575,2050.5,9,2,1.9,0,0.0,-1,0.0,0.0,0.0,0
3367954,1501039470503,,,,,,,,,0,1680,0,,,,,,,,,,,,,,,
3367964,1501039470513,3.07,,-0.03,-0.03,1.01,-1,-5,3,0,1680,0,,,,,,,,,,,,,,,
3367974,1501039470523,,,,,,,,,0,1665,0,,,,,,,,,,,,,,,
3367984,1501039470533,,,,,,,,,0,1665,0,,,,,,,,,,,,,,,
3367994,1501039470543,,,,,,,,,0,1650,0,,,,,,,,,,,,,,,
3368004,1501039470553,3.07,,-0.05,-0.02,1.02,-1,-3,3,0,1650,0,,,,,,,,,,,,,,,
3368014,1501039470563,,,,,,,,,0,1665,0,,,,,,,,,,,,,,,
3368024,1501039470573,,,,,,,,,0,1680,0,,,,,,,,,,,,,,,
3368034,1501039470583,,,,,,,,,0,1665,0,,,,,,,,,,,,,,,
3368044,1501039470593,3.08,4.49,-0.03,-0.02,1.02,-1,-5,3,0,1650,0,36.113659,-115.145653,0.0,6.575,2050.5,9,2,1.9,0,0.0,-1,0.0,0.0,0.0,0
3368054,1501039470603,,,,,,,,,0,1665,0,,,,,,,,,,,,,,,
3368064,1501039470613,,,,,,,,,0,1650,0,,,,,,,,,,,,,,,
3368074,1501039470623,,,,,,,,,0,1635,0,,,,,,,,,,,,,,,
3368084,1501039470633,3.07,,-0.01,-0.04,0.99,-2,-6,3,0,1635,0,,,,,,,,,,,,,,,
3368094,1501039470643,,,,,,,,,0,1680,0,,,,,,,,,,,,,,,
3368104,1501039470653,,,,,,,,,0,1680,0,,,,,,,,,,,,,,,
3368114,1501039470663,,,,,,,,,0,1665,0,,,,,,,,,,,,,,,
3368124,1501039470673,3.07,,-0.01,-0.03,0.98,-2,-5,3,0,1665,0,,,,,,,,,,,,,,,
3368134,1501039470683,,,,,,,,,0,1650,0,,,,,,,,,,,,,,,
3368144,1501039470693,,,,,,,,,0,1650,0,36.113659,-115.145653,0.0,6.575,2050.5,9,2,1.9,0,0.0,-1,0.0,0.0,0.0,0
3368154,1501039470703,,,,,,,,,0,1635,0,,,,,,,,,,,,,,,
3368164,1501039470713,3.07,,-0.03,-0.02,1.0,-2,-3,4,0,1665,0,,,,,,,,,,,,,,,
3368174,1501039470723,,,,,,,,,0,1695,0,,,,,,,,,,,,,,,
3368184,1501039470733,,,,,,,,,0,1665,0,,,,,,,,,,,,,,,
3368194,1501039470743,,,,,,,,,0,1665,0,,,,,,,,,,,,,,,
3368204,1501039470753,3.07,,-0.03,-0.03,1.0,-2,-3,3,0,1650,0,,,,,,,,,,,,,,,
3368214,1501039470763,,,,,,,,,0,1650,0,,,,,,,,,,,,,,,
3368224,1501039470773,,,,,,,,,0,1635,0,,,,,,,,,,,,,,,
3368234,1501039470783,,,,,,,,,0,1680,0,,,,,,,,,,,,,,,
3368244,1501039470793,3.07,,-0.02,-0.02,0.98,-1,-5,4,0,1695,0,36.113659,-115.145653,0.0,6.575,2050.5,9,2,1.9,0,0.0,-1,0.0,0.0,0.0,0
3368254,1501039470803,,,,,,,,,0,1680,0,,,,,,,,,,,,,,,
3368264,1501039470813,,,,,,,,,0,1680,0,,,,,,,,,,,,,,,
3368274,1501039470823,,,,,,,,,0,1665,0,,,,,,,,,,,,,,,
3368284,1501039470833,3.03,,-0.02,-0.03,0.98,-1,-6,3,0,1650,0,,,,,,,,,,,,,,,
3368294,1501039470843,,,,,,,,,0,1650,0,,,,,,,,,,,,,,,
3368304,1501039470853,,,,,,,,,0,1665,0,,,,,,,,,,,,,,,
3368314,1501039470863,,,,,,,,,0,1665,0,,,,,,,,,,,,,,,
3368324,1501039470873,3.08,,-0.04,-0.03,0.99,-1,-4,3,0,1665,0,,,,,,,,,,,,,,,
3368334,1501039470883,,,,,,,,,0,1650,0,,,,,,,,,,,,,,,
3368344,1501039470893,,,,,,,,,0,1650,0,36.113659,-115.145653,0.0,6.575,2050.5,9,2,1.9,0,0.0,-1,0.0,0.0,0.0,0
3368354,1501039470903,,,,,,,,,0,1635,0,,,,,,,,,,,,,,,
3368364,1501039470913,3.07,,-0.05,-0.02,1.03,-1,-3,2,0,1635,0,,,,,,,,,,,,,,,
3368374,1501039470923,,,,,,,,,0,1665,0,,,,,,,,,,,,,,,
3368384,1501039470933,,,,,,,,,0,1680,0,,,,,,,,,,,,,,,
3368394,1501039470943,,,,,,,,,0,1665,0,,,,,,,,,,,,,,,
3368404,1501039470953,3.08,,-0.03,-0.01,1.02,-1,-5,3,0,1665,0,,,,,,,,,,,,,,,
3368414,1501039470963,,,,,,,,,0,1665,0,,,,,,,,,,,,,,,
3368424,1501039470973,,,,,,,,,0,1650,0,,,,,,,,,,,,,,,
3368434,1501039470983,,,,,,,,,0,1650,0,,,,,,,,,,,,,,,
3368444,1501039470993,3.09,,-0.01,-0.03,0.99,-1,-7,3,0,1635,0,36.113659,-115.145653,0.0,6.575,2050.5,9,2,1.9,0,0.0,-1,0.0,0.0,0.0,0
3368454,1501039470997,,,,,,,,,0,1680,0,,,,,,,,,,,,,,,
3368464,1501039471007,,,,,,,,,0,1680,0,,,,,,,,,,,,,,,
3368474,1501039471017,,,,,,,,,0,1665,0,,,,,,,,,,,,,,,
3368484,1501039471027,3.07,,-0.01,-0.03,0.98,-1,-6,3,0,1665,0,,,,,,,,,,,,,,,
3368494,1501039471037,,,,,,,,,0,1650,0,,,,,,,,,,,,,,,
3368504,1501039471047,,,,,,,,,0,1650,0,,,,,,,,,,,,,,,
3368514,1501039471057,,,,,,,,,0,1635,0,,,,,,,,,,,,,,,
3368524,1501039471067,3.07,,-0.02,-0.02,1.0,-2,-3,4,0,1680,0,,,,,,,,,,,,,,,
3368534,1501039471077,,,,,,,,,0,1680,0,,,,,,,,,,,,,,,
3368544,1501039471092,,,,,,,,,0,1680,0,36.113659,-115.145653,0.0,6.575,2050.5,9,2,1.9,0,0.0,-1,0.0,0.0,0.0,0
3368554,1501039471102,,,,,,,,,0,1665,0,,,,,,,,,,,,,,,
3368564,1501039471112,3.06,,-0.04,-0.02,1.0,-1,-3,4,0,1650,0,,,,,,,,,,,,,,,
3368574,1501039471122,,,,,,,,,0,1650,0,,,,,,,,,,,,,,,
3368584,1501039471132,,,,,,,,,0,1635,0,,,,,,,,,,,,,,,
3368594,1501039471142,,,,,,,,,0,1665,0,,,,,,,,,,,,,,,
3368604,1501039471152,3.07,,-0.02,-0.02,0.99,-1,-5,4,0,1695,0,,,,,,,,,,,,,,,
3368614,1501039471162,,,,,,,,,0,1680,0,,,,,,,,,,,,,,,
3368624,1501039471172,,,,,,,,,0,1665,0,,,,,,,,,,,,,,,
3368634,1501039471182,,,,,,,,,0,1665,0,,,,,,,,,,,,,,,
3368644,1501039471192,3.02,,-0.02,-0.03,0.99,-1,-6,3,0,1650,0,36.113659,-115.145653,0.0,6.575,2050.5,9,2,1.9,0,0.0,-1,0.0,0.0,0.0,0
3368654,1501039471202,,,,,,,,,0,1635,0,,,,,,,,,,,,,,,
3368664,1501039471212,,,,,,,,,0,1665,0,,,,,,,,,,,,,,,
3368674,1501039471222,,,,,,,,,0,1680,0,,,,,,,,,,,,,,,
3368684,1501039471232,3.08,,-0.04,-0.04,1.01,-1,-3,4,0,1665,0,,,,,,,,,,,,,,,
3368694,1501039471242,,,,,,,,,0,1665,0,,,,,,,,,,,,,,,
3368704,1501039471252,,,,,,,,,0,1665,0,,,,,,,,,,,,,,,
3368714,1501039471262,,,,,,,,,0,1650,0,,,,,,,,,,,,,,,
3368724,1501039471272,3.07,,-0.05,-0.02,1.03,-1,-2,3,0,1635,0,,,,,,,,,,,,,,,
3368734,1501039471282,,,,,,,,,0,1680,0,,,,,,,,,,,,,,,
3368744,1501039471292,,,,,,,,,0,1680,0,36.113659,-115.145653,0.0,6.575,2050.5,9,2,1.9,0,0.0,-1,0.0,0.0,0.0,0
3368754,1501039471302,,,,,,,,,0,1680,0,,,,,,,,,,,,,,,
3368764,1501039471312,3.08,,-0.03,-0.01,1.03,-1,-5,3,0,1665,0,,,,,,,,,,,,,,,
3368774,1501039471322,,,,,,,,,0,1665,0,,,,,,,,,,,,,,,
3368784,1501039471332,,,,,,,,,0,1650,0,,,,,,,,,,,,,,,
3368794,1501039471342,,,,,,,,,0,1650,0,,,,,,,,,,,,,,,
3368804,1501039471352,3.08,,-0.01,-0.03,1.02,-1,-6,3,0,1635,0,,,,,,,,,,,,,,,
3368814,1501039471362,,,,,,,,,0,1695,0,,,,,,,,,,,,,,,
3368824,1501039471372,,,,,,,,,0,1695,0,,,,,,,,,,,,,,,
3368834,1501039471382,,,,,,,,,0,1665,0,,,,,,,,,,,,,,,
3368844,1501039471392,3.07,,-0.02,-0.04,1.01,-1,-5,4,0,1680,0,36.113659,-115.145653,0.0,6.575,2050.5,9,2,1.9,0,0.0,-1,0.0,0.0,0.0,0
3368854,1501039471402,,,,,,,,,0,1665,0,,,,,,,,,,,,,,,
3368864,1501039471412,,,,,,,,,0,1665,0,,,,,,,,,,,,,,,
3368874,1501039471422,,,,,,,,,0,1650,0,,,,,,,,,,,,,,,
3368884,1501039471432,3.06,,-0.03,-0.03,1.04,-2,-3,5,0,1665,0,,,,,,,,,,,,,,,
3368894,1501039471442,,,,,,,,,0,1680,0,,,,,,,,,,,,,,,
3368904,1501039471452,,,,,,,,,0,1650,0,,,,,,,,,,,,,,,
3368914,1501039471462,,,,,,,,,0,1650,0,,,,,,,,,,,,,,,
3368924,1501039471472,3.06,,-0.03,-0.03,1.04,-2,-4,3,0,1635,0,,,,,,,,,,,,,,,
3368934,1501039471482,,,,,,,,,0,1635,0,,,,,,,,,,,,,,,
3368944,1501039471494,,,,,,,,,0,1620,0,36.113659,-115.145653,0.0,6.575,2050.5,9,2,1.9,0,0.0,-1,0.0,0.0,0.0,0
3368954,1501039471504,,,,,,,,,0,1665,0,,,,,,,,,,,,,,,
3368964,1501039471514,3.07,,-0.01,-0.03,1.02,-2,-7,4,0,1650,0,,,,,,,,,,,,,,,
3368974,1501039471524,,,,,,,,,0,1650,0,,,,,,,,,,,,,,,
3368984,1501039471534,,,,,,,,,0,1650,0,,,,,,,,,,,,,,,
3368994,1501039471544,,,,,,,,,0,1650,0,,,,,,,,,,,,,,,
3369004,1501039471554,3.03,,-0.02,-0.03,1.0,-1,-6,3,0,1620,0,,,,,,,,,,,,,,,
3369014,1501039471564,,,,,,,,,0,1620,0,,,,,,,,,,,,,,,
3369024,1501039471574,,,,,,,,,0,1665,0,,,,,,,,,,,,,,,
3369034,1501039471584,,,,,,,,,0,1665,0,,,,,,,,,,,,,,,
3369044,1501039471592,3.07,4.48,-0.04,-0.04,1.01,-1,-4,3,0,1665,0,36.113659,-115.145653,0.0,6.575,2050.5,9,2,1.9,0,0.0,-1,0.0,0.0,0.0,0
3369054,1501039471602,,,,,,,,,0,1650,0,,,,,,,,,,,,,,,
3369064,1501039471612,,,,,,,,,0,1650,0,,,,,,,,,,,,,,,
3369074,1501039471622,,,,,,,,,0,1650,0,,,,,,,,,,,,,,,
3369084,1501039471632,3.07,,-0.05,-0.03,1.04,-1,-3,3,0,1635,0,,,,,,,,,,,,,,,
3369094,1501039471642,,,,,,,,,0,1635,0,,,,,,,,,,,,,,,
3369104,1501039471652,,,,,,,,,0,1680,0,,,,,,,,,,,,,,,
3369114,1501039471662,,,,,,,,,0,1665,0,,,,,,,,,,,,,,,
3369124,1501039471672,3.08,,-0.03,-0.01,1.03,-1,-4,3,0,1665,0,,,,,,,,,,,,,,,
3369134,1501039471682,,,,,,,,,0,1650,0,,,,,,,,,,,,,,,
3369144,1501039471692,,,,,,,,,0,1650,0,36.113659,-115.145653,0.0,6.575,2050.5,9,2,1.9,0,0.0,-1,0.0,0.0,0.0,0
3369154,1501039471702,,,,,,,,,0,1650,0,,,,,,,,,,,,,,,
3369164,1501039471712,3.08,,-0.0,-0.02,1.01,-1,-6,3,0,1635,0,,,,,,,,,,,,,,,
3369174,1501039471722,,,,,,,,,0,1665,0,,,,,,,,,,,,,,,
3369184,1501039471732,,,,,,,,,0,1680,0,,,,,,,,,,,,,,,
3369194,1501039471742,,,,,,,,,0,1650,0,,,,,,,,,,,,,,,
3369204,1501039471752,3.07,,-0.0,-0.03,0.99,-2,-5,4,0,1665,0,,,,,,,,,,,,,,,
3369214,1501039471762,,,,,,,,,0,1650,0,,,,,,,,,,,,,,,
3369224,1501039471772,,,,,,,,,0,1635,0,,,,,,,,,,,,,,,
3369234,1501039471782,,,,,,,,,0,1635,0,,,,,,,,,,,,,,,
3369244,1501039471792,3.07,,-0.02,-0.02,1.01,-2,-3,5,0,1650,0,36.113659,-115.145653,0.0,6.575,2050.5,9,2,1.9,0,0.0,-1,0.0,0.0,0.0,0
3369254,1501039471802,,,,,,,,,0,1665,0,,,,,,,,,,,,,,,
3369264,1501039471812,,,,,,,,,0,1650,0,,,,,,,,,,,,,,,
3369274,1501039471822,,,,,,,,,0,1635,0,,,,,,,,,,,,,,,
3369284,1501039471832,3.07,,-0.04,-0.01,1.02,-2,-3,5,0,1635,0,,,,,,,,,,,,,,,
3369294,1501039471842,,,,,,,,,0,1635,0,,,,,,,,,,,,,,,
3369304,1501039471852,,,,,,,,,0,1620,0,,,,,,,,,,,,,,,
3369314,1501039471862,,,,,,,,,0,1650,0,,,,,,,,,,,,,,,
3369324,1501039471872,3.06,,-0.03,-0.02,1.02,-2,-5,5,0,1650,0,,,,,,,,,,,,,,,
3369334,1501039471882,,,,,,,,,0,1650,0,,,,,,,,,,,,,,,
3369344,1501039471894,,,,,,,,,0,1635,0,36.113659,-115.145653,0.0,6.575,2050.5,9,2,1.9,0,0.0,-1,0.0,0.0,0.0,0
3369354,1501039471904,,,,,,,,,0,1635,0,,,,,,,,,,,,,,,
3369364,1501039471914,3.06,,-0.02,-0.03,1.01,-2,-7,5,0,1620,0,,,,,,,,,,,,,,,
3369374,1501039471924,,,,,,,,,0,1620,0,,,,,,,,,,,,,,,
3369384,1501039471934,,,,,,,,,0,1605,0,,,,,,,,,,,,,,,
3369394,1501039471944,,,,,,,,,0,1665,0,,,,,,,,,,,,,,,
3369404,1501039471954,3.07,,-0.03,-0.04,0.98,-2,-7,5,0,1665,0,,,,,,,,,,,,,,,
3369414,1501039471964,,,,,,,,,0,1650,0,,,,,,,,,,,,,,,
3369424,1501039471974,,,,,,,,,0,1650,0,,,,,,,,,,,,,,,
3369434,1501039471984,,,,,,,,,0,1635,0,,,,,,,,,,,,,,,
3369444,1501039471994,3.08,,-0.03,-0.02,0.98,-2,-4,5,0,1635,0,36.113659,-115.145653,0.0,6.575,2050.5,9,2,1.9,0,0.0,-1,0.0,0.0,0.0,0
3369454,1501039471998,,,,,,,,,0,1605,0,,,,,,,,,,,,,,,
3369464,1501039472008,,,,,,,,,0,1650,0,,,,,,,,,,,,,,,
3369474,1501039472018,,,,,,,,,0,1650,0,,,,,,,,,,,,,,,
3369484,1501039472028,3.08,,-0.04,-0.01,1.0,-1,-3,4,0,1650,0,,,,,,,,,,,,,,,
3369494,1501039472038,,,,,,,,,0,1635,0,,,,,,,,,,,,,,,
3369504,1501039472048,,,,,,,,,0,1620,0,,,,,,,,,,,,,,,
3369514,1501039472058,,,,,,,,,0,1620,0,,,,,,,,,,,,,,,
3369524,1501039472068,3.08,,-0.02,-0.01,0.98,-1,-5,4,0,1605,0,,,,,,,,,,,,,,,
3369534,1501039472078,,,,,,,,,0,1635,0,,,,,,,,,,,,,,,
3369544,1501039472091,,,,,,,,,0,1635,0,36.113659,-115.145653,0.0,6.575,2050.5,9,2,1.9,0,0.0,-1,0.0,0.0,0.0,0
3369554,1501039472101,,,,,,,,,0,1635,0,,,,,,,,,,,,,,,
3369564,1501039472111,3.08,,-0.01,-0.02,0.96,-1,-7,4,0,1620,0,,,,,,,,,,,,,,,
3369574,1501039472121,,,,,,,,,0,1620,0,,,,,,,,,,,,,,,
3369584,1501039472131,,,,,,,,,0,1605,0,,,,,,,,,,,,,,,
3369594,1501039472141,,,,,,,,,0,1605,0,,,,,,,,,,,,,,,
3369604,1501039472151,3.08,,-0.0,-0.04,0.95,-1,-7,3,0,1590,0,,,,,,,,,,,,,,,
3369614,1501039472161,,,,,,,,,0,1620,0,,,,,,,,,,,,,,,
3369624,1501039472171,,,,,,,,,0,1620,0,,,,,,,,,,,,,,,
3369634,1501039472181,,,,,,,,,0,1620,0,,,,,,,,,,,,,,,
3369644,1501039472193,3.07,,-0.02,-0.02,0.98,-1,-5,4,0,1620,0,36.113659,-115.145653,0.0,6.575,2050.5,9,2,1.9,0,0.0,-1,0.0,0.0,0.0,0
3369654,1501039472203,,,,,,,,,0,1605,0,,,,,,,,,,,,,,,
3369664,1501039472213,,,,,,,,,0,1590,0,,,,,,,,,,,,,,,
3369674,1501039472223,,,,,,,,,0,1575,0,,,,,,,,,,,,,,,
3369684,1501039472233,3.07,,-0.02,-0.01,0.99,-1,-3,4,0,1635,0,,,,,,,,,,,,,,,
3369694,1501039472243,,,,,,,,,0,1635,0,,,,,,,,,,,,,,,
3369704,1501039472253,,,,,,,,,0,1635,0,,,,,,,,,,,,,,,
3369714,1501039472263,,,,,,,,,0,1620,0,,,,,,,,,,,,,,,
3369724,1501039472273,3.06,,-0.04,-0.02,1.0,-1,-4,5,0,1620,0,,,,,,,,,,,,,,,
3369734,1501039472283,,,,,,,,,0,1605,0,,,,,,,,,,,,,,,
3369744,1501039472293,,,,,,,,,0,1590,0,36.113659,-115.145653,0.0,6.575,2050.5,9,2,1.9,0,0.0,-1,0.0,0.0,0.0,0
3369754,1501039472303,,,,,,,,,0,1650,0,,,,,,,,,,,,,,,
3369764,1501039472313,3.06,,-0.03,-0.02,1.0,-1,-5,4,0,1665,0,,,,,,,,,,,,,,,
3369774,1501039472323,,,,,,,,,0,1650,0,,,,,,,,,,,,,,,
3369784,1501039472333,,,,,,,,,0,1635,0,,,,,,,,,,,,,,,
3369794,1501039472343,,,,,,,,,0,1650,0,,,,,,,,,,,,,,,
3369804,1501039472353,3.07,,-0.01,-0.03,0.99,-1,-7,4,0,1635,0,,,,,,,,,,,,,,,
3369814,1501039472363,,,,,,,,,0,1620,0,,,,,,,,,,,,,,,
3369824,1501039472373,,,,,,,,,0,1620,0,,,,,,,,,,,,,,,
3369834,1501039472383,,,,,,,,,0,1665,0,,,,,,,,,,,,,,,
3369844,1501039472393,3.07,,-0.02,-0.04,0.99,-1,-7,4,0,1650,0,36.113659,-115.145653,0.0,6.575,2050.5,9,2,1.9,0,0.0,-1,0.0,0.0,0.0,0
3369854,1501039472403,,,,,,,,,0,1650,0,,,,,,,,,,,,,,,
3369864,1501039472413,,,,,,,,,0,1650,0,,,,,,,,,,,,,,,
3369874,1501039472423,,,,,,,,,0,1635,0,,,,,,,,,,,,,,,
3369884,1501039472433,3.08,,-0.03,-0.03,0.99,-1,-5,6,0,1620,0,,,,,,,,,,,,,,,
3369894,1501039472443,,,,,,,,,0,1620,0,,,,,,,,,,,,,,,
3369904,1501039472453,,,,,,,,,0,1665,0,,,,,,,,,,,,,,,
3369914,1501039472463,,,,,,,,,0,1680,0,,,,,,,,,,,,,,,
3369924,1501039472473,3.08,,-0.04,-0.02,1.0,-1,-4,5,0,1680,0,,,,,,,,,,,,,,,
3369934,1501039472483,,,,,,,,,0,1665,0,,,,,,,,,,,,,,,
3369944,1501039472493,,,,,,,,,0,1650,0,36.113659,-115.145653,0.0,6.575,2050.5,9,2,2.3,0,0.0,-1,0.0,0.0,0.0,0
3369954,1501039472503,,,,,,,,,0,1650,0,,,,,,,,,,,,,,,
3369964,1501039472513,3.08,,-0.02,-0.01,1.0,-1,-6,5,0,1620,0,,,,,,,,,,,,,,,
3369974,1501039472523,,,,,,,,,0,1680,0,,,,,,,,,,,,,,,
3369984,1501039472533,,,,,,,,,0,1680,0,,,,,,,,,,,,,,,
3369994,1501039472543,,,,,,,,,0,1680,0,,,,,,,,,,,,,,,
3370004,1501039472553,3.08,,0.0,-0.02,1.0,-1,-8,4,0,1665,0,,,,,,,,,,,,,,,
3370014,1501039472563,,,,,,,,,0,1665,0,,,,,,,,,,,,,,,
3370024,1501039472573,,,,,,,,,0,1650,0,,,,,,,,,,,,,,,
3370034,1501039472583,,,,,,,,,0,1635,0,,,,,,,,,,,,,,,
3370044,1501039472593,3.06,4.48,-0.01,-0.03,1.0,-1,-6,3,0,1695,0,36.113659,-115.145653,0.0,6.575,2050.5,9,2,1.9,0,0.0,-1,0.0,0.0,0.0,0
3370054,1501039472603,,,,,,,,,0,1695,0,,,,,,,,,,,,,,,
3370064,1501039472613,,,,,,,,,0,1680,0,,,,,,,,,,,,,,,
3370074,1501039472623,,,,,,,,,0,1665,0,,,,,,,,,,,,,,,
3370084,1501039472633,3.07,,-0.04,-0.01,1.01,-1,-3,4,0,1680,0,,,,,,,,,,,,,,,
3370094,1501039472643,,,,,,,,,0,1665,0,,,,,,,,,,,,,,,
3370104,1501039472653,,,,,,,,,0,1650,0,,,,,,,,,,,,,,,
3370114,1501039472663,,,,,,,,,0,1695,0,,,,,,,,,,,,,,,
3370124,1501039472673,3.06,,-0.04,-0.01,1.02,-1,-4,4,0,1695,0,,,,,,,,,,,,,,,
3370134,1501039472683,,,,,,,,,0,1695,0,,,,,,,,,,,,,,,
3370144,1501039472693,,,,,,,,,0,1680,0,36.113659,-115.145653,0.0,6.575,2050.5,9,2,1.9,0,0.0,-1,0.0,0.0,0.0,0
3370154,1501039472703,,,,,,,,,0,1680,0,,,,,,,,,,,,,,,
3370164,1501039472713,3.07,,-0.02,-0.03,1.02,-1,-7,4,0,1665,0,,,,,,,,,,,,,,,
3370174,1501039472723,,,,,,,,,0,1665,0,,,,,,,,,,,,,,,
3370184,1501039472733,,,,,,,,,0,1695,0,,,,,,,,,,,,,,,
3370194,1501039472743,,,,,,,,,0,1695,0,,,,,,,,,,,,,,,
3370204,1501039472753,3.07,,-0.04,-0.04,1.0,-1,-5,4,0,1695,0,,,,,,,,,,,,,,,
3370214,1501039472763,,,,,,,,,0,1680,0,,,,,,,,,,,,,,,
3370224,1501039472773,,,,,,,,,0,1695,0,,,,,,,,,,,,,,,
3370234,1501039472783,,,,,,,,,0,1680,0,,,,,,,,,,,,,,,
3370244,1501039472793,3.08,,-0.04,-0.03,1.0,-1,-4,4,0,1665,0,36.113659,-115.145653,0.0,6.575,2050.5,9,2,2.3,0,0.0,-1,0.0,0.0,0.0,0
3370254,1501039472803,,,,,,,,,0,1665,0,,,,,,,,,,,,,,,
3370264,1501039472813,,,,,,,,,0,1695,0,,,,,,,,,,,,,,,
3370274,1501039472823,,,,,,,,,0,1680,0,,,,,,,,,,,,,,,
3370284,1501039472833,3.08,,-0.02,-0.02,1.01,-1,-5,3,0,1680,0,,,,,,,,,,,,,,,
3370294,1501039472843,,,,,,,,,0,1665,0,,,,,,,,,,,,,,,
3370304,1501039472853,,,,,,,,,0,1665,0,,,,,,,,,,,,,,,
3370314,1501039472863,,,,,,,,,0,1650,0,,,,,,,,,,,,,,,
3370324,1501039472873,3.08,,-0.0,-0.03,0.99,-1,-6,3,0,1635,0,,,,,,,,,,,,,,,
3370334,1501039472883,,,,,,,,,0,1665,0,,,,,,,,,,,,,,,
3370344,1501039472893,,,,,,,,,0,1680,0,36.113659,-115.145653,0.0,6.575,2050.5,9,2,2.3,0,0.0,-1,0.0,0.0,0.0,0
3370354,1501039472903,,,,,,,,,0,1665,0,,,,,,,,,,,,,,,
3370364,1501039472913,3.07,,-0.01,-0.03,0.98,-1,-5,3,0,1665,0,,,,,,,,,,,,,,,
3370374,1501039472923,,,,,,,,,0,1650,0,,,,,,,,,,,,,,,
3370384,1501039472933,,,,,,,,,0,1635,0,,,,,,,,,,,,,,,
3370394,1501039472943,,,,,,,,,0,1635,0,,,,,,,,,,,,,,,
3370404,1501039472953,3.07,,-0.02,-0.02,1.0,-2,-2,4,0,1665,0,,,,,,,,,,,,,,,
3370414,1501039472963,,,,,,,,,0,1665,0,,,,,,,,,,,,,,,
3370424,1501039472973,,,,,,,,,0,1665,0,,,,,,,,,,,,,,,
3370434,1501039472983,,,,,,,,,0,1650,0,,,,,,,,,,,,,,,
3370444,1501039472993,3.02,,-0.04,-0.02,1.01,-2,-2,4,0,1635,0,36.113659,-115.145653,0.0,6.575,2050.5,9,2,2.3,0,0.0,-1,0.0,0.0,0.0,0
3370454,1501039472997,,,,,,,,,0,1635,0,,,,,,,,,,,,,,,
3370464,1501039473007,,,,,,,,,0,1620,0,,,,,,,,,,,,,,,
3370474,1501039473017,,,,,,,,,0,1650,0,,,,,,,,,,,,,,,
3370484,1501039473027,3.07,,-0.02,-0.02,1.0,-2,-5,4,0,1665,0,,,,,,,,,,,,,,,
3370494,1501039473037,,,,,,,,,0,1665,0,,,,,,,,,,,,,,,
3370504,1501039473047,,,,,,,,,0,1650,0,,,,,,,,,,,,,,,
3370514,1501039473057,,,,,,,,,0,1650,0,,,,,,,,,,,,,,,
3370524,1501039473067,3.06,,-0.02,-0.03,0.99,-1,-6,3,0,1635,0,,,,,,,,,,,,,,,
3370534,1501039473077,,,,,,,,,0,1620,0,,,,,,,,,,,,,,,
3370544,1501039473092,,,,,,,,,0,1650,0,36.113659,-115.145653,0.0,6.575,2050.5,9,2,2.4,0,0.0,-1,0.0,0.0,0.0,0
3370554,1501039473102,,,,,,,,,0,1665,0,,,,,,,,,,,,,,,
3370564,1501039473112,3.07,,-0.04,-0.04,1.0,-1,-4,3,0,1650,0,,,,,,,,,,,,,,,
3370574,1501039473122,,,,,,,,,0,1635,0,,,,,,,,,,,,,,,
3370584,1501039473132,,,,,,,,,0,1635,0,,,,,,,,,,,,,,,
3370594,1501039473142,,,,,,,,,0,1620,0,,,,,,,,,,,,,,,
3370604,1501039473152,3.07,,-0.04,-0.02,1.0,-1,-2,3,0,1620,0,,,,,,,,,,,,,,,
3370614,1501039473162,,,,,,,,,0,1605,0,,,,,,,,,,,,,,,
3370624,1501039473172,,,,,,,,,0,1650,0,,,,,,,,,,,,,,,
3370634,1501039473182,,,,,,,,,0,1650,0,,,,,,,,,,,,,,,
3370644,1501039473192,3.08,,-0.05,-0.01,1.03,-1,-2,2,0,1650,0,36.113659,-115.145653,0.0,6.575,2050.5,9,2,2.4,0,0.0,-1,0.0,0.0,0.0,0
3370654,1501039473202,,,,,,,,,0,1635,0,,,,,,,,,,,,,,,
3370664,1501039473212,,,,,,,,,0,1620,0,,,,,,,,,,,,,,,
3370674,1501039473222,,,,,,,,,0,1620,0,,,,,,,,,,,,,,,
3370684,1501039473232,3.08,,-0.03,-0.0,1.01,-1,-4,2,0,1605,0,,,,,,,,,,,,,,,
3370694,1501039473242,,,,,,,,,0,1650,0,,,,,,,,,,,,,,,
3370704,1501039473252,,,,,,,,,0,1650,0,,,,,,,,,,,,,,,
3370714,1501039473262,,,,,,,,,0,1650,0,,,,,,,,,,,,,,,
3370724,1501039473272,3.08,,-0.01,-0.02,1.0,-0,-6,2,0,1635,0,,,,,,,,,,,,,,,
3370734,1501039473282,,,,,,,,,0,1635,0,,,,,,,,,,,,,,,
3370744,1501039473292,,,,,,,,,0,1620,0,36.113659,-115.145653,0.0,6.575,2050.5,9,2,2.4,0,0.0,-1,0.0,0.0,0.0,0
3370754,1501039473302,,,,,,,,,0,1620,0,,,,,,,,,,,,,,,
3370764,1501039473312,3.03,,0.0,-0.04,0.98,-0,-7,2,0,1650,0,,,,,,,,,,,,,,,
3370774,1501039473322,,,,,,,,,0,1665,0,,,,,,,,,,,,,,,
3370784,1501039473332,,,,,,,,,0,1665,0,,,,,,,,,,,,,,,
3370794,1501039473342,,,,,,,,,0,1650,0,,,,,,,,,,,,,,,
3370804,1501039473352,3.07,,-0.02,-0.03,1.01,-0,-4,2,0,1650,0,,,,,,,,,,,,,,,
3370814,1501039473362,,,,,,,,,0,1635,0,,,,,,,,,,,,,,,
3370824,1501039473372,,,,,,,,,0,1635,0,,,,,,,,,,,,,,,
3370834,1501039473382,,,,,,,,,0,1620,0,,,,,,,,,,,,,,,
3370844,1501039473394,3.07,,-0.03,-0.01,1.02,-1,-2,2,0,1665,0,36.113659,-115.145653,0.0,6.575,2050.5,9,2,2.3,0,0.0,-1,0.0,0.0,0.0,0
3370854,1501039473404,,,,,,,,,0,1665,0,,,,,,,,,,,,,,,
3370864,1501039473414,,,,,,,,,0,1650,0,,,,,,,,,,,,,,,
3370874,1501039473424,,,,,,,,,0,1650,0,,,,,,,,,,,,,,,
3370884,1501039473434,3.07,,-0.02,-0.02,1.03,-0,-4,1,0,1650,0,,,,,,,,,,,,,,,
3370894,1501039473444,,,,,,,,,0,1635,0,,,,,,,,,,,,,,,
3370904,1501039473454,,,,,,,,,0,1620,0,,,,,,,,,,,,,,,
3370914,1501039473464,,,,,,,,,0,1680,0,,,,,,,,,,,,,,,
3370924,1501039473474,3.07,,-0.01,-0.02,1.02,-1,-6,2,0,1695,0,,,,,,,,,,,,,,,
3370934,1501039473484,,,,,,,,,0,1695,0,,,,,,,,,,,,,,,
3370944,1501039473494,,,,,,,,,0,1680,0,36.113659,-115.145653,0.0,6.575,2050.5,9,2,2.3,0,0.0,-1,0.0,0.0,0.0,0
3370954,1501039473504,,,,,,,,,0,1665,0,,,,,,,,,,,,,,,
3370964,1501039473514,3.07,,-0.03,-0.03,0.99,-1,-5,3,0,1665,0,,,,,,,,,,,,,,,
3370974,1501039473524,,,,,,,,,0,1650,0,,,,,,,,,,,,,,,
3370984,1501039473534,,,,,,,,,0,1665,0,,,,,,,,,,,,,,,
3370994,1501039473544,,,,,,,,,0,1680,0,,,,,,,,,,,,,,,
3371004,1501039473554,3.08,,-0.04,-0.03,1.01,-1,-3,3,0,1665,0,,,,,,,,,,,,,,,
3371014,1501039473564,,,,,,,,,0,1650,0,,,,,,,,,,,,,,,
3371024,1501039473574,,,,,,,,,0,1650,0,,,,,,,,,,,,,,,
3371034,1501039473584,,,,,,,,,0,1635,0,,,,,,,,,,,,,,,
3371044,1501039473594,3.08,4.49,-0.05,-0.0,1.02,-1,-3,3,0,1620,0,36.113659,-115.145653,0.0,6.575,2050.5,9,2,2.3,0,0.0,-1,0.0,0.0,0.0,0
3371054,1501039473604,,,,,,,,,0,1665,0,,,,,,,,,,,,,,,
3371064,1501039473614,,,,,,,,,0,1680,0,,,,,,,,,,,,,,,
3371074,1501039473624,,,,,,,,,0,1665,0,,,,,,,,,,,,,,,
3371084,1501039473634,3.08,,-0.02,-0.0,1.0,-2,-5,4,0,1650,0,,,,,,,,,,,,,,,
3371094,1501039473644,,,,,,,,,0,1650,0,,,,,,,,,,,,,,,
3371104,1501039473654,,,,,,,,,0,1650,0,,,,,,,,,,,,,,,
3371114,1501039473664,,,,,,,,,0,1635,0,,,,,,,,,,,,,,,
3371124,1501039473674,3.08,,-0.01,-0.03,0.98,-1,-6,3,0,1620,0,,,,,,,,,,,,,,,
3371134,1501039473684,,,,,,,,,0,1665,0,,,,,,,,,,,,,,,
3371144,1501039473694,,,,,,,,,0,1650,0,36.113659,-115.145653,0.0,6.575,2050.5,9,2,2.3,0,0.0,-1,0.0,0.0,0.0,0
3371154,1501039473704,,,,,,,,,0,1635,0,,,,,,,,,,,,,,,
3371164,1501039473714,3.07,,-0.02,-0.02,0.99,-1,-4,4,0,1650,0,,,,,,,,,,,,,,,
3371174,1501039473724,,,,,,,,,0,1635,0,,,,,,,,,,,,,,,
3371184,1501039473734,,,,,,,,,0,1620,0,,,,,,,,,,,,,,,
3371194,1501039473744,,,,,,,,,0,1620,0,,,,,,,,,,,,,,,
3371204,1501039473754,3.07,,-0.03,-0.01,1.0,-1,-3,4,0,1650,0,,,,,,,,,,,,,,,
3371214,1501039473764,,,,,,,,,0,1665,0,,,,,,,,,,,,,,,
3371224,1501039473774,,,,,,,,,0,1650,0,,,,,,,,,,,,,,,
3371234,1501039473784,,,,,,,,,0,1635,0,,,,,,,,,,,,,,,
3371244,1501039473794,3.06,,-0.04,-0.02,1.03,-1,-4,3,0,1635,0,36.113659,-115.145653,0.0,6.575,2050.5,9,2,2.3,0,0.0,-1,0.0,0.0,0.0,0
3371254,1501039473804,,,,,,,,,0,1620,0,,,,,,,,,,,,,,,
3371264,1501039473814,,,,,,,,,0,1605,0,,,,,,,,,,,,,,,
3371274,1501039473824,,,,,,,,,0,1650,0,,,,,,,,,,,,,,,
3371284,1501039473834,3.07,,-0.02,-0.02,1.02,-1,-6,3,0,1665,0,,,,,,,,,,,,,,,
3371294,1501039473844,,,,,,,,,0,1650,0,,,,,,,,,,,,,,,
3371304,1501039473854,,,,,,,,,0,1650,0,,,,,,,,,,,,,,,
3371314,1501039473864,,,,,,,,,0,1650,0,,,,,,,,,,,,,,,
3371324,1501039473874,3.06,,-0.02,-0.03,1.0,-1,-8,3,0,1635,0,,,,,,,,,,,,,,,
3371334,1501039473884,,,,,,,,,0,1620,0,,,,,,,,,,,,,,,
3371344,1501039473894,,,,,,,,,0,1665,0,36.113659,-115.145653,0.0,6.575,2050.5,9,2,2.3,0,0.0,-1,0.0,0.0,0.0,0
3371354,1501039473904,,,,,,,,,0,1680,0,,,,,,,,,,,,,,,
3371364,1501039473914,3.06,,-0.05,-0.03,1.01,-1,-6,3,0,1680,0,,,,,,,,,,,,,,,
3371374,1501039473924,,,,,,,,,0,1650,0,,,,,,,,,,,,,,,
3371384,1501039473934,,,,,,,,,0,1665,0,,,,,,,,,,,,,,,
3371394,1501039473944,,,,,,,,,0,1650,0,,,,,,,,,,,,,,,
3371404,1501039473954,3.08,,-0.05,-0.03,1.04,-1,-3,3,0,1635,0,,,,,,,,,,,,,,,
3371414,1501039473964,,,,,,,,,0,1620,0,,,,,,,,,,,,,,,
3371424,1501039473974,,,,,,,,,0,1680,0,,,,,,,,,,,,,,,
3371434,1501039473984,,,,,,,,,0,1680,0,,,,,,,,,,,,,,,
3371444,1501039473994,3.08,,-0.03,-0.01,1.03,-1,-5,3,0,1680,0,36.113659,-115.145653,0.0,6.575,2050.5,9,2,2.3,0,0.0,-1,0.0,0.0,0.0,0
3371454,1501039473998,,,,,,,,,0,1665,0,,,,,,,,,,,,,,,
3371464,1501039474008,,,,,,,,,0,1665,0,,,,,,,,,,,,,,,
3371474,1501039474018,,,,,,,,,0,1650,0,,,,,,,,,,,,,,,
3371484,1501039474028,3.08,,-0.01,-0.02,1.02,-1,-7,3,0,1650,0,,,,,,,,,,,,,,,
3371494,1501039474038,,,,,,,,,0,1695,0,,,,,,,,,,,,,,,
3371504,1501039474048,,,,,,,,,0,1695,0,,,,,,,,,,,,,,,
3371514,1501039474058,,,,,,,,,0,1680,0,,,,,,,,,,,,,,,
3371524,1501039474068,3.07,,-0.02,-0.03,1.0,-1,-6,3,0,1680,0,,,,,,,,,,,,,,,
3371534,1501039474078,,,,,,,,,0,1665,0,,,,,,,,,,,,,,,
3371544,1501039474093,,,,,,,,,0,1665,0,36.113659,-115.145653,0.0,6.575,2050.5,9,2,1.9,0,0.0,-1,0.0,0.0,0.0,0
3371554,1501039474103,,,,,,,,,0,1650,0,,,,,,,,,,,,,,,
3371564,1501039474113,3.07,,-0.03,-0.02,1.01,-2,-2,4,0,1680,0,,,,,,,,,,,,,,,
3371574,1501039474123,,,,,,,,,0,1695,0,,,,,,,,,,,,,,,
3371584,1501039474133,,,,,,,,,0,1680,0,,,,,,,,,,,,,,,
3371594,1501039474143,,,,,,,,,0,1665,0,,,,,,,,,,,,,,,
3371604,1501039474153,3.06,,-0.04,-0.02,1.02,-1,-3,3,0,1650,0,,,,,,,,,,,,,,,
3371614,1501039474163,,,,,,,,,0,1650,0,,,,,,,,,,,,,,,
3371624,1501039474173,,,,,,,,,0,1635,0,,,,,,,,,,,,,,,
3371634,1501039474183,,,,,,,,,0,1665,0,,,,,,,,,,,,,,,
3371644,1501039474193,3.07,,-0.02,-0.02,1.0,-1,-6,3,0,1680,0,36.113659,-115.145653,0.0,6.575,2050.5,9,2,1.9,0,0.0,-1,0.0,0.0,0.0,0
3371654,1501039474203,,,,,,,,,0,1665,0,,,,,,,,,,,,,,,
3371664,1501039474213,,,,,,,,,0,1650,0,,,,,,,,,,,,,,,
3371674,1501039474223,,,,,,,,,0,1650,0,,,,,,,,,,,,,,,
3371684,1501039474233,3.03,,-0.02,-0.03,0.98,-1,-6,2,0,1635,0,,,,,,,,,,,,,,,
3371694,1501039474243,,,,,,,,,0,1620,0,,,,,,,,,,,,,,,
3371704,1501039474253,,,,,,,,,0,1665,0,,,,,,,,,,,,,,,
3371714,1501039474263,,,,,,,,,0,1665,0,,,,,,,,,,,,,,,
3371724,1501039474273,3.08,,-0.04,-0.04,0.99,-1,-4,3,0,1665,0,,,,,,,,,,,,,,,
3371734,1501039474283,,,,,,,,,0,1650,0,,,,,,,,,,,,,,,
3371744,1501039474293,,,,,,,,,0,1650,0,36.113659,-115.145653,0.0,6.575,2050.5,9,2,1.9,0,0.0,-1,0.0,0.0,0.0,0
3371754,1501039474303,,,,,,,,,0,1650,0,,,,,,,,,,,,,,,
3371764,1501039474313,3.07,,-0.05,-0.02,1.02,-1,-3,3,0,1635,0,,,,,,,,,,,,,,,
3371774,1501039474323,,,,,,,,,0,1665,0,,,,,,,,,,,,,,,
3371784,1501039474333,,,,,,,,,0,1665,0,,,,,,,,,,,,,,,
3371794,1501039474343,,,,,,,,,0,1665,0,,,,,,,,,,,,,,,
3371804,1501039474353,3.08,,-0.02,-0.01,1.01,-2,-4,3,0,1650,0,,,,,,,,,,,,,,,
3371814,1501039474363,,,,,,,,,0,1650,0,,,,,,,,,,,,,,,
3371824,1501039474373,,,,,,,,,0,1650,0,,,,,,,,,,,,,,,
3371834,1501039474383,,,,,,,,,0,1635,0,,,,,,,,,,,,,,,
3371844,1501039474393,3.08,,0.0,-0.03,0.99,-1,-7,3,0,1620,0,36.113659,-115.145653,0.0,6.575,2050.5,9,2,1.9,0,0.0,-1,0.0,0.0,0.0,0
3371854,1501039474403,,,,,,,,,0,1665,0,,,,,,,,,,,,,,,
3371864,1501039474413,,,,,,,,,0,1665,0,,,,,,,,,,,,,,,
3371874,1501039474423,,,,,,,,,0,1650,0,,,,,,,,,,,,,,,
3371884,1501039474433,3.07,,0.0,-0.03,0.98,-2,-6,4,0,1650,0,,,,,,,,,,,,,,,
3371894,1501039474443,,,,,,,,,0,1635,0,,,,,,,,,,,,,,,
3371904,1501039474453,,,,,,,,,0,1635,0,,,,,,,,,,,,,,,
3371914,1501039474463,,,,,,,,,0,1620,0,,,,,,,,,,,,,,,
3371924,1501039474473,3.07,,-0.01,-0.02,0.99,-2,-3,5,0,1650,0,,,,,,,,,,,,,,,
3371934,1501039474483,,,,,,,,,0,1650,0,,,,,,,,,,,,,,,
3371944,1501039474493,,,,,,,,,0,1635,0,36.113659,-115.145653,0.0,6.575,2050.5,9,2,1.9,0,0.0,-1,0.0,0.0,0.0,0
3371954,1501039474503,,,,,,,,,0,1635,0,,,,,,,,,,,,,,,
3371964,1501039474513,3.06,,-0.03,-0.01,1.01,-2,-2,5,0,1635,0,,,,,,,,,,,,,,,
3371974,1501039474523,,,,,,,,,0,1620,0,,,,,,,,,,,,,,,
3371984,1501039474533,,,,,,,,,0,1605,0,,,,,,,,,,,,,,,
3371994,1501039474543,,,,,,,,,0,1650,0,,,,,,,,,,,,,,,
3372004,1501039474553,3.06,,-0.02,-0.02,1.01,-2,-4,5,0,1650,0,,,,,,,,,,,,,,,
3372014,1501039474563,,,,,,,,,0,1650,0,,,,,,,,,,,,,,,
3372024,1501039474573,,,,,,,,,0,1635,0,,,,,,,,,,,,,,,
3372034,1501039474583,,,,,,,,,0,1635,0,,,,,,,,,,,,,,,
3372044,1501039474593,3.07,4.49,-0.01,-0.04,1.0,-2,-6,5,0,1620,0,36.113659,-115.145653,0.0,6.575,2050.5,9,2,1.9,0,0.0,-1,0.0,0.0,0.0,0
3372054,1501039474603,,,,,,,,,0,1620,0,,,,,,,,,,,,,,,
3372064,1501039474613,,,,,,,,,0,1605,0,,,,,,,,,,,,,,,
3372074,1501039474623,,,,,,,,,0,1635,0,,,,,,,,,,,,,,,
3372084,1501039474633,3.03,,-0.02,-0.05,1.0,-2,-6,5,0,1635,0,,,,,,,,,,,,,,,
3372094,1501039474643,,,,,,,,,0,1620,0,,,,,,,,,,,,,,,
3372104,1501039474653,,,,,,,,,0,1635,0,,,,,,,,,,,,,,,
3372114,1501039474663,,,,,,,,,0,1620,0,,,,,,,,,,,,,,,
3372124,1501039474673,3.08,,-0.03,-0.04,1.01,-2,-4,5,0,1605,0,,,,,,,,,,,,,,,
3372134,1501039474683,,,,,,,,,0,1605,0,,,,,,,,,,,,,,,
3372144,1501039474693,,,,,,,,,0,1650,0,36.113659,-115.145653,0.0,6.575,2050.5,9,2,1.9,0,0.0,-1,0.0,0.0,0.0,0
3372154,1501039474703,,,,,,,,,0,1650,0,,,,,,,,,,,,,,,
3372164,1501039474713,3.08,,-0.05,-0.04,1.0,-2,-3,5,0,1650,0,,,,,,,,,,,,,,,
3372174,1501039474723,,,,,,,,,0,1635,0,,,,,,,,,,,,,,,
3372184,1501039474733,,,,,,,,,0,1650,0,,,,,,,,,,,,,,,
3372194,1501039474743,,,,,,,,,0,1620,0,,,,,,,,,,,,,,,
3372204,1501039474753,3.08,,-0.04,-0.02,1.02,-2,-3,4,0,1605,0,,,,,,,,,,,,,,,
3372214,1501039474763,,,,,,,,,0,1650,0,,,,,,,,,,,,,,,
3372224,1501039474773,,,,,,,,,0,1650,0,,,,,,,,,,,,,,,
3372234,1501039474783,,,,,,,,,0,1650,0,,,,,,,,,,,,,,,
3372244,1501039474793,3.08,,-0.02,-0.02,1.0,-2,-6,5,0,1635,0,36.113659,-115.145653,0.0,6.575,2050.5,9,2,1.9,0,0.0,-1,0.0,0.0,0.0,0
3372254,1501039474803,,,,,,,,,0,1635,0,,,,,,,,,,,,,,,
3372264,1501039474813,,,,,,,,,0,1620,0,,,,,,,,,,,,,,,
3372274,1501039474823,,,,,,,,,0,1620,0,,,,,,,,,,,,,,,
3372284,1501039474833,3.08,,0.0,-0.05,0.98,-2,-7,4,0,1605,0,,,,,,,,,,,,,,,
3372294,1501039474843,,,,,,,,,0,1650,0,,,,,,,,,,,,,,,
3372304,1501039474853,,,,,,,,,0,1650,0,,,,,,,,,,,,,,,
3372314,1501039474863,,,,,,,,,0,1650,0,,,,,,,,,,,,,,,
3372324,1501039474873,3.07,,-0.01,-0.05,0.99,-2,-5,5,0,1650,0,,,,,,,,,,,,,,,
3372334,1501039474883,,,,,,,,,0,1635,0,,,,,,,,,,,,,,,
3372344,1501039474893,,,,,,,,,0,1635,0,36.113659,-115.145653,0.0,6.575,2050.5,9,2,1.9,0,0.0,-1,0.0,0.0,0.0,0
3372354,1501039474903,,,,,,,,,0,1605,0,,,,,,,,,,,,,,,
3372364,1501039474913,3.07,,-0.02,-0.03,1.0,-2,-3,5,0,1680,0,,,,,,,,,,,,,,,
3372374,1501039474923,,,,,,,,,0,1680,0,,,,,,,,,,,,,,,
3372384,1501039474933,,,,,,,,,0,1680,0,,,,,,,,,,,,,,,
3372394,1501039474943,,,,,,,,,0,1665,0,,,,,,,,,,,,,,,
3372404,1501039474953,3.06,,-0.04,-0.03,1.02,-2,-3,4,0,1650,0,,,,,,,,,,,,,,,
3372414,1501039474963,,,,,,,,,0,1650,0,,,,,,,,,,,,,,,
3372424,1501039474973,,,,,,,,,0,1635,0,,,,,,,,,,,,,,,
3372434,1501039474983,,,,,,,,,0,1680,0,,,,,,,,,,,,,,,
3372444,1501039474993,3.07,,-0.02,-0.02,1.03,-1,-6,5,0,1680,0,36.113659,-115.145653,0.0,6.575,2050.5,9,2,1.9,0,0.0,-1,0.0,0.0,0.0,0
3372454,1501039474997,,,,,,,,,0,1680,0,,,,,,,,,,,,,,,
3372464,1501039475007,,,,,,,,,0,1665,0,,,,,,,,,,,,,,,
3372474,1501039475017,,,,,,,,,0,1665,0,,,,,,,,,,,,,,,
3372484,1501039475027,3.03,,-0.02,-0.03,1.01,-1,-7,4,0,1650,0,,,,,,,,,,,,,,,
3372494,1501039475037,,,,,,,,,0,1635,0,,,,,,,,,,,,,,,
3372504,1501039475047,,,,,,,,,0,1665,0,,,,,,,,,,,,,,,
3372514,1501039475057,,,,,,,,,0,1680,0,,,,,,,,,,,,,,,
3372524,1501039475067,3.08,,-0.04,-0.04,1.01,-1,-4,4,0,1665,0,,,,,,,,,,,,,,,
3372534,1501039475077,,,,,,,,,0,1650,0,,,,,,,,,,,,,,,
3372544,1501039475092,,,,,,,,,0,1650,0,36.113659,-115.145653,0.0,6.575,2050.5,9,2,1.9,0,0.0,-1,0.0,0.0,0.0,0
3372554,1501039475102,,,,,,,,,0,1650,0,,,,,,,,,,,,,,,
3372564,1501039475112,3.08,,-0.05,-0.02,1.06,-1,-3,3,0,1635,0,,,,,,,,,,,,,,,
3372574,1501039475122,,,,,,,,,0,1665,0,,,,,,,,,,,,,,,
3372584,1501039475132,,,,,,,,,0,1680,0,,,,,,,,,,,,,,,
3372594,1501039475142,,,,,,,,,0,1665,0,,,,,,,,,,,,,,,
3372604,1501039475152,3.08,,-0.02,-0.01,1.04,-1,-4,3,0,1650,0,,,,,,,,,,,,,,,
3372614,1501039475162,,,,,,,,,0,1650,0,,,,,,,,,,,,,,,
3372624,1501039475172,,,,,,,,,0,1635,0,,,,,,,,,,,,,,,
3372634,1501039475182,,,,,,,,,0,1635,0,,,,,,,,,,,,,,,
3372644,1501039475192,3.08,,-0.0,-0.03,1.01,-1,-6,3,0,1620,0,36.113659,-115.145653,0.0,6.575,2050.5,9,2,1.9,0,0.0,-1,0.0,0.0,0.0,0
3372654,1501039475202,,,,,,,,,0,1665,0,,,,,,,,,,,,,,,
3372664,1501039475212,,,,,,,,,0,1665,0,,,,,,,,,,,,,,,
3372674,1501039475222,,,,,,,,,0,1650,0,,,,,,,,,,,,,,,
3372684,1501039475232,3.08,,-0.0,-0.04,0.98,-2,-5,3,0,1650,0,,,,,,,,,,,,,,,
3372694,1501039475242,,,,,,,,,0,1635,0,,,,,,,,,,,,,,,
3372704,1501039475252,,,,,,,,,0,1635,0,,,,,,,,,,,,,,,
3372714,1501039475262,,,,,,,,,0,1620,0,,,,,,,,,,,,,,,
3372724,1501039475272,3.08,,-0.02,-0.03,1.0,-2,-3,4,0,1665,0,,,,,,,,,,,,,,,
3372734,1501039475282,,,,,,,,,0,1665,0,,,,,,,,,,,,,,,
3372744,1501039475292,,,,,,,,,0,1665,0,36.113659,-115.145653,0.0,6.575,2050.5,9,2,1.9,0,0.0,-1,0.0,0.0,0.0,0
3372754,1501039475302,,,,,,,,,0,1650,0,,,,,,,,,,,,,,,
3372764,1501039475312,3.07,,-0.04,-0.02,1.02,-2,-2,5,0,1650,0,,,,,,,,,,,,,,,
3372774,1501039475322,,,,,,,,,0,1620,0,,,,,,,,,,,,,,,
3372784,1501039475332,,,,,,,,,0,1620,0,,,,,,,,,,,,,,,
3372794,1501039475342,,,,,,,,,0,1665,0,,,,,,,,,,,,,,,
3372804,1501039475352,3.07,,-0.03,-0.02,1.02,-2,-4,5,0,1665,0,,,,,,,,,,,,,,,
3372814,1501039475362,,,,,,,,,0,1665,0,,,,,,,,,,,,,,,
3372824,1501039475372,,,,,,,,,0,1650,0,,,,,,,,,,,,,,,
3372834,1501039475382,,,,,,,,,0,1650,0,,,,,,,,,,,,,,,
3372844,1501039475392,3.07,,-0.02,-0.03,1.02,-1,-6,4,0,1635,0,36.113659,-115.145653,0.0,6.575,2050.5,9,2,1.9,0,0.0,-1,0.0,0.0,0.0,0
3372854,1501039475402,,,,,,,,,0,1635,0,,,,,,,,,,,,,,,
3372864,1501039475412,,,,,,,,,0,1665,0,,,,,,,,,,,,,,,
3372874,1501039475422,,,,,,,,,0,1665,0,,,,,,,,,,,,,,,
3372884,1501039475432,3.08,,-0.03,-0.04,1.01,-1,-5,4,0,1650,0,,,,,,,,,,,,,,,
3372894,1501039475442,,,,,,,,,0,1635,0,,,,,,,,,,,,,,,
3372904,1501039475452,,,,,,,,,0,1650,0,,,,,,,,,,,,,,,
3372914,1501039475462,,,,,,,,,0,1635,0,,,,,,,,,,,,,,,
3372924,1501039475472,3.08,,-0.04,-0.03,1.01,-1,-3,4,0,1620,0,,,,,,,,,,,,,,,
3372934,1501039475482,,,,,,,,,0,1605,0,,,,,,,,,,,,,,,
3372944,1501039475492,,,,,,,,,0,1665,0,36.113659,-115.145653,0.0,6.575,2050.5,9,2,1.9,0,0.0,-1,0.0,0.0,0.0,0
3372954,1501039475502,,,,,,,,,0,1650,0,,,,,,,,,,,,,,,
3372964,1501039475512,3.09,,-0.05,-0.02,1.03,-1,-4,3,0,1650,0,,,,,,,,,,,,,,,
3372974,1501039475522,,,,,,,,,0,1635,0,,,,,,,,,,,,,,,
3372984,1501039475532,,,,,,,,,0,1620,0,,,,,,,,,,,,,,,
3372994,1501039475542,,,,,,,,,0,1620,0,,,,,,,,,,,,,,,
3373004,1501039475552,3.08,,-0.03,-0.01,1.01,-1,-5,3,0,1605,0,,,,,,,,,,,,,,,
3373014,1501039475562,,,,,,,,,0,1665,0,,,,,,,,,,,,,,,
3373024,1501039475572,,,,,,,,,0,1665,0,,,,,,,,,,,,,,,
3373034,1501039475582,,,,,,,,,0,1665,0,,,,,,,,,,,,,,,
3373044,1501039475592,3.08,4.48,-0.01,-0.02,1.0,-1,-7,2,0,1650,0,36.113659,-115.145653,0.0,6.575,2050.5,9,2,1.9,0,0.0,-1,0.0,0.0,0.0,0
3373054,1501039475602,,,,,,,,,0,1650,0,,,,,,,,,,,,,,,
3373064,1501039475612,,,,,,,,,0,1635,0,,,,,,,,,,,,,,,
3373074,1501039475622,,,,,,,,,0,1620,0,,,,,,,,,,,,,,,
3373084,1501039475632,3.07,,-0.01,-0.04,0.99,-1,-6,2,0,1665,0,,,,,,,,,,,,,,,
3373094,1501039475642,,,,,,,,,0,1665,0,,,,,,,,,,,,,,,
3373104,1501039475652,,,,,,,,,0,1665,0,,,,,,,,,,,,,,,
3373114,1501039475662,,,,,,,,,0,1650,0,,,,,,,,,,,,,,,
3373124,1501039475672,3.07,,-0.03,-0.04,1.01,-0,-3,2,0,1650,0,,,,,,,,,,,,,,,
3373134,1501039475682,,,,,,,,,0,1635,0,,,,,,,,,,,,,,,
3373144,1501039475692,,,,,,,,,0,1635,0,36.113659,-115.145653,0.0,6.575,2050.5,9,2,1.9,0,0.0,-1,0.0,0.0,0.0,0
3373154,1501039475702,,,,,,,,,0,1620,0,,,,,,,,,,,,,,,
3373164,1501039475712,3.07,,-0.04,-0.02,1.03,-1,-3,2,0,1665,0,,,,,,,,,,,,,,,
3373174,1501039475722,,,,,,,,,0,1665,0,,,,,,,,,,,,,,,
3373184,1501039475732,,,,,,,,,0,1650,0,,,,,,,,,,,,,,,
3373194,1501039475742,,,,,,,,,0,1650,0,,,,,,,,,,,,,,,
3373204,1501039475752,3.07,,-0.03,-0.02,1.02,-1,-5,2,0,1650,0,,,,,,,,,,,,,,,
3373214,1501039475762,,,,,,,,,0,1635,0,,,,,,,,,,,,,,,
3373224,1501039475772,,,,,,,,,0,1620,0,,,,,,,,,,,,,,,
3373234,1501039475782,,,,,,,,,0,1665,0,,,,,,,,,,,,,,,
3373244,1501039475792,3.07,,-0.02,-0.03,1.0,-1,-6,2,0,1680,0,36.113659,-115.145653,0.0,6.575,2050.5,9,2,1.9,0,0.0,-1,0.0,0.0,0.0,0
3373254,1501039475802,,,,,,,,,0,1680,0,,,,,,,,,,,,,,,
3373264,1501039475812,,,,,,,,,0,1665,0,,,,,,,,,,,,,,,
3373274,1501039475822,,,,,,,,,0,1650,0,,,,,,,,,,,,,,,
3373284,1501039475832,3.08,,-0.04,-0.03,1.0,-1,-5,3,0,1650,0,,,,,,,,,,,,,,,
3373294,1501039475842,,,,,,,,,0,1635,0,,,,,,,,,,,,,,,
3373304,1501039475852,,,,,,,,,0,1680,0,,,,,,,,,,,,,,,
3373314,1501039475862,,,,,,,,,0,1680,0,,,,,,,,,,,,,,,
3373324,1501039475872,3.08,,-0.05,-0.03,1.01,-1,-3,4,0,1680,0,,,,,,,,,,,,,,,
3373334,1501039475882,,,,,,,,,0,1665,0,,,,,,,,,,,,,,,
3373344,1501039475894,,,,,,,,,0,1665,0,36.113659,-115.145653,0.0,6.575,2050.5,9,2,1.9,0,0.0,-1,0.0,0.0,0.0,0
3373354,1501039475904,,,,,,,,,0,1650,0,,,,,,,,,,,,,,,
3373364,1501039475914,3.08,,-0.04,-0.0,1.01,-2,-4,4,0,1635,0,,,,,,,,,,,,,,,
3373374,1501039475924,,,,,,,,,0,1665,0,,,,,,,,,,,,,,,
3373384,1501039475934,,,,,,,,,0,1680,0,,,,,,,,,,,,,,,
3373394,1501039475944,,,,,,,,,0,1665,0,,,,,,,,,,,,,,,
3373404,1501039475954,3.09,,-0.02,-0.01,1.0,-2,-7,4,0,1650,0,,,,,,,,,,,,,,,
3373414,1501039475964,,,,,,,,,0,1650,0,,,,,,,,,,,,,,,
3373424,1501039475974,,,,,,,,,0,1635,0,,,,,,,,,,,,,,,
3373434,1501039475984,,,,,,,,,0,1635,0,,,,,,,,,,,,,,,
3373444,1501039475994,3.08,,-0.0,-0.04,0.98,-1,-7,3,0,1620,0,36.113659,-115.145653,0.0,6.575,2050.5,9,2,1.9,0,0.0,-1,0.0,0.0,0.0,0
3373454,1501039475996,,,,,,,,,0,1665,0,,,,,,,,,,,,,,,
3373464,1501039476006,,,,,,,,,0,1665,0,,,,,,,,,,,,,,,
3373474,1501039476016,,,,,,,,,0,1650,0,,,,,,,,,,,,,,,
3373484,1501039476026,3.08,,-0.03,-0.03,0.99,-1,-5,3,0,1650,0,,,,,,,,,,,,,,,
3373494,1501039476036,,,,,,,,,0,1635,0,,,,,,,,,,,,,,,
3373504,1501039476046,,,,,,,,,0,1620,0,,,,,,,,,,,,,,,
3373514,1501039476056,,,,,,,,,0,1620,0,,,,,,,,,,,,,,,
3373524,1501039476066,3.07,,-0.03,-0.02,1.01,-1,-3,4,0,1680,0,,,,,,,,,,,,,,,
3373534,1501039476076,,,,,,,,,0,1680,0,,,,,,,,,,,,,,,
3373544,1501039476091,,,,,,,,,0,1665,0,36.113659,-115.145653,0.0,6.575,2050.5,9,2,1.9,0,0.0,-1,0.0,0.0,0.0,0
3373554,1501039476101,,,,,,,,,0,1665,0,,,,,,,,,,,,,,,
3373564,1501039476111,3.06,,-0.03,-0.02,1.03,-1,-4,2,0,1650,0,,,,,,,,,,,,,,,
3373574,1501039476121,,,,,,,,,0,1635,0,,,,,,,,,,,,,,,
3373584,1501039476131,,,,,,,,,0,1635,0,,,,,,,,,,,,,,,
3373594,1501039476141,,,,,,,,,0,1680,0,,,,,,,,,,,,,,,
3373604,1501039476151,3.07,,-0.01,-0.02,1.02,-1,-6,2,0,1680,0,,,,,,,,,,,,,,,
3373614,1501039476161,,,,,,,,,0,1665,0,,,,,,,,,,,,,,,
3373624,1501039476171,,,,,,,,,0,1665,0,,,,,,,,,,,,,,,
3373634,1501039476181,,,,,,,,,0,1650,0,,,,,,,,,,,,,,,
3373644,1501039476193,3.07,,-0.03,-0.03,1.0,-1,-5,2,0,1650,0,36.113659,-115.145653,0.0,6.575,2050.5,9,2,1.9,0,0.0,-1,0.0,0.0,0.0,0
3373654,1501039476203,,,,,,,,,0,1635,0,,,,,,,,,,,,,,,
3373664,1501039476213,,,,,,,,,0,1695,0,,,,,,,,,,,,,,,
3373674,1501039476223,,,,,,,,,0,1695,0,,,,,,,,,,,,,,,
3373684,1501039476233,3.08,,-0.05,-0.04,1.0,-1,-3,3,0,1695,0,,,,,,,,,,,,,,,
3373694,1501039476243,,,,,,,,,0,1680,0,,,,,,,,,,,,,,,
3373704,1501039476253,,,,,,,,,0,1680,0,,,,,,,,,,,,,,,
3373714,1501039476263,,,,,,,,,0,1665,0,,,,,,,,,,,,,,,
3373724,1501039476273,3.08,,-0.05,-0.01,1.02,-1,-3,3,0,1650,0,,,,,,,,,,,,,,,
3373734,1501039476283,,,,,,,,,0,1680,0,,,,,,,,,,,,,,,
3373744,1501039476293,,,,,,,,,0,1695,0,36.113659,-115.145653,0.0,6.575,2050.5,9,2,1.9,0,0.0,-1,0.0,0.0,0.0,0
3373754,1501039476303,,,,,,,,,0,1695,0,,,,,,,,,,,,,,,
3373764,1501039476313,3.09,,-0.02,-0.01,1.01,-1,-6,3,0,1680,0,,,,,,,,,,,,,,,
3373774,1501039476323,,,,,,,,,0,1680,0,,,,,,,,,,,,,,,
3373784,1501039476333,,,,,,,,,0,1665,0,,,,,,,,,,,,,,,
3373794,1501039476343,,,,,,,,,0,1650,0,,,,,,,,,,,,,,,
3373804,1501039476353,3.03,,-0.01,-0.04,0.99,-1,-7,3,0,1680,0,,,,,,,,,,,,,,,
3373814,1501039476363,,,,,,,,,0,1695,0,,,,,,,,,,,,,,,
3373824,1501039476373,,,,,,,,,0,1680,0,,,,,,,,,,,,,,,
3373834,1501039476383,,,,,,,,,0,1665,0,,,,,,,,,,,,,,,
3373844,1501039476393,3.07,,-0.04,-0.03,1.01,-1,-3,2,0,1665,0,36.113659,-115.145653,0.0,6.575,2050.5,9,2,1.9,0,0.0,-1,0.0,0.0,0.0,0
3373854,1501039476403,,,,,,,,,0,1650,0,,,,,,,,,,,,,,,
3373864,1501039476413,,,,,,,,,0,1650,0,,,,,,,,,,,,,,,
3373874,1501039476423,,,,,,,,,0,1635,0,,,,,,,,,,,,,,,
3373884,1501039476433,3.07,,-0.04,-0.02,1.04,-1,-2,2,0,1665,0,,,,,,,,,,,,,,,
3373894,1501039476443,,,,,,,,,0,1665,0,,,,,,,,,,,,,,,
3373904,1501039476453,,,,,,,,,0,1650,0,,,,,,,,,,,,,,,
3373914,1501039476463,,,,,,,,,0,1650,0,,,,,,,,,,,,,,,
3373924,1501039476473,3.07,,-0.03,-0.03,1.02,-1,-4,1,0,1635,0,,,,,,,,,,,,,,,
3373934,1501039476483,,,,,,,,,0,1635,0,,,,,,,,,,,,,,,
3373944,1501039476493,,,,,,,,,0,1620,0,36.113659,-115.145653,0.0,6.575,2050.5,9,2,1.9,0,0.0,-1,0.0,0.0,0.0,0
3373954,1501039476503,,,,,,,,,0,1665,0,,,,,,,,,,,,,,,
3373964,1501039476513,3.05,,-0.02,-0.03,1.0,-1,-6,2,0,1665,0,,,,,,,,,,,,,,,
3373974,1501039476523,,,,,,,,,0,1665,0,,,,,,,,,,,,,,,
3373984,1501039476533,,,,,,,,,0,1650,0,,,,,,,,,,,,,,,
3373994,1501039476543,,,,,,,,,0,1650,0,,,,,,,,,,,,,,,
3374004,1501039476553,3.08,,-0.04,-0.03,0.99,-1,-5,3,0,1635,0,,,,,,,,,,,,,,,
3374014,1501039476563,,,,,,,,,0,1620,0,,,,,,,,,,,,,,,
3374024,1501039476573,,,,,,,,,0,1665,0,,,,,,,,,,,,,,,
3374034,1501039476583,,,,,,,,,0,1665,0,,,,,,,,,,,,,,,
3374044,1501039476593,3.07,4.47,-0.05,-0.04,1.0,-1,-3,4,0,1665,0,36.113659,-115.145653,0.0,6.575,2050.5,9,2,1.9,0,0.0,-1,0.0,0.0,0.0,0
3374054,1501039476603,,,,,,,,,0,1650,0,,,,,,,,,,,,,,,
3374064,1501039476613,,,,,,,,,0,1650,0,,,,,,,,,,,,,,,
3374074,1501039476623,,,,,,,,,0,1635,0,,,,,,,,,,,,,,,
3374084,1501039476633,3.03,,-0.06,-0.01,1.02,-2,-3,4,0,1620,0,,,,,,,,,,,,,,,
3374094,1501039476643,,,,,,,,,0,1665,0,,,,,,,,,,,,,,,
3374104,1501039476653,,,,,,,,,0,1665,0,,,,,,,,,,,,,,,
3374114,1501039476663,,,,,,,,,0,1665,0,,,,,,,,,,,,,,,
3374124,1501039476673,3.08,,-0.03,-0.01,1.01,-2,-6,5,0,1650,0,,,,,,,,,,,,,,,
3374134,1501039476683,,,,,,,,,0,1665,0,,,,,,,,,,,,,,,
3374144,1501039476693,,,,,,,,,0,1650,0,36.113659,-115.145653,0.0,6.575,2050.5,9,2,1.9,0,0.0,-1,0.0,0.0,0.0,0
3374154,1501039476703,,,,,,,,,0,1635,0,,,,,,,,,,,,,,,
3374164,1501039476713,3.08,,-0.01,-0.04,0.99,-2,-8,4,0,1620,0,,,,,,,,,,,,,,,
3374174,1501039476723,,,,,,,,,0,1665,0,,,,,,,,,,,,,,,
3374184,1501039476733,,,,,,,,,0,1665,0,,,,,,,,,,,,,,,
3374194,1501039476743,,,,,,,,,0,1665,0,,,,,,,,,,,,,,,
3374204,1501039476753,3.07,,-0.03,-0.04,0.99,-2,-6,5,0,1650,0,,,,,,,,,,,,,,,
3374214,1501039476763,,,,,,,,,0,1650,0,,,,,,,,,,,,,,,
3374224,1501039476773,,,,,,,,,0,1635,0,,,,,,,,,,,,,,,
3374234,1501039476783,,,,,,,,,0,1635,0,,,,,,,,,,,,,,,
3374244,1501039476793,3.07,,-0.03,-0.02,1.01,-2,-4,5,0,1650,0,36.113659,-115.145653,0.0,6.575,2050.5,9,2,1.9,0,0.0,-1,0.0,0.0,0.0,0
3374254,1501039476803,,,,,,,,,0,1650,0,,,,,,,,,,,,,,,
3374264,1501039476813,,,,,,,,,0,1635,0,,,,,,,,,,,,,,,
3374274,1501039476823,,,,,,,,,0,1620,0,,,,,,,,,,,,,,,
3374284,1501039476833,3.02,,-0.04,-0.02,1.02,-2,-4,4,0,1620,0,,,,,,,,,,,,,,,
3374294,1501039476843,,,,,,,,,0,1605,0,,,,,,,,,,,,,,,
3374304,1501039476853,,,,,,,,,0,1605,0,,,,,,,,,,,,,,,
3374314,1501039476863,,,,,,,,,0,1650,0,,,,,,,,,,,,,,,
3374324,1501039476873,3.07,,-0.02,-0.02,1.02,-1,-6,4,0,1665,0,,,,,,,,,,,,,,,
3374334,1501039476883,,,,,,,,,0,1650,0,,,,,,,,,,,,,,,
3374344,1501039476893,,,,,,,,,0,1635,0,36.113659,-115.145653,0.0,6.575,2050.5,9,2,1.9,0,0.0,-1,0.0,0.0,0.0,0
3374354,1501039476903,,,,,,,,,0,1650,0,,,,,,,,,,,,,,,
3374364,1501039476913,3.07,,-0.02,-0.03,1.01,-1,-8,3,0,1635,0,,,,,,,,,,,,,,,
3374374,1501039476923,,,,,,,,,0,1620,0,,,,,,,,,,,,,,,
3374384,1501039476933,,,,,,,,,0,1665,0,,,,,,,,,,,,,,,
3374394,1501039476943,,,,,,,,,0,1665,0,,,,,,,,,,,,,,,
3374404,1501039476953,3.08,,-0.04,-0.04,0.99,-1,-6,4,0,1665,0,,,,,,,,,,,,,,,
3374414,1501039476963,,,,,,,,,0,1650,0,,,,,,,,,,,,,,,
3374424,1501039476973,,,,,,,,,0,1665,0,,,,,,,,,,,,,,,
3374434,1501039476983,,,,,,,,,0,1635,0,,,,,,,,,,,,,,,
3374444,1501039476993,3.07,,-0.04,-0.03,1.0,-1,-4,3,0,1635,0,36.113659,-115.145653,0.0,6.575,2050.5,9,2,1.9,0,0.0,-1,0.0,0.0,0.0,0
3374454,1501039476997,,,,,,,,,0,1620,0,,,,,,,,,,,,,,,
3374464,1501039477007,,,,,,,,,0,1680,0,,,,,,,,,,,,,,,
3374474,1501039477017,,,,,,,,,0,1680,0,,,,,,,,,,,,,,,
3374484,1501039477027,3.08,,-0.03,-0.01,1.02,-1,-4,3,0,1665,0,,,,,,,,,,,,,,,
3374494,1501039477037,,,,,,,,,0,1680,0,,,,,,,,,,,,,,,
3374504,1501039477047,,,,,,,,,0,1665,0,,,,,,,,,,,,,,,
3374514,1501039477057,,,,,,,,,0,1650,0,,,,,,,,,,,,,,,
3374524,1501039477067,3.08,,-0.01,-0.02,1.02,-1,-6,2,0,1650,0,,,,,,,,,,,,,,,
3374534,1501039477077,,,,,,,,,0,1680,0,,,,,,,,,,,,,,,
3374544,1501039477092,,,,,,,,,0,1695,0,36.113659,-115.145653,0.0,6.575,2050.5,9,2,1.9,0,0.0,-1,0.0,0.0,0.0,0
3374554,1501039477102,,,,,,,,,0,1680,0,,,,,,,,,,,,,,,
3374564,1501039477112,3.08,,0.0,-0.03,0.98,-1,-6,2,0,1680,0,,,,,,,,,,,,,,,
3374574,1501039477122,,,,,,,,,0,1665,0,,,,,,,,,,,,,,,
3374584,1501039477132,,,,,,,,,0,1665,0,,,,,,,,,,,,,,,
3374594,1501039477142,,,,,,,,,0,1650,0,,,,,,,,,,,,,,,
3374604,1501039477152,3.07,,-0.02,-0.03,0.99,-2,-3,3,0,1680,0,,,,,,,,,,,,,,,
3374614,1501039477162,,,,,,,,,0,1695,0,,,,,,,,,,,,,,,
3374624,1501039477172,,,,,,,,,0,1695,0,,,,,,,,,,,,,,,
3374634,1501039477182,,,,,,,,,0,1680,0,,,,,,,,,,,,,,,
3374644,1501039477192,3.07,,-0.04,-0.02,1.0,-2,-3,4,0,1665,0,36.113659,-115.145653,0.0,6.575,2050.5,9,2,1.9,0,0.0,-1,0.0,0.0,0.0,0
3374654,1501039477202,,,,,,,,,0,1665,0,,,,,,,,,,,,,,,
3374664,1501039477212,,,,,,,,,0,1650,0,,,,,,,,,,,,,,,
3374674,1501039477222,,,,,,,,,0,1680,0,,,,,,,,,,,,,,,
3374684,1501039477232,3.07,,-0.02,-0.02,1.0,-1,-6,4,0,1680,0,,,,,,,,,,,,,,,
3374694,1501039477242,,,,,,,,,0,1665,0,,,,,,,,,,,,,,,
3374704,1501039477252,,,,,,,,,0,1665,0,,,,,,,,,,,,,,,
3374714,1501039477262,,,,,,,,,0,1665,0,,,,,,,,,,,,,,,
3374724,1501039477272,3.07,,-0.02,-0.03,0.99,-1,-7,3,0,1635,0,,,,,,,,,,,,,,,
3374734,1501039477282,,,,,,,,,0,1635,0,,,,,,,,,,,,,,,
3374744,1501039477292,,,,,,,,,0,1650,0,36.113659,-115.145653,0.0,6.575,2050.5,9,2,1.9,0,0.0,-1,0.0,0.0,0.0,0
3374754,1501039477302,,,,,,,,,0,1665,0,,,,,,,,,,,,,,,
3374764,1501039477312,3.08,,-0.03,-0.04,1.0,-1,-3,4,0,1665,0,,,,,,,,,,,,,,,
3374774,1501039477322,,,,,,,,,0,1650,0,,,,,,,,,,,,,,,
3374784,1501039477332,,,,,,,,,0,1650,0,,,,,,,,,,,,,,,
3374794,1501039477342,,,,,,,,,0,1635,0,,,,,,,,,,,,,,,
3374804,1501039477352,3.08,,-0.04,-0.02,1.05,-1,-3,2,0,1635,0,,,,,,,,,,,,,,,
3374814,1501039477362,,,,,,,,,0,1620,0,,,,,,,,,,,,,,,
3374824,1501039477372,,,,,,,,,0,1665,0,,,,,,,,,,,,,,,
3374834,1501039477382,,,,,,,,,0,1665,0,,,,,,,,,,,,,,,
3374844,1501039477392,3.08,,-0.03,-0.0,1.04,-1,-4,3,0,1650,0,36.113659,-115.145653,0.0,6.575,2050.5,9,2,1.9,0,0.0,-1,0.0,0.0,0.0,0
3374854,1501039477402,,,,,,,,,0,1650,0,,,,,,,,,,,,,,,
3374864,1501039477412,,,,,,,,,0,1635,0,,,,,,,,,,,,,,,
3374874,1501039477422,,,,,,,,,0,1620,0,,,,,,,,,,,,,,,
3374884,1501039477432,3.08,,-0.01,-0.01,1.02,-1,-6,3,0,1605,0,,,,,,,,,,,,,,,
3374894,1501039477442,,,,,,,,,0,1665,0,,,,,,,,,,,,,,,
3374904,1501039477452,,,,,,,,,0,1665,0,,,,,,,,,,,,,,,
3374914,1501039477462,,,,,,,,,0,1665,0,,,,,,,,,,,,,,,
3374924,1501039477472,3.03,,0.0,-0.03,0.99,-2,-6,3,0,1650,0,,,,,,,,,,,,,,,
3374934,1501039477482,,,,,,,,,0,1635,0,,,,,,,,,,,,,,,
3374944,1501039477492,,,,,,,,,0,1635,0,36.113659,-115.145653,0.0,6.575,2050.5,9,2,1.9,0,0.0,-1,0.0,0.0,0.0,0
3374954,1501039477502,,,,,,,,,0,1620,0,,,,,,,,,,,,,,,
3374964,1501039477512,3.08,,-0.02,-0.02,1.0,-2,-3,3,0,1665,0,,,,,,,,,,,,,,,
3374974,1501039477522,,,,,,,,,0,1650,0,,,,,,,,,,,,,,,
3374984,1501039477532,,,,,,,,,0,1650,0,,,,,,,,,,,,,,,
3374994,1501039477542,,,,,,,,,0,1635,0,,,,,,,,,,,,,,,
3375004,1501039477552,3.07,,-0.04,-0.01,1.02,-2,-1,4,0,1635,0,,,,,,,,,,,,,,,
3375014,1501039477562,,,,,,,,,0,1620,0,,,,,,,,,,,,,,,
3375024,1501039477572,,,,,,,,,0,1620,0,,,,,,,,,,,,,,,
3375034,1501039477582,,,,,,,,,0,1650,0,,,,,,,,,,,,,,,
3375044,1501039477594,3.07,4.5,-0.04,-0.01,1.01,-2,-2,4,0,1650,0,36.113659,-115.145653,0.0,6.575,2050.5,9,2,1.9,0,0.0,-1,0.0,0.0,0.0,0
3375054,1501039477604,,,,,,,,,0,1650,0,,,,,,,,,,,,,,,
3375064,1501039477614,,,,,,,,,0,1635,0,,,,,,,,,,,,,,,
3375074,1501039477624,,,,,,,,,0,1635,0,,,,,,,,,,,,,,,
3375084,1501039477634,3.07,,-0.03,-0.02,0.99,-2,-5,5,0,1620,0,,,,,,,,,,,,,,,
3375094,1501039477644,,,,,,,,,0,1620,0,,,,,,,,,,,,,,,
3375104,1501039477654,,,,,,,,,0,1605,0,,,,,,,,,,,,,,,
3375114,1501039477664,,,,,,,,,0,1650,0,,,,,,,,,,,,,,,
3375124,1501039477674,3.07,,-0.03,-0.03,1.0,-2,-6,4,0,1650,0,,,,,,,,,,,,,,,
3375134,1501039477684,,,,,,,,,0,1650,0,,,,,,,,,,,,,,,
3375144,1501039477694,,,,,,,,,0,1635,0,36.113659,-115.145653,0.0,6.575,2050.5,9,2,1.9,0,0.0,-1,0.0,0.0,0.0,0
3375154,1501039477704,,,,,,,,,0,1635,0,,,,,,,,,,,,,,,
3375164,1501039477714,3.08,,-0.03,-0.03,1.01,-2,-4,5,0,1620,0,,,,,,,,,,,,,,,
3375174,1501039477724,,,,,,,,,0,1605,0,,,,,,,,,,,,,,,
3375184,1501039477734,,,,,,,,,0,1635,0,,,,,,,,,,,,,,,
3375194,1501039477744,,,,,,,,,0,1650,0,,,,,,,,,,,,,,,
3375204,1501039477754,3.09,,-0.05,-0.03,1.02,-2,-2,4,0,1650,0,,,,,,,,,,,,,,,
3375214,1501039477764,,,,,,,,,0,1620,0,,,,,,,,,,,,,,,
3375224,1501039477774,,,,,,,,,0,1635,0,,,,,,,,,,,,,,,
3375234,1501039477784,,,,,,,,,0,1620,0,,,,,,,,,,,,,,,
3375244,1501039477794,3.04,,-0.04,-0.01,1.02,-2,-3,4,0,1590,0,36.113659,-115.145653,0.0,6.575,2050.5,9,2,1.9,0,0.0,-1,0.0,0.0,0.0,0
3375254,1501039477804,,,,,,,,,0,1665,0,,,,,,,,,,,,,,,
3375264,1501039477814,,,,,,,,,0,1665,0,,,,,,,,,,,,,,,
3375274,1501039477824,,,,,,,,,0,1665,0,,,,,,,,,,,,,,,
3375284,1501039477834,3.09,,-0.02,-0.01,1.01,-2,-5,5,0,1650,0,,,,,,,,,,,,,,,
3375294,1501039477844,,,,,,,,,0,1665,0,,,,,,,,,,,,,,,
3375304,1501039477854,,,,,,,,,0,1635,0,,,,,,,,,,,,,,,
3375314,1501039477864,,,,,,,,,0,1635,0,,,,,,,,,,,,,,,
3375324,1501039477874,3.08,,0.01,-0.04,0.97,-2,-7,4,0,1620,0,,,,,,,,,,,,,,,
3375334,1501039477884,,,,,,,,,0,1680,0,,,,,,,,,,,,,,,
3375344,1501039477892,,,,,,,,,0,1680,0,36.113659,-115.145653,0.0,6.575,2050.5,9,2,2.3,0,0.0,-1,0.0,0.0,0.0,0
3375354,1501039477902,,,,,,,,,0,1665,0,,,,,,,,,,,,,,,
3375364,1501039477912,3.08,,-0.02,-0.04,0.97,-2,-5,4,0,1665,0,,,,,,,,,,,,,,,
3375374,1501039477922,,,,,,,,,0,1665,0,,,,,,,,,,,,,,,
3375384,1501039477932,,,,,,,,,0,1650,0,,,,,,,,,,,,,,,
3375394,1501039477942,,,,,,,,,0,1635,0,,,,,,,,,,,,,,,
3375404,1501039477952,3.07,,-0.03,-0.03,0.99,-2,-3,4,0,1665,0,,,,,,,,,,,,,,,
3375414,1501039477962,,,,,,,,,0,1680,0,,,,,,,,,,,,,,,
3375424,1501039477972,,,,,,,,,0,1650,0,,,,,,,,,,,,,,,
3375434,1501039477982,,,,,,,,,0,1650,0,,,,,,,,,,,,,,,
3375444,1501039477992,3.08,,-0.03,-0.03,1.01,-1,-5,4,0,1650,0,36.113659,-115.145653,0.0,6.575,2050.5,9,2,2.3,0,0.0,-1,0.0,0.0,0.0,0
3375454,1501039477996,,,,,,,,,0,1635,0,,,,,,,,,,,,,,,
3375464,1501039478006,,,,,,,,,0,1620,0,,,,,,,,,,,,,,,
3375474,1501039478016,,,,,,,,,0,1680,0,,,,,,,,,,,,,,,
3375484,1501039478026,3.07,,-0.02,-0.02,1.0,-1,-8,4,0,1680,0,,,,,,,,,,,,,,,
3375494,1501039478036,,,,,,,,,0,1665,0,,,,,,,,,,,,,,,
3375504,1501039478046,,,,,,,,,0,1665,0,,,,,,,,,,,,,,,
3375514,1501039478056,,,,,,,,,0,1650,0,,,,,,,,,,,,,,,
3375524,1501039478066,3.05,,-0.04,-0.03,0.98,-1,-7,3,0,1635,0,,,,,,,,,,,,,,,
3375534,1501039478076,,,,,,,,,0,1635,0,,,,,,,,,,,,,,,
3375544,1501039478091,,,,,,,,,0,1665,0,36.113659,-115.145653,0.0,6.575,2050.5,9,2,1.9,0,0.0,-1,0.0,0.0,0.0,0
3375554,1501039478101,,,,,,,,,0,1680,0,,,,,,,,,,,,,,,
3375564,1501039478111,3.08,,-0.05,-0.04,0.99,-1,-5,4,0,1665,0,,,,,,,,,,,,,,,
3375574,1501039478121,,,,,,,,,0,1650,0,,,,,,,,,,,,,,,
3375584,1501039478131,,,,,,,,,0,1665,0,,,,,,,,,,,,,,,
3375594,1501039478141,,,,,,,,,0,1650,0,,,,,,,,,,,,,,,
3375604,1501039478151,3.08,,-0.06,-0.01,1.0,-1,-3,3,0,1635,0,,,,,,,,,,,,,,,
3375614,1501039478161,,,,,,,,,0,1665,0,,,,,,,,,,,,,,,
3375624,1501039478171,,,,,,,,,0,1680,0,,,,,,,,,,,,,,,
3375634,1501039478181,,,,,,,,,0,1665,0,,,,,,,,,,,,,,,
3375644,1501039478193,3.09,,-0.03,-0.01,1.0,-2,-6,4,0,1650,0,36.113659,-115.145653,0.0,6.575,2050.5,9,2,1.9,0,0.0,-1,0.0,0.0,0.0,0
3375654,1501039478203,,,,,,,,,0,1665,0,,,,,,,,,,,,,,,
3375664,1501039478213,,,,,,,,,0,1650,0,,,,,,,,,,,,,,,
3375674,1501039478223,,,,,,,,,0,1635,0,,,,,,,,,,,,,,,
3375684,1501039478233,3.08,,-0.01,-0.04,0.98,-1,-8,4,0,1635,0,,,,,,,,,,,,,,,
3375694,1501039478243,,,,,,,,,0,1650,0,,,,,,,,,,,,,,,
3375704,1501039478253,,,,,,,,,0,1665,0,,,,,,,,,,,,,,,
3375714,1501039478263,,,,,,,,,0,1650,0,,,,,,,,,,,,,,,
3375724,1501039478273,3.07,,-0.03,-0.03,0.99,-2,-6,4,0,1650,0,,,,,,,,,,,,,,,
3375734,1501039478283,,,,,,,,,0,1635,0,,,,,,,,,,,,,,,
3375744,1501039478293,,,,,,,,,0,1620,0,36.113659,-115.145653,0.0,6.575,2050.5,9,2,1.9,0,0.0,-1,0.0,0.0,0.0,0
3375754,1501039478303,,,,,,,,,0,1620,0,,,,,,,,,,,,,,,
3375764,1501039478313,3.07,,-0.03,-0.02,1.0,-2,-3,5,0,1650,0,,,,,,,,,,,,,,,
3375774,1501039478323,,,,,,,,,0,1665,0,,,,,,,,,,,,,,,
3375784,1501039478333,,,,,,,,,0,1650,0,,,,,,,,,,,,,,,
3375794,1501039478343,,,,,,,,,0,1635,0,,,,,,,,,,,,,,,
3375804,1501039478353,3.03,,-0.05,-0.02,1.02,-2,-4,4,0,1635,0,,,,,,,,,,,,,,,
3375814,1501039478363,,,,,,,,,0,1620,0,,,,,,,,,,,,,,,
3375824,1501039478373,,,,,,,,,0,1620,0,,,,,,,,,,,,,,,
3375834,1501039478383,,,,,,,,,0,1665,0,,,,,,,,,,,,,,,
3375844,1501039478393,3.07,,-0.03,-0.02,1.02,-2,-5,4,0,1680,0,36.113659,-115.145653,0.0,6.575,2050.5,9,2,1.9,0,0.0,-1,0.0,0.0,0.0,0
3375854,1501039478403,,,,,,,,,0,1665,0,,,,,,,,,,,,,,,
3375864,1501039478413,,,,,,,,,0,1665,0,,,,,,,,,,,,,,,
3375874,1501039478423,,,,,,,,,0,1665,0,,,,,,,,,,,,,,,
3375884,1501039478433,3.07,,-0.02,-0.03,1.01,-1,-7,3,0,1650,0,,,,,,,,,,,,,,,
3375894,1501039478443,,,,,,,,,0,1635,0,,,,,,,,,,,,,,,
3375904,1501039478453,,,,,,,,,0,1665,0,,,,,,,,,,,,,,,
3375914,1501039478463,,,,,,,,,0,1665,0,,,,,,,,,,,,,,,
