"Interval"|"ms"|0|0|1,"Utc"|"ms"|0|0|1,"Analog1"|""|0.0|5.0|25,"Battery"|"Volts"|0.0|20.0|1,"AccelX"|"G"|-3.0|3.0|25,"AccelY"|"G"|-3.0|3.0|25,"AccelZ"|"G"|-3.0|3.0|25,"Yaw"|"Deg/Sec"|-120|120|25,"Pitch"|"Deg/Sec"|-120|120|25,"Roll"|"Deg/Sec"|-120|120|25,"RPM"|""|0|10000|100,"EngineRPM"|""|0|10000|100,"AxleRpm"|""|0|10000|100,"Latitude"|"Degrees"|-180.0|180.0|10,"Longitude"|"Degrees"|-180.0|180.0|10,"Speed"|"mph"|0.0|150.0|10,"Distance"|"mi"|0.0|0.0|10,"Altitude"|"ft"|0.0|4000.0|10,"GPSSats"|""|0|20|10,"GPSQual"|""|0|5|10,"GPSDOP"|""|0.0|20.0|10,"LapCount"|""|0|0|10,"LapTime"|"Min"|0.0|0.0|10,"Sector"|""|0|0|10,"SectorTime"|"Min"|0.0|0.0|10,"PredTime"|"Min"|0.0|0.0|10,"ElapsedTime"|"Min"|0.0|0.0|10,"CurrentLap"|""|0|0|10
3764534,1501039867079,,,,,,,,,0,1650,0,,,,,,,,,,,,,,,
3764544,1501039867095,,,,,,,,,0,1620,0,36.11335,-115.146065,0.0,7.655,2037.9,9,2,1.9,0,0.0,-1,0.0,0.0,0.0,0
3764554,1501039867105,,,,,,,,,0,1590,0,,,,,,,,,,,,,,,
3764564,1501039867115,3.31,,-0.04,-0.04,1.05,-1,-7,2,0,1560,0,,,,,,,,,,,,,,,
3764574,1501039867125,,,,,,,,,0,1530,0,,,,,,,,,,,,,,,
3764584,1501039867135,,,,,,,,,0,1500,0,,,,,,,,,,,,,,,
3764594,1501039867145,,,,,,,,,0,1425,0,,,,,,,,,,,,,,,
3764604,1501039867155,3.29,,-0.03,-0.04,1.09,-2,-9,2,0,1590,0,,,,,,,,,,,,,,,
3764614,1501039867165,,,,,,,,,0,1650,0,,,,,,,,,,,,,,,
3764624,1501039867175,,,,,,,,,0,1620,0,,,,,,,,,,,,,,,
3764634,1501039867185,,,,,,,,,0,1590,0,,,,,,,,,,,,,,,
3764644,1501039867197,3.32,,-0.01,-0.05,1.02,-1,-8,2,0,1575,0,36.11335,-115.146065,0.0,7.655,2037.9,9,2,1.9,0,0.0,-1,0.0,0.0,0.0,0
3764654,1501039867207,,,,,,,,,0,1530,0,,,,,,,,,,,,,,,
3764664,1501039867217,,,,,,,,,0,1500,0,,,,,,,,,,,,,,,
3764674,1501039867227,,,,,,,,,0,1590,0,,,,,,,,,,,,,,,
3764684,1501039867237,3.28,,-0.04,-0.04,1.04,-1,-7,3,0,1635,0,,,,,,,,,,,,,,,
3764694,1501039867247,,,,,,,,,0,1620,0,,,,,,,,,,,,,,,
3764704,1501039867257,,,,,,,,,0,1590,0,,,,,,,,,,,,,,,
3764714,1501039867267,,,,,,,,,0,1560,0,,,,,,,,,,,,,,,
3764724,1501039867277,3.3,,-0.03,-0.01,1.0,-1,-6,3,0,1530,0,,,,,,,,,,,,,,,
3764734,1501039867287,,,,,,,,,0,1485,0,,,,,,,,,,,,,,,
3764744,1501039867297,,,,,,,,,0,1410,0,36.11335,-115.146065,0.0,7.655,2037.9,9,2,1.9,0,0.0,-1,0.0,0.0,0.0,0
3764754,1501039867307,,,,,,,,,0,1590,0,,,,,,,,,,,,,,,
3764764,1501039867317,3.29,,-0.03,-0.02,0.95,-1,-5,4,0,1635,0,,,,,,,,,,,,,,,
3764774,1501039867327,,,,,,,,,0,1620,0,,,,,,,,,,,,,,,
3764784,1501039867337,,,,,,,,,0,1590,0,,,,,,,,,,,,,,,
3764794,1501039867347,,,,,,,,,0,1560,0,,,,,,,,,,,,,,,
3764804,1501039867357,3.31,,-0.02,-0.03,0.94,-1,-4,4,0,1530,0,,,,,,,,,,,,,,,
3764814,1501039867367,,,,,,,,,0,1485,0,,,,,,,,,,,,,,,
3764824,1501039867377,,,,,,,,,0,1410,0,,,,,,,,,,,,,,,
3764834,1501039867387,,,,,,,,,0,1590,0,,,,,,,,,,,,,,,
3764844,1501039867395,3.32,,0.04,-0.05,0.93,-1,-6,4,0,1650,0,36.11335,-115.146065,0.0,7.655,2037.9,9,2,1.9,0,0.0,-1,0.0,0.0,0.0,0
3764854,1501039867405,,,,,,,,,0,1620,0,,,,,,,,,,,,,,,
3764864,1501039867415,,,,,,,,,0,1590,0,,,,,,,,,,,,,,,
3764874,1501039867425,,,,,,,,,0,1560,0,,,,,,,,,,,,,,,
3764884,1501039867435,3.31,,0.02,-0.05,0.98,-1,-4,3,0,1530,0,,,,,,,,,,,,,,,
3764894,1501039867445,,,,,,,,,0,1485,0,,,,,,,,,,,,,,,
3764904,1501039867455,,,,,,,,,0,1410,0,,,,,,,,,,,,,,,
3764914,1501039867465,,,,,,,,,0,1650,0,,,,,,,,,,,,,,,
3764924,1501039867475,3.27,,0.05,-0.05,1.01,-1,-3,3,0,1620,0,,,,,,,,,,,,,,,
3764934,1501039867485,,,,,,,,,0,1590,0,,,,,,,,,,,,,,,
3764944,1501039867496,,,,,,,,,0,1575,0,36.11335,-115.146065,0.0,7.655,2037.9,9,2,1.9,0,0.0,-1,0.0,0.0,0.0,0
3764954,1501039867506,,,,,,,,,0,1530,0,,,,,,,,,,,,,,,
3764964,1501039867516,3.31,,0.01,-0.06,1.03,-1,-3,3,0,1485,0,,,,,,,,,,,,,,,
3764974,1501039867526,,,,,,,,,0,1425,0,,,,,,,,,,,,,,,
3764984,1501039867536,,,,,,,,,0,1590,0,,,,,,,,,,,,,,,
3764994,1501039867546,,,,,,,,,0,1650,0,,,,,,,,,,,,,,,
3765004,1501039867556,3.3,,-0.04,-0.07,1.05,-1,0,3,0,1620,0,,,,,,,,,,,,,,,
3765014,1501039867566,,,,,,,,,0,1590,0,,,,,,,,,,,,,,,
3765024,1501039867576,,,,,,,,,0,1575,0,,,,,,,,,,,,,,,
3765034,1501039867586,,,,,,,,,0,1530,0,,,,,,,,,,,,,,,
3765044,1501039867596,3.3,4.51,-0.05,-0.07,1.05,-1,-1,2,0,1485,0,36.11335,-115.146065,0.0,7.655,2037.9,9,2,1.9,0,0.0,-1,0.0,0.0,0.0,0
3765054,1501039867606,,,,,,,,,0,1425,0,,,,,,,,,,,,,,,
3765064,1501039867616,,,,,,,,,0,1590,0,,,,,,,,,,,,,,,
3765074,1501039867626,,,,,,,,,0,1650,0,,,,,,,,,,,,,,,
3765084,1501039867636,3.29,,-0.04,-0.07,1.03,-1,-0,1,0,1620,0,,,,,,,,,,,,,,,
3765094,1501039867646,,,,,,,,,0,1590,0,,,,,,,,,,,,,,,
3765104,1501039867656,,,,,,,,,0,1560,0,,,,,,,,,,,,,,,
3765114,1501039867666,,,,,,,,,0,1530,0,,,,,,,,,,,,,,,
3765124,1501039867676,3.31,,-0.03,-0.08,1.07,-1,-1,1,0,1485,0,,,,,,,,,,,,,,,
3765134,1501039867686,,,,,,,,,0,1425,0,,,,,,,,,,,,,,,
3765144,1501039867696,,,,,,,,,0,1590,0,36.11335,-115.146065,0.0,7.655,2037.9,9,2,1.9,0,0.0,-1,0.0,0.0,0.0,0
3765154,1501039867706,,,,,,,,,0,1620,0,,,,,,,,,,,,,,,
3765164,1501039867716,3.26,,-0.07,-0.08,1.03,-1,-1,3,0,1590,0,,,,,,,,,,,,,,,
3765174,1501039867726,,,,,,,,,0,1575,0,,,,,,,,,,,,,,,
3765184,1501039867736,,,,,,,,,0,1530,0,,,,,,,,,,,,,,,
3765194,1501039867746,,,,,,,,,0,1500,0,,,,,,,,,,,,,,,
3765204,1501039867756,3.32,,-0.08,-0.07,1.03,-1,-3,5,0,1425,0,,,,,,,,,,,,,,,
3765214,1501039867766,,,,,,,,,0,1605,0,,,,,,,,,,,,,,,
3765224,1501039867776,,,,,,,,,0,1650,0,,,,,,,,,,,,,,,
3765234,1501039867786,,,,,,,,,0,1620,0,,,,,,,,,,,,,,,
3765244,1501039867796,3.31,,-0.06,-0.06,0.97,-2,-3,5,0,1605,0,36.11335,-115.146065,0.0,7.655,2037.9,9,2,1.9,0,0.0,-1,0.0,0.0,0.0,0
3765254,1501039867806,,,,,,,,,0,1575,0,,,,,,,,,,,,,,,
3765264,1501039867816,,,,,,,,,0,1530,0,,,,,,,,,,,,,,,
3765274,1501039867826,,,,,,,,,0,1500,0,,,,,,,,,,,,,,,
3765284,1501039867836,3.3,,-0.04,-0.05,0.96,-2,-5,5,0,1425,0,,,,,,,,,,,,,,,
3765294,1501039867846,,,,,,,,,0,1590,0,,,,,,,,,,,,,,,
3765304,1501039867856,,,,,,,,,0,1650,0,,,,,,,,,,,,,,,
3765314,1501039867866,,,,,,,,,0,1620,0,,,,,,,,,,,,,,,
3765324,1501039867876,3.28,,-0.02,-0.08,0.91,-1,-7,5,0,1590,0,,,,,,,,,,,,,,,
3765334,1501039867886,,,,,,,,,0,1560,0,,,,,,,,,,,,,,,
3765344,1501039867896,,,,,,,,,0,1530,0,36.11335,-115.146065,0.0,7.655,2037.9,9,2,1.9,0,0.0,-1,0.0,0.0,0.0,0
3765354,1501039867906,,,,,,,,,0,1485,0,,,,,,,,,,,,,,,
3765364,1501039867916,3.28,,-0.02,-0.09,0.89,-1,-8,5,0,1425,0,,,,,,,,,,,,,,,
3765374,1501039867926,,,,,,,,,0,1590,0,,,,,,,,,,,,,,,
3765384,1501039867936,,,,,,,,,0,1620,0,,,,,,,,,,,,,,,
3765394,1501039867946,,,,,,,,,0,1590,0,,,,,,,,,,,,,,,
3765404,1501039867956,3.24,,-0.0,-0.1,0.94,-1,-5,5,0,1575,0,,,,,,,,,,,,,,,
3765414,1501039867966,,,,,,,,,0,1530,0,,,,,,,,,,,,,,,
3765424,1501039867976,,,,,,,,,0,1485,0,,,,,,,,,,,,,,,
3765434,1501039867986,,,,,,,,,0,1425,0,,,,,,,,,,,,,,,
3765444,1501039867996,3.3,,-0.02,-0.1,0.91,-1,-6,3,0,1590,0,36.11335,-115.146065,0.0,7.655,2037.9,9,2,1.9,0,0.0,-1,0.0,0.0,0.0,0
3765454,1501039868000,,,,,,,,,0,1635,0,,,,,,,,,,,,,,,
3765464,1501039868010,,,,,,,,,0,1620,0,,,,,,,,,,,,,,,
3765474,1501039868020,,,,,,,,,0,1590,0,,,,,,,,,,,,,,,
3765484,1501039868030,3.3,,-0.02,-0.09,0.95,-1,-5,1,0,1575,0,,,,,,,,,,,,,,,
3765494,1501039868040,,,,,,,,,0,1530,0,,,,,,,,,,,,,,,
3765504,1501039868050,,,,,,,,,0,1485,0,,,,,,,,,,,,,,,
3765514,1501039868060,,,,,,,,,0,1425,0,,,,,,,,,,,,,,,
3765524,1501039868070,3.32,,-0.05,-0.04,0.95,-1,-3,3,0,1590,0,,,,,,,,,,,,,,,
3765534,1501039868080,,,,,,,,,0,1650,0,,,,,,,,,,,,,,,
3765544,1501039868096,,,,,,,,,0,1635,0,36.11335,-115.146065,0.0,7.655,2037.9,9,2,1.9,0,0.0,-1,0.0,0.0,0.0,0
3765554,1501039868106,,,,,,,,,0,1590,0,,,,,,,,,,,,,,,
3765564,1501039868116,3.32,,-0.04,-0.04,1.0,-1,-1,3,0,1575,0,,,,,,,,,,,,,,,
3765574,1501039868126,,,,,,,,,0,1530,0,,,,,,,,,,,,,,,
3765584,1501039868136,,,,,,,,,0,1500,0,,,,,,,,,,,,,,,
3765594,1501039868146,,,,,,,,,0,1425,0,,,,,,,,,,,,,,,
3765604,1501039868156,3.3,,-0.03,-0.03,1.09,-2,1,2,0,1590,0,,,,,,,,,,,,,,,
3765614,1501039868166,,,,,,,,,0,1635,0,,,,,,,,,,,,,,,
3765624,1501039868176,,,,,,,,,0,1590,0,,,,,,,,,,,,,,,
3765634,1501039868186,,,,,,,,,0,1575,0,,,,,,,,,,,,,,,
3765644,1501039868196,3.28,,-0.04,-0.06,1.04,-1,0,3,0,1530,0,36.11335,-115.146065,0.0,7.655,2037.9,9,2,1.9,0,0.0,-1,0.0,0.0,0.0,0
3765654,1501039868206,,,,,,,,,0,1500,0,,,,,,,,,,,,,,,
3765664,1501039868216,,,,,,,,,0,1425,0,,,,,,,,,,,,,,,
3765674,1501039868226,,,,,,,,,0,1605,0,,,,,,,,,,,,,,,
3765684,1501039868236,3.31,,-0.04,-0.07,1.14,-1,-0,3,0,1650,0,,,,,,,,,,,,,,,
3765694,1501039868246,,,,,,,,,0,1635,0,,,,,,,,,,,,,,,
3765704,1501039868256,,,,,,,,,0,1605,0,,,,,,,,,,,,,,,
3765714,1501039868266,,,,,,,,,0,1575,0,,,,,,,,,,,,,,,
3765724,1501039868276,3.32,,-0.06,-0.07,1.06,-1,-2,4,0,1545,0,,,,,,,,,,,,,,,
3765734,1501039868286,,,,,,,,,0,1500,0,,,,,,,,,,,,,,,
3765744,1501039868296,,,,,,,,,0,1425,0,36.11335,-115.146065,0.0,7.655,2037.9,9,2,1.9,0,0.0,-1,0.0,0.0,0.0,0
3765754,1501039868306,,,,,,,,,0,1605,0,,,,,,,,,,,,,,,
3765764,1501039868316,3.33,,-0.01,-0.09,1.01,-1,-5,5,0,1650,0,,,,,,,,,,,,,,,
3765774,1501039868326,,,,,,,,,0,1635,0,,,,,,,,,,,,,,,
3765784,1501039868336,,,,,,,,,0,1590,0,,,,,,,,,,,,,,,
3765794,1501039868346,,,,,,,,,0,1575,0,,,,,,,,,,,,,,,
3765804,1501039868356,3.32,,-0.03,-0.08,0.96,-1,-6,5,0,1545,0,,,,,,,,,,,,,,,
3765814,1501039868366,,,,,,,,,0,1500,0,,,,,,,,,,,,,,,
3765824,1501039868376,,,,,,,,,0,1425,0,,,,,,,,,,,,,,,
3765834,1501039868386,,,,,,,,,0,1605,0,,,,,,,,,,,,,,,
3765844,1501039868396,3.28,,-0.02,-0.08,0.92,-1,-9,5,0,1620,0,36.11335,-115.146065,0.0,7.655,2037.9,9,2,1.9,0,0.0,-1,0.0,0.0,0.0,0
3765854,1501039868406,,,,,,,,,0,1590,0,,,,,,,,,,,,,,,
3765864,1501039868416,,,,,,,,,0,1575,0,,,,,,,,,,,,,,,
3765874,1501039868426,,,,,,,,,0,1530,0,,,,,,,,,,,,,,,
3765884,1501039868436,3.27,,-0.03,-0.05,0.95,-2,-6,5,0,1500,0,,,,,,,,,,,,,,,
3765894,1501039868446,,,,,,,,,0,1425,0,,,,,,,,,,,,,,,
3765904,1501039868456,,,,,,,,,0,1605,0,,,,,,,,,,,,,,,
3765914,1501039868466,,,,,,,,,0,1650,0,,,,,,,,,,,,,,,
3765924,1501039868476,3.31,,-0.05,-0.07,0.93,-1,-6,3,0,1620,0,,,,,,,,,,,,,,,
3765934,1501039868486,,,,,,,,,0,1590,0,,,,,,,,,,,,,,,
3765944,1501039868495,,,,,,,,,0,1575,0,36.11335,-115.146065,0.0,7.655,2037.9,9,2,1.9,0,0.0,-1,0.0,0.0,0.0,0
3765954,1501039868505,,,,,,,,,0,1530,0,,,,,,,,,,,,,,,
3765964,1501039868515,3.31,,-0.02,-0.05,1.0,-1,-3,3,0,1500,0,,,,,,,,,,,,,,,
3765974,1501039868525,,,,,,,,,0,1425,0,,,,,,,,,,,,,,,
3765984,1501039868535,,,,,,,,,0,1590,0,,,,,,,,,,,,,,,
3765994,1501039868545,,,,,,,,,0,1650,0,,,,,,,,,,,,,,,
3766004,1501039868555,3.31,,-0.04,-0.03,0.98,-2,-1,4,0,1620,0,,,,,,,,,,,,,,,
3766014,1501039868565,,,,,,,,,0,1590,0,,,,,,,,,,,,,,,
3766024,1501039868575,,,,,,,,,0,1575,0,,,,,,,,,,,,,,,
3766034,1501039868585,,,,,,,,,0,1530,0,,,,,,,,,,,,,,,
3766044,1501039868597,3.32,4.49,-0.04,-0.03,1.08,-2,-2,4,0,1500,0,36.11335,-115.146065,0.0,7.655,2037.9,9,2,1.9,0,0.0,-1,0.0,0.0,0.0,0
3766054,1501039868607,,,,,,,,,0,1425,0,,,,,,,,,,,,,,,
3766064,1501039868617,,,,,,,,,0,1650,0,,,,,,,,,,,,,,,
3766074,1501039868627,,,,,,,,,0,1635,0,,,,,,,,,,,,,,,
3766084,1501039868637,3.3,,-0.05,-0.01,1.03,-1,-2,1,0,1590,0,,,,,,,,,,,,,,,
3766094,1501039868647,,,,,,,,,0,1575,0,,,,,,,,,,,,,,,
3766104,1501039868657,,,,,,,,,0,1530,0,,,,,,,,,,,,,,,
3766114,1501039868667,,,,,,,,,0,1500,0,,,,,,,,,,,,,,,
3766124,1501039868677,3.32,,-0.06,-0.02,1.01,-0,-3,1,0,1425,0,,,,,,,,,,,,,,,
3766134,1501039868687,,,,,,,,,0,1605,0,,,,,,,,,,,,,,,
3766144,1501039868697,,,,,,,,,0,1650,0,36.11335,-115.146065,0.0,7.655,2037.9,9,2,1.9,0,0.0,-1,0.0,0.0,0.0,0
3766154,1501039868707,,,,,,,,,0,1635,0,,,,,,,,,,,,,,,
3766164,1501039868717,3.31,,-0.05,-0.03,0.97,-0,-5,2,0,1590,0,,,,,,,,,,,,,,,
3766174,1501039868727,,,,,,,,,0,1575,0,,,,,,,,,,,,,,,
3766184,1501039868737,,,,,,,,,0,1530,0,,,,,,,,,,,,,,,
3766194,1501039868747,,,,,,,,,0,1500,0,,,,,,,,,,,,,,,
3766204,1501039868757,3.31,,-0.04,-0.06,0.89,-0,-7,4,0,1425,0,,,,,,,,,,,,,,,
3766214,1501039868767,,,,,,,,,0,1590,0,,,,,,,,,,,,,,,
3766224,1501039868777,,,,,,,,,0,1650,0,,,,,,,,,,,,,,,
3766234,1501039868787,,,,,,,,,0,1635,0,,,,,,,,,,,,,,,
3766244,1501039868797,3.31,,-0.0,-0.07,0.85,-1,-9,5,0,1590,0,36.11335,-115.146065,0.0,7.655,2037.9,9,2,1.9,0,0.0,-1,0.0,0.0,0.0,0
3766254,1501039868807,,,,,,,,,0,1575,0,,,,,,,,,,,,,,,
3766264,1501039868817,,,,,,,,,0,1530,0,,,,,,,,,,,,,,,
3766274,1501039868827,,,,,,,,,0,1500,0,,,,,,,,,,,,,,,
3766284,1501039868837,3.32,,0.0,-0.05,0.78,-1,-9,4,0,1425,0,,,,,,,,,,,,,,,
3766294,1501039868847,,,,,,,,,0,1650,0,,,,,,,,,,,,,,,
3766304,1501039868857,,,,,,,,,0,1620,0,,,,,,,,,,,,,,,
3766314,1501039868867,,,,,,,,,0,1590,0,,,,,,,,,,,,,,,
3766324,1501039868877,3.3,,-0.01,-0.07,0.86,-1,-7,2,0,1575,0,,,,,,,,,,,,,,,
3766334,1501039868887,,,,,,,,,0,1530,0,,,,,,,,,,,,,,,
3766344,1501039868897,,,,,,,,,0,1500,0,36.11335,-115.146065,0.0,7.655,2037.9,9,2,1.9,0,0.0,-1,0.0,0.0,0.0,0
3766354,1501039868907,,,,,,,,,0,1425,0,,,,,,,,,,,,,,,
3766364,1501039868917,3.32,,-0.03,-0.06,0.84,-1,-5,2,0,1590,0,,,,,,,,,,,,,,,
3766374,1501039868927,,,,,,,,,0,1650,0,,,,,,,,,,,,,,,
3766384,1501039868937,,,,,,,,,0,1620,0,,,,,,,,,,,,,,,
3766394,1501039868947,,,,,,,,,0,1590,0,,,,,,,,,,,,,,,
3766404,1501039868957,3.32,,-0.02,-0.07,0.91,-1,-4,1,0,1560,0,,,,,,,,,,,,,,,
3766414,1501039868967,,,,,,,,,0,1530,0,,,,,,,,,,,,,,,
3766424,1501039868977,,,,,,,,,0,1500,0,,,,,,,,,,,,,,,
3766434,1501039868987,,,,,,,,,0,1410,0,,,,,,,,,,,,,,,
3766444,1501039868991,3.33,,-0.04,-0.02,0.93,-2,-1,3,0,1590,0,36.11335,-115.146065,0.0,7.655,2037.9,9,2,1.9,0,0.0,-1,0.0,0.0,0.0,0
3766454,1501039869001,,,,,,,,,0,1635,0,,,,,,,,,,,,,,,
3766464,1501039869011,,,,,,,,,0,1620,0,,,,,,,,,,,,,,,
3766474,1501039869021,,,,,,,,,0,1590,0,,,,,,,,,,,,,,,
3766484,1501039869031,3.33,,-0.03,-0.03,0.96,-2,-1,2,0,1575,0,,,,,,,,,,,,,,,
3766494,1501039869041,,,,,,,,,0,1530,0,,,,,,,,,,,,,,,
3766504,1501039869051,,,,,,,,,0,1500,0,,,,,,,,,,,,,,,
3766514,1501039869061,,,,,,,,,0,1410,0,,,,,,,,,,,,,,,
3766524,1501039869071,3.31,,-0.02,-0.04,1.07,-1,1,-0,0,1590,0,,,,,,,,,,,,,,,
3766534,1501039869081,,,,,,,,,0,1620,0,,,,,,,,,,,,,,,
3766544,1501039869097,,,,,,,,,0,1590,0,36.11335,-115.146065,0.0,7.655,2037.9,9,2,1.9,0,0.0,-1,0.0,0.0,0.0,0
3766554,1501039869107,,,,,,,,,0,1575,0,,,,,,,,,,,,,,,
3766564,1501039869117,3.28,,-0.03,-0.05,1.02,-1,-0,2,0,1530,0,,,,,,,,,,,,,,,
3766574,1501039869127,,,,,,,,,0,1500,0,,,,,,,,,,,,,,,
3766584,1501039869137,,,,,,,,,0,1410,0,,,,,,,,,,,,,,,
3766594,1501039869147,,,,,,,,,0,1605,0,,,,,,,,,,,,,,,
3766604,1501039869157,3.3,,-0.03,-0.06,1.13,-1,-2,1,0,1650,0,,,,,,,,,,,,,,,
3766614,1501039869167,,,,,,,,,0,1635,0,,,,,,,,,,,,,,,
3766624,1501039869177,,,,,,,,,0,1590,0,,,,,,,,,,,,,,,
3766634,1501039869187,,,,,,,,,0,1575,0,,,,,,,,,,,,,,,
3766644,1501039869197,3.32,,-0.05,-0.06,1.06,-0,-3,2,0,1545,0,36.11335,-115.146065,0.0,7.655,2037.9,9,2,1.9,0,0.0,-1,0.0,0.0,0.0,0
3766654,1501039869207,,,,,,,,,0,1500,0,,,,,,,,,,,,,,,
3766664,1501039869217,,,,,,,,,0,1425,0,,,,,,,,,,,,,,,
3766674,1501039869227,,,,,,,,,0,1605,0,,,,,,,,,,,,,,,
3766684,1501039869237,3.35,,-0.01,-0.08,1.0,-0,-6,3,0,1650,0,,,,,,,,,,,,,,,
3766694,1501039869247,,,,,,,,,0,1635,0,,,,,,,,,,,,,,,
3766704,1501039869257,,,,,,,,,0,1590,0,,,,,,,,,,,,,,,
3766714,1501039869267,,,,,,,,,0,1575,0,,,,,,,,,,,,,,,
3766724,1501039869277,3.31,,-0.03,-0.07,0.94,-1,-7,3,0,1545,0,,,,,,,,,,,,,,,
3766734,1501039869287,,,,,,,,,0,1500,0,,,,,,,,,,,,,,,
3766744,1501039869297,,,,,,,,,0,1425,0,36.11335,-115.146065,0.0,7.655,2037.9,9,2,1.9,0,0.0,-1,0.0,0.0,0.0,0
3766754,1501039869307,,,,,,,,,0,1605,0,,,,,,,,,,,,,,,
3766764,1501039869317,3.29,,-0.02,-0.09,0.92,-1,-8,4,0,1635,0,,,,,,,,,,,,,,,
3766774,1501039869327,,,,,,,,,0,1605,0,,,,,,,,,,,,,,,
3766784,1501039869337,,,,,,,,,0,1575,0,,,,,,,,,,,,,,,
3766794,1501039869347,,,,,,,,,0,1545,0,,,,,,,,,,,,,,,
3766804,1501039869357,3.31,,-0.04,-0.07,0.93,-1,-5,2,0,1500,0,,,,,,,,,,,,,,,
3766814,1501039869367,,,,,,,,,0,1425,0,,,,,,,,,,,,,,,
3766824,1501039869377,,,,,,,,,0,1605,0,,,,,,,,,,,,,,,
3766834,1501039869387,,,,,,,,,0,1650,0,,,,,,,,,,,,,,,
3766844,1501039869397,3.32,,-0.06,-0.1,0.94,-1,-6,1,0,1635,0,36.11335,-115.146065,0.0,7.655,2037.9,9,2,2.1,0,0.0,-1,0.0,0.0,0.0,0
3766854,1501039869407,,,,,,,,,0,1590,0,,,,,,,,,,,,,,,
3766864,1501039869417,,,,,,,,,0,1575,0,,,,,,,,,,,,,,,
3766874,1501039869427,,,,,,,,,0,1530,0,,,,,,,,,,,,,,,
3766884,1501039869437,3.31,,-0.03,-0.08,1.01,-1,-4,3,0,1500,0,,,,,,,,,,,,,,,
3766894,1501039869447,,,,,,,,,0,1425,0,,,,,,,,,,,,,,,
3766904,1501039869457,,,,,,,,,0,1590,0,,,,,,,,,,,,,,,
3766914,1501039869467,,,,,,,,,0,1650,0,,,,,,,,,,,,,,,
3766924,1501039869477,3.29,,-0.04,-0.07,0.97,-2,-2,5,0,1620,0,,,,,,,,,,,,,,,
3766934,1501039869487,,,,,,,,,0,1590,0,,,,,,,,,,,,,,,
3766944,1501039869496,,,,,,,,,0,1560,0,36.11335,-115.146065,0.0,7.655,2037.9,9,2,1.9,0,0.0,-1,0.0,0.0,0.0,0
3766954,1501039869506,,,,,,,,,0,1530,0,,,,,,,,,,,,,,,
3766964,1501039869516,3.32,,-0.02,-0.08,1.09,-2,-4,6,0,1485,0,,,,,,,,,,,,,,,
3766974,1501039869526,,,,,,,,,0,1410,0,,,,,,,,,,,,,,,
3766984,1501039869536,,,,,,,,,0,1590,0,,,,,,,,,,,,,,,
3766994,1501039869546,,,,,,,,,0,1620,0,,,,,,,,,,,,,,,
3767004,1501039869556,3.25,,0.0,-0.05,1.09,-1,-3,2,0,1575,0,,,,,,,,,,,,,,,
3767014,1501039869566,,,,,,,,,0,1560,0,,,,,,,,,,,,,,,
3767024,1501039869576,,,,,,,,,0,1515,0,,,,,,,,,,,,,,,
3767034,1501039869586,,,,,,,,,0,1485,0,,,,,,,,,,,,,,,
3767044,1501039869596,3.27,4.49,-0.02,-0.09,1.18,-0,-4,1,0,1410,0,36.11335,-115.146065,0.0,7.655,2037.9,9,2,1.9,0,0.0,-1,0.0,0.0,0.0,0
3767054,1501039869606,,,,,,,,,0,1590,0,,,,,,,,,,,,,,,
3767064,1501039869616,,,,,,,,,0,1635,0,,,,,,,,,,,,,,,
3767074,1501039869626,,,,,,,,,0,1620,0,,,,,,,,,,,,,,,
3767084,1501039869636,3.31,,-0.01,-0.05,1.19,-0,-5,2,0,1575,0,,,,,,,,,,,,,,,
3767094,1501039869646,,,,,,,,,0,1560,0,,,,,,,,,,,,,,,
3767104,1501039869656,,,,,,,,,0,1515,0,,,,,,,,,,,,,,,
3767114,1501039869666,,,,,,,,,0,1485,0,,,,,,,,,,,,,,,
3767124,1501039869676,3.29,,-0.0,-0.06,1.1,-0,-6,3,0,1395,0,,,,,,,,,,,,,,,
3767134,1501039869686,,,,,,,,,0,1575,0,,,,,,,,,,,,,,,
3767144,1501039869696,,,,,,,,,0,1635,0,36.11335,-115.146065,0.0,7.655,2037.9,9,2,2.0,0,0.0,-1,0.0,0.0,0.0,0
3767154,1501039869706,,,,,,,,,0,1605,0,,,,,,,,,,,,,,,
3767164,1501039869716,3.32,,0.02,-0.04,1.06,-1,-8,4,0,1575,0,,,,,,,,,,,,,,,
3767174,1501039869726,,,,,,,,,0,1545,0,,,,,,,,,,,,,,,
3767184,1501039869736,,,,,,,,,0,1500,0,,,,,,,,,,,,,,,
3767194,1501039869746,,,,,,,,,0,1455,0,,,,,,,,,,,,,,,
3767204,1501039869756,3.31,,0.05,-0.04,1.04,-1,-11,5,0,1365,0,,,,,,,,,,,,,,,
3767214,1501039869766,,,,,,,,,0,1545,0,,,,,,,,,,,,,,,
3767224,1501039869776,,,,,,,,,0,1605,0,,,,,,,,,,,,,,,
3767234,1501039869786,,,,,,,,,0,1575,0,,,,,,,,,,,,,,,
3767244,1501039869794,3.32,,0.09,-0.06,1.0,-0,-12,4,0,1515,0,36.11335,-115.146065,0.0,7.655,2037.9,9,2,2.0,0,0.0,-1,0.0,0.0,0.0,0
3767254,1501039869804,,,,,,,,,0,1485,0,,,,,,,,,,,,,,,
3767264,1501039869814,,,,,,,,,0,1440,0,,,,,,,,,,,,,,,
3767274,1501039869824,,,,,,,,,0,1380,0,,,,,,,,,,,,,,,
3767284,1501039869834,3.3,,0.1,-0.08,0.98,-0,-12,3,0,1275,0,,,,,,,,,,,,,,,
3767294,1501039869844,,,,,,,,,0,1470,0,,,,,,,,,,,,,,,
3767304,1501039869854,,,,,,,,,0,1545,0,,,,,,,,,,,,,,,
3767314,1501039869864,,,,,,,,,0,1515,0,,,,,,,,,,,,,,,
3767324,1501039869874,3.32,,0.13,-0.08,0.91,-1,-14,2,0,1470,0,,,,,,,,,,,,,,,
3767334,1501039869884,,,,,,,,,0,1425,0,,,,,,,,,,,,,,,
3767344,1501039869894,,,,,,,,,0,1380,0,36.11335,-115.146065,0.0,7.655,2037.9,9,2,2.5,0,0.0,-1,0.0,0.0,0.0,0
3767354,1501039869904,,,,,,,,,0,1380,0,,,,,,,,,,,,,,,
3767364,1501039869914,3.33,,0.06,-0.04,0.95,-1,-12,2,0,1335,0,,,,,,,,,,,,,,,
3767374,1501039869924,,,,,,,,,0,1245,0,,,,,,,,,,,,,,,
3767384,1501039869934,,,,,,,,,0,1575,0,,,,,,,,,,,,,,,
3767394,1501039869944,,,,,,,,,0,1560,0,,,,,,,,,,,,,,,
3767404,1501039869954,3.29,,0.09,-0.03,1.04,-2,-11,-0,0,1515,0,,,,,,,,,,,,,,,
3767414,1501039869964,,,,,,,,,0,1500,0,,,,,,,,,,,,,,,
3767424,1501039869974,,,,,,,,,0,1500,0,,,,,,,,,,,,,,,
3767434,1501039869984,,,,,,,,,0,1455,0,,,,,,,,,,,,,,,
3767444,1501039869994,3.34,,0.08,-0.03,1.08,-2,-11,-1,0,1425,0,36.11335,-115.146065,0.0,7.655,2037.9,9,2,2.5,0,0.0,-1,0.0,0.0,0.0,0
3767454,1501039869998,,,,,,,,,0,1335,0,,,,,,,,,,,,,,,
3767464,1501039870008,,,,,,,,,0,1635,0,,,,,,,,,,,,,,,
3767474,1501039870018,,,,,,,,,0,1605,0,,,,,,,,,,,,,,,
3767484,1501039870028,3.3,,0.22,-0.04,1.09,-1,-15,-3,0,1545,0,,,,,,,,,,,,,,,
3767494,1501039870038,,,,,,,,,0,1515,0,,,,,,,,,,,,,,,
3767504,1501039870048,,,,,,,,,0,1455,200,,,,,,,,,,,,,,,
3767514,1501039870058,,,,,,,,,0,1455,200,,,,,,,,,,,,,,,
3767524,1501039870068,3.33,,0.28,-0.05,1.11,-2,-15,-1,0,1410,200,,,,,,,,,,,,,,,
3767534,1501039870078,,,,,,,,,0,1305,200,,,,,,,,,,,,,,,
3767544,1501039870096,,,,,,,,,0,1620,200,36.11335,-115.146065,0.0,7.655,2037.9,9,2,2.5,0,0.0,-1,0.0,0.0,0.0,0
3767554,1501039870106,,,,,,,,,0,1590,200,,,,,,,,,,,,,,,
3767564,1501039870116,3.3,,0.25,-0.11,1.1,-3,-15,-2,0,1560,200,,,,,,,,,,,,,,,
3767574,1501039870126,,,,,,,,,0,1545,200,,,,,,,,,,,,,,,
3767584,1501039870136,,,,,,,,,0,1500,200,,,,,,,,,,,,,,,
3767594,1501039870146,,,,,,,,,0,1455,200,,,,,,,,,,,,,,,
3767604,1501039870156,3.26,,0.25,-0.08,1.1,-4,-13,-2,0,1365,200,,,,,,,,,,,,,,,
3767614,1501039870166,,,,,,,,,0,1590,200,,,,,,,,,,,,,,,
3767624,1501039870176,,,,,,,,,0,1665,200,,,,,,,,,,,,,,,
3767634,1501039870186,,,,,,,,,0,1650,10000000,,,,,,,,,,,,,,,
3767644,1501039870196,3.31,,0.24,-0.09,1.09,-5,-14,-2,0,1605,0,36.11335,-115.146065,0.0,7.655,2037.9,9,2,2.4,0,0.0,-1,0.0,0.0,0.0,0
3767654,1501039870206,,,,,,,,,0,1605,0,,,,,,,,,,,,,,,
3767664,1501039870216,,,,,,,,,0,1560,0,,,,,,,,,,,,,,,
3767674,1501039870226,,,,,,,,,0,1515,0,,,,,,,,,,,,,,,
3767684,1501039870236,3.26,,0.29,-0.11,1.1,-7,-14,-1,0,1425,0,,,,,,,,,,,,,,,
3767694,1501039870246,,,,,,,,,0,1605,0,,,,,,,,,,,,,,,
3767704,1501039870256,,,,,,,,,0,1680,0,,,,,,,,,,,,,,,
3767714,1501039870266,,,,,,,,,0,1650,250,,,,,,,,,,,,,,,
3767724,1501039870276,3.31,,0.33,-0.12,1.04,-9,-14,-1,0,1620,250,,,,,,,,,,,,,,,
3767734,1501039870286,,,,,,,,,0,1590,250,,,,,,,,,,,,,,,
3767744,1501039870296,,,,,,,,,0,1545,250,36.11335,-115.146065,0.0,7.655,2037.9,9,2,2.4,0,0.0,-1,0.0,0.0,0.0,0
3767754,1501039870306,,,,,,,,,0,1515,250,,,,,,,,,,,,,,,
3767764,1501039870316,3.27,,0.3,-0.16,0.95,-10,-14,-1,0,1620,250,,,,,,,,,,,,,,,
3767774,1501039870326,,,,,,,,,0,1695,250,,,,,,,,,,,,,,,
3767784,1501039870336,,,,,,,,,0,1665,250,,,,,,,,,,,,,,,
3767794,1501039870346,,,,,,,,,0,1650,250,,,,,,,,,,,,,,,
3767804,1501039870356,3.3,,0.27,-0.15,0.92,-11,-13,-0,0,1635,10000000,,,,,,,,,,,,,,,
3767814,1501039870366,,,,,,,,,0,1590,0,,,,,,,,,,,,,,,
3767824,1501039870376,,,,,,,,,0,1560,0,,,,,,,,,,,,,,,
3767834,1501039870386,,,,,,,,,0,1500,0,,,,,,,,,,,,,,,
3767844,1501039870396,3.27,,0.25,-0.14,0.93,-12,-10,-1,0,1665,0,36.11335,-115.146065,0.0,7.655,2037.9,9,2,2.4,0,0.0,-1,0.0,0.0,0.0,0
3767854,1501039870406,,,,,,,,,0,1710,0,,,,,,,,,,,,,,,
3767864,1501039870416,,,,,,,,,0,1680,0,,,,,,,,,,,,,,,
3767874,1501039870426,,,,,,,,,0,1665,130,,,,,,,,,,,,,,,
3767884,1501039870436,3.33,,0.26,-0.15,0.96,-14,-7,0,0,1635,130,,,,,,,,,,,,,,,
3767894,1501039870446,,,,,,,,,0,1605,130,,,,,,,,,,,,,,,
3767904,1501039870456,,,,,,,,,0,1560,130,,,,,,,,,,,,,,,
3767914,1501039870466,,,,,,,,,0,1710,130,,,,,,,,,,,,,,,
3767924,1501039870476,3.35,,0.25,-0.14,1.07,-14,-4,1,0,1740,130,,,,,,,,,,,,,,,
3767934,1501039870486,,,,,,,,,0,1740,130,,,,,,,,,,,,,,,
3767944,1501039870495,,,,,,,,,0,1710,130,36.113346,-115.146072,1.48,7.655,2053.0,9,2,2.4,0,0.0,-1,0.0,0.0,0.0,0
3767954,1501039870505,,,,,,,,,0,1680,130,,,,,,,,,,,,,,,
3767964,1501039870515,3.34,,0.22,-0.14,1.09,-15,-4,2,0,1650,130,,,,,,,,,,,,,,,
3767974,1501039870525,,,,,,,,,0,1575,10000000,,,,,,,,,,,,,,,
3767984,1501039870535,,,,,,,,,0,1800,0,,,,,,,,,,,,,,,
3767994,1501039870545,,,,,,,,,0,1875,0,,,,,,,,,,,,,,,
3768004,1501039870555,3.26,,0.18,-0.14,0.97,-15,-5,2,0,1845,0,,,,,,,,,,,,,,,
3768014,1501039870565,,,,,,,,,0,1845,160,,,,,,,,,,,,,,,
3768024,1501039870575,,,,,,,,,0,1830,160,,,,,,,,,,,,,,,
3768034,1501039870585,,,,,,,,,0,1800,160,,,,,,,,,,,,,,,
3768044,1501039870595,3.3,4.49,0.19,-0.11,0.91,-17,-5,6,0,1950,160,36.11335,-115.146072,2.58,7.655,2053.1,9,2,2.4,0,0.0,-1,0.0,0.0,0.0,0
3768054,1501039870605,,,,,,,,,0,2025,160,,,,,,,,,,,,,,,
3768064,1501039870615,,,,,,,,,0,2025,160,,,,,,,,,,,,,,,
3768074,1501039870625,,,,,,,,,0,1995,160,,,,,,,,,,,,,,,
3768084,1501039870635,3.35,,0.18,-0.16,0.88,-17,-4,6,0,1980,160,,,,,,,,,,,,,,,
3768094,1501039870645,,,,,,,,,0,1950,160,,,,,,,,,,,,,,,
3768104,1501039870655,,,,,,,,,0,2100,160,,,,,,,,,,,,,,,
3768114,1501039870665,,,,,,,,,0,2175,160,,,,,,,,,,,,,,,
3768124,1501039870675,3.31,,0.17,-0.16,0.78,-17,-4,7,0,2175,160,,,,,,,,,,,,,,,
3768134,1501039870685,,,,,,,,,0,2130,160,,,,,,,,,,,,,,,
3768144,1501039870697,,,,,,,,,0,2130,280,36.11335,-115.146072,3.68,7.655,2053.1,9,2,2.4,0,0.0,-1,0.0,0.0,0.0,0
3768154,1501039870707,,,,,,,,,0,2025,280,,,,,,,,,,,,,,,
3768164,1501039870717,3.41,,0.2,-0.14,0.75,-19,-7,7,0,2220,280,,,,,,,,,,,,,,,
3768174,1501039870727,,,,,,,,,0,2295,280,,,,,,,,,,,,,,,
3768184,1501039870737,,,,,,,,,0,2265,280,,,,,,,,,,,,,,,
3768194,1501039870747,,,,,,,,,0,2250,280,,,,,,,,,,,,,,,
3768204,1501039870757,3.34,,0.15,-0.2,0.65,-19,-7,6,0,2220,280,,,,,,,,,,,,,,,
3768214,1501039870767,,,,,,,,,0,2355,280,,,,,,,,,,,,,,,
3768224,1501039870777,,,,,,,,,0,2400,280,,,,,,,,,,,,,,,
3768234,1501039870787,,,,,,,,,0,2385,10000000,,,,,,,,,,,,,,,
3768244,1501039870795,3.31,,0.15,-0.14,0.64,-21,-5,8,0,2355,560,36.11335,-115.146072,4.4,7.655,2053.1,9,2,2.4,0,0.0,-1,0.0,0.0,0.0,0
3768254,1501039870805,,,,,,,,,0,2325,560,,,,,,,,,,,,,,,
3768264,1501039870815,,,,,,,,,0,2445,560,,,,,,,,,,,,,,,
3768274,1501039870825,,,,,,,,,0,2490,560,,,,,,,,,,,,,,,
3768284,1501039870835,3.33,,0.17,-0.2,0.61,-22,-5,6,0,2460,560,,,,,,,,,,,,,,,
3768294,1501039870845,,,,,,,,,0,2415,560,,,,,,,,,,,,,,,
3768304,1501039870855,,,,,,,,,0,2400,560,,,,,,,,,,,,,,,
3768314,1501039870865,,,,,,,,,0,2490,560,,,,,,,,,,,,,,,
3768324,1501039870875,3.32,,0.22,-0.23,0.76,-24,-3,7,0,2520,560,,,,,,,,,,,,,,,
3768334,1501039870885,,,,,,,,,0,2505,1160,,,,,,,,,,,,,,,
3768344,1501039870897,,,,,,,,,0,2475,1160,36.11335,-115.146072,4.92,7.655,2053.0,9,2,2.4,0,0.0,-1,0.0,0.0,0.0,0
3768354,1501039870907,,,,,,,,,0,2370,1160,,,,,,,,,,,,,,,
3768364,1501039870917,3.36,,0.31,-0.24,0.77,-25,-6,7,0,2520,1160,,,,,,,,,,,,,,,
3768374,1501039870927,,,,,,,,,0,2580,1160,,,,,,,,,,,,,,,
3768384,1501039870937,,,,,,,,,0,2535,1160,,,,,,,,,,,,,,,
3768394,1501039870947,,,,,,,,,0,2490,1160,,,,,,,,,,,,,,,
3768404,1501039870957,3.35,,0.28,-0.16,0.7,-26,-3,6,0,2400,1160,,,,,,,,,,,,,,,
3768414,1501039870967,,,,,,,,,0,2625,1160,,,,,,,,,,,,,,,
3768424,1501039870977,,,,,,,,,0,2565,2880,,,,,,,,,,,,,,,
3768434,1501039870987,,,,,,,,,0,2580,2880,,,,,,,,,,,,,,,
3768444,1501039870991,3.35,,0.24,-0.21,0.94,-25,-2,3,0,2505,2880,36.11335,-115.146088,5.88,7.655,2052.7,9,2,1.9,0,0.0,-1,0.0,0.0,0.0,0
3768454,1501039871001,,,,,,,,,0,2610,2880,,,,,,,,,,,,,,,
3768464,1501039871011,,,,,,,,,0,2655,2880,,,,,,,,,,,,,,,
3768474,1501039871021,,,,,,,,,0,2625,2880,,,,,,,,,,,,,,,
3768484,1501039871031,3.33,,0.29,-0.17,0.87,-26,-2,7,0,2580,2880,,,,,,,,,,,,,,,
3768494,1501039871041,,,,,,,,,0,2490,2880,,,,,,,,,,,,,,,
3768504,1501039871051,,,,,,,,,0,2670,120,,,,,,,,,,,,,,,
3768514,1501039871061,,,,,,,,,0,2715,120,,,,,,,,,,,,,,,
3768524,1501039871071,3.29,,0.28,-0.16,0.84,-28,-3,5,0,2685,120,,,,,,,,,,,,,,,
3768534,1501039871081,,,,,,,,,0,2610,120,,,,,,,,,,,,,,,
3768544,1501039871095,,,,,,,,,0,2685,120,36.11335,-115.146088,6.35,7.655,2052.5,9,2,1.9,0,0.0,-1,0.0,0.0,0.0,0
3768554,1501039871105,,,,,,,,,0,2745,120,,,,,,,,,,,,,,,
3768564,1501039871115,3.31,,0.22,-0.1,0.79,-27,0,-1,0,2685,120,,,,,,,,,,,,,,,
3768574,1501039871125,,,,,,,,,0,2670,120,,,,,,,,,,,,,,,
3768584,1501039871135,,,,,,,,,0,2580,120,,,,,,,,,,,,,,,
3768594,1501039871145,,,,,,,,,0,2790,120,,,,,,,,,,,,,,,
3768604,1501039871155,3.35,,0.22,-0.2,1.02,-29,1,-3,0,2760,120,,,,,,,,,,,,,,,
3768614,1501039871165,,,,,,,,,0,2730,120,,,,,,,,,,,,,,,
3768624,1501039871175,,,,,,,,,0,2670,120,,,,,,,,,,,,,,,
3768634,1501039871185,,,,,,,,,0,2760,120,,,,,,,,,,,,,,,
3768644,1501039871197,3.3,,0.39,-0.4,1.08,-29,1,8,0,2790,120,36.113354,-115.146088,7.11,7.655,2052.4,9,2,1.9,0,0.0,-1,0.0,0.0,0.0,0
3768654,1501039871207,,,,,,,,,0,2760,140,,,,,,,,,,,,,,,
3768664,1501039871217,,,,,,,,,0,2730,140,,,,,,,,,,,,,,,
3768674,1501039871227,,,,,,,,,0,2640,140,,,,,,,,,,,,,,,
3768684,1501039871237,3.29,,0.37,-0.39,0.94,-31,-0,8,0,2835,140,,,,,,,,,,,,,,,
3768694,1501039871247,,,,,,,,,0,2790,140,,,,,,,,,,,,,,,
3768704,1501039871257,,,,,,,,,0,2745,140,,,,,,,,,,,,,,,
3768714,1501039871267,,,,,,,,,0,2670,140,,,,,,,,,,,,,,,
3768724,1501039871277,3.24,,0.36,-0.28,0.59,-31,-4,6,0,2805,140,,,,,,,,,,,,,,,
3768734,1501039871287,,,,,,,,,0,2820,140,,,,,,,,,,,,,,,
3768744,1501039871293,,,,,,,,,0,2805,140,36.113354,-115.146088,7.45,7.656,2052.2,9,2,1.9,0,0.0,-1,0.0,0.0,0.0,0
3768754,1501039871303,,,,,,,,,0,2715,140,,,,,,,,,,,,,,,
3768764,1501039871313,3.32,,0.31,-0.14,0.34,-31,-3,1,0,2805,140,,,,,,,,,,,,,,,
3768774,1501039871323,,,,,,,,,0,2820,140,,,,,,,,,,,,,,,
3768784,1501039871333,,,,,,,,,0,2805,140,,,,,,,,,,,,,,,
3768794,1501039871343,,,,,,,,,0,2745,150,,,,,,,,,,,,,,,
3768804,1501039871353,3.36,,0.25,-0.19,0.42,-32,-0,-2,0,2670,150,,,,,,,,,,,,,,,
3768814,1501039871363,,,,,,,,,0,2850,150,,,,,,,,,,,,,,,
3768824,1501039871373,,,,,,,,,0,2820,150,,,,,,,,,,,,,,,
3768834,1501039871383,,,,,,,,,0,2730,150,,,,,,,,,,,,,,,
3768844,1501039871397,3.23,,0.2,-0.26,0.72,-32,2,-5,0,2670,150,36.113354,-115.146103,8.03,7.656,2052.0,9,2,1.9,0,0.0,-1,0.0,0.0,0.0,0
3768854,1501039871407,,,,,,,,,0,2850,150,,,,,,,,,,,,,,,
3768864,1501039871417,,,,,,,,,0,2835,150,,,,,,,,,,,,,,,
3768874,1501039871427,,,,,,,,,0,2805,150,,,,,,,,,,,,,,,
3768884,1501039871437,3.27,,0.31,-0.37,0.96,-32,1,1,0,2715,150,,,,,,,,,,,,,,,
3768894,1501039871447,,,,,,,,,0,2820,150,,,,,,,,,,,,,,,
3768904,1501039871457,,,,,,,,,0,2835,150,,,,,,,,,,,,,,,
3768914,1501039871467,,,,,,,,,0,2805,160,,,,,,,,,,,,,,,
3768924,1501039871477,3.23,,0.4,-0.37,0.99,-31,1,6,0,2730,160,,,,,,,,,,,,,,,
3768934,1501039871487,,,,,,,,,0,2685,160,,,,,,,,,,,,,,,
3768944,1501039871496,,,,,,,,,0,2880,160,36.113354,-115.146103,8.8,7.656,2052.0,9,2,1.9,0,0.0,-1,0.0,0.0,0.0,0
3768954,1501039871506,,,,,,,,,0,2805,160,,,,,,,,,,,,,,,
3768964,1501039871516,3.25,,0.4,-0.29,0.96,-31,-0,7,0,2760,160,,,,,,,,,,,,,,,
3768974,1501039871526,,,,,,,,,0,2670,160,,,,,,,,,,,,,,,
3768984,1501039871536,,,,,,,,,0,2880,160,,,,,,,,,,,,,,,
3768994,1501039871546,,,,,,,,,0,2805,160,,,,,,,,,,,,,,,
3769004,1501039871556,3.28,,0.4,-0.21,0.73,-30,-4,7,0,2760,160,,,,,,,,,,,,,,,
3769014,1501039871566,,,,,,,,,0,2745,160,,,,,,,,,,,,,,,
3769024,1501039871576,,,,,,,,,0,2835,160,,,,,,,,,,,,,,,
3769034,1501039871586,,,,,,,,,0,2835,170,,,,,,,,,,,,,,,
3769044,1501039871596,3.32,4.49,0.42,-0.18,0.56,-29,-7,5,0,2805,170,36.113354,-115.146103,9.6,7.656,2051.9,9,2,1.9,0,0.0,-1,0.0,0.0,0.0,0
3769054,1501039871606,,,,,,,,,0,2745,170,,,,,,,,,,,,,,,
3769064,1501039871616,,,,,,,,,0,2835,170,,,,,,,,,,,,,,,
3769074,1501039871626,,,,,,,,,0,2850,170,,,,,,,,,,,,,,,
3769084,1501039871636,3.24,,0.29,-0.13,0.61,-26,-5,2,0,2835,170,,,,,,,,,,,,,,,
3769094,1501039871646,,,,,,,,,0,2775,170,,,,,,,,,,,,,,,
3769104,1501039871656,,,,,,,,,0,2700,170,,,,,,,,,,,,,,,
3769114,1501039871666,,,,,,,,,0,2880,170,,,,,,,,,,,,,,,
3769124,1501039871676,3.31,,0.22,-0.16,0.77,-24,-2,-0,0,2850,170,,,,,,,,,,,,,,,
3769134,1501039871686,,,,,,,,,0,2775,170,,,,,,,,,,,,,,,
3769144,1501039871696,,,,,,,,,0,2700,170,36.113354,-115.146111,10.12,7.657,2051.9,9,2,1.9,0,0.0,-1,0.0,0.0,0.0,0
3769154,1501039871706,,,,,,,,,0,2865,170,,,,,,,,,,,,,,,
3769164,1501039871716,3.31,,0.18,-0.21,1.0,-22,1,1,0,2850,170,,,,,,,,,,,,,,,
3769174,1501039871726,,,,,,,,,0,2835,170,,,,,,,,,,,,,,,
3769184,1501039871736,,,,,,,,,0,2775,170,,,,,,,,,,,,,,,
3769194,1501039871746,,,,,,,,,0,2850,170,,,,,,,,,,,,,,,
3769204,1501039871756,3.31,,0.22,-0.26,1.19,-22,1,5,0,2865,180,,,,,,,,,,,,,,,
3769214,1501039871766,,,,,,,,,0,2820,180,,,,,,,,,,,,,,,
3769224,1501039871776,,,,,,,,,0,2775,180,,,,,,,,,,,,,,,
3769234,1501039871786,,,,,,,,,0,2850,180,,,,,,,,,,,,,,,
3769244,1501039871796,3.23,,0.34,-0.31,1.26,-21,-1,6,0,2865,180,36.113354,-115.146111,10.74,7.657,2051.9,9,2,1.9,0,0.0,-1,0.0,0.0,0.0,0
3769254,1501039871806,,,,,,,,,0,2820,180,,,,,,,,,,,,,,,
3769264,1501039871816,,,,,,,,,0,2790,180,,,,,,,,,,,,,,,
3769274,1501039871826,,,,,,,,,0,2700,180,,,,,,,,,,,,,,,
3769284,1501039871836,3.31,,0.36,-0.3,1.2,-22,-3,7,0,2880,180,,,,,,,,,,,,,,,
3769294,1501039871846,,,,,,,,,0,2835,180,,,,,,,,,,,,,,,
3769304,1501039871856,,,,,,,,,0,2805,190,,,,,,,,,,,,,,,
3769314,1501039871866,,,,,,,,,0,2715,190,,,,,,,,,,,,,,,
3769324,1501039871876,3.29,,0.33,-0.2,0.93,-21,-6,9,0,2895,190,,,,,,,,,,,,,,,
3769334,1501039871886,,,,,,,,,0,2850,190,,,,,,,,,,,,,,,
3769344,1501039871896,,,,,,,,,0,2865,190,36.113354,-115.146126,11.25,7.657,2051.8,9,2,1.9,0,0.0,-1,0.0,0.0,0.0,0
3769354,1501039871906,,,,,,,,,0,2775,190,,,,,,,,,,,,,,,
3769364,1501039871916,3.31,,0.37,-0.12,0.69,-20,-8,7,0,2880,190,,,,,,,,,,,,,,,
3769374,1501039871926,,,,,,,,,0,2895,190,,,,,,,,,,,,,,,
3769384,1501039871936,,,,,,,,,0,2865,190,,,,,,,,,,,,,,,
3769394,1501039871946,,,,,,,,,0,2775,190,,,,,,,,,,,,,,,
3769404,1501039871956,3.32,,0.33,-0.06,0.52,-18,-8,4,0,2865,200,,,,,,,,,,,,,,,
3769414,1501039871966,,,,,,,,,0,2880,200,,,,,,,,,,,,,,,
3769424,1501039871976,,,,,,,,,0,2850,200,,,,,,,,,,,,,,,
3769434,1501039871986,,,,,,,,,0,2820,200,,,,,,,,,,,,,,,
3769444,1501039871996,3.29,,0.29,-0.01,0.44,-17,-6,-0,0,2745,200,36.113354,-115.146126,11.25,7.657,2051.8,9,2,1.9,0,0.0,-1,0.0,0.0,0.0,0
3769454,1501039872000,,,,,,,,,0,2910,200,,,,,,,,,,,,,,,
3769464,1501039872010,,,,,,,,,0,2865,200,,,,,,,,,,,,,,,
3769474,1501039872020,,,,,,,,,0,2790,200,,,,,,,,,,,,,,,
3769484,1501039872030,3.36,,0.2,-0.01,0.57,-15,-5,-1,0,2730,200,,,,,,,,,,,,,,,
3769494,1501039872040,,,,,,,,,0,2895,200,,,,,,,,,,,,,,,
3769504,1501039872050,,,,,,,,,0,2880,200,,,,,,,,,,,,,,,
3769514,1501039872060,,,,,,,,,0,2820,200,,,,,,,,,,,,,,,
3769524,1501039872070,3.23,,0.19,-0.12,0.76,-14,-4,-4,0,2730,200,,,,,,,,,,,,,,,
3769534,1501039872080,,,,,,,,,0,2865,200,,,,,,,,,,,,,,,
3769544,1501039872096,,,,,,,,,0,2895,210,36.113354,-115.146141,12.31,7.658,2051.5,9,2,1.9,0,0.0,-1,0.0,0.0,0.0,0
3769554,1501039872106,,,,,,,,,0,2850,210,,,,,,,,,,,,,,,
3769564,1501039872116,3.27,,0.24,-0.19,1.0,-15,-3,1,0,2790,210,,,,,,,,,,,,,,,
3769574,1501039872126,,,,,,,,,0,2865,210,,,,,,,,,,,,,,,
3769584,1501039872136,,,,,,,,,0,2880,210,,,,,,,,,,,,,,,
3769594,1501039872146,,,,,,,,,0,2865,210,,,,,,,,,,,,,,,
3769604,1501039872156,3.3,,0.33,-0.23,1.1,-13,-4,6,0,2790,210,,,,,,,,,,,,,,,
3769614,1501039872166,,,,,,,,,0,2880,210,,,,,,,,,,,,,,,
3769624,1501039872176,,,,,,,,,0,2895,210,,,,,,,,,,,,,,,
3769634,1501039872186,,,,,,,,,0,2865,210,,,,,,,,,,,,,,,
3769644,1501039872194,3.3,,0.41,-0.31,1.13,-12,-5,6,0,2805,210,36.113354,-115.146141,12.89,7.658,2051.3,9,2,1.9,0,0.0,-1,0.0,0.0,0.0,0
3769654,1501039872204,,,,,,,,,0,2745,210,,,,,,,,,,,,,,,
3769664,1501039872214,,,,,,,,,0,2895,210,,,,,,,,,,,,,,,
3769674,1501039872224,,,,,,,,,0,2850,210,,,,,,,,,,,,,,,
3769684,1501039872234,3.33,,0.44,-0.28,1.07,-13,-4,6,0,2790,220,,,,,,,,,,,,,,,
3769694,1501039872244,,,,,,,,,0,2715,220,,,,,,,,,,,,,,,
3769704,1501039872254,,,,,,,,,0,2895,220,,,,,,,,,,,,,,,
3769714,1501039872264,,,,,,,,,0,2865,220,,,,,,,,,,,,,,,
3769724,1501039872274,3.27,,0.42,-0.2,0.96,-13,-5,7,0,2805,220,,,,,,,,,,,,,,,
3769734,1501039872284,,,,,,,,,0,2790,220,,,,,,,,,,,,,,,
3769744,1501039872296,,,,,,,,,0,2850,220,36.113354,-115.146149,13.61,7.659,2051.2,9,2,1.9,0,0.0,-1,0.0,0.0,0.0,0
3769754,1501039872306,,,,,,,,,0,2880,220,,,,,,,,,,,,,,,
3769764,1501039872316,3.28,,0.47,-0.13,0.71,-13,-7,5,0,2835,220,,,,,,,,,,,,,,,
3769774,1501039872326,,,,,,,,,0,2745,220,,,,,,,,,,,,,,,
3769784,1501039872336,,,,,,,,,0,2865,220,,,,,,,,,,,,,,,
3769794,1501039872346,,,,,,,,,0,2865,220,,,,,,,,,,,,,,,
3769804,1501039872356,3.23,,0.39,-0.09,0.48,-12,-8,4,0,2850,220,,,,,,,,,,,,,,,
3769814,1501039872366,,,,,,,,,0,2775,230,,,,,,,,,,,,,,,
3769824,1501039872376,,,,,,,,,0,2700,230,,,,,,,,,,,,,,,
3769834,1501039872386,,,,,,,,,0,2865,230,,,,,,,,,,,,,,,
3769844,1501039872398,3.25,,0.27,-0.06,0.55,-11,-7,-0,0,2820,230,36.113354,-115.146149,14.01,7.659,2051.0,9,2,1.9,0,0.0,-1,0.0,0.0,0.0,0
3769854,1501039872408,,,,,,,,,0,2745,230,,,,,,,,,,,,,,,
3769864,1501039872418,,,,,,,,,0,2685,230,,,,,,,,,,,,,,,
3769874,1501039872428,,,,,,,,,0,2850,230,,,,,,,,,,,,,,,
3769884,1501039872438,3.28,,0.18,-0.05,0.82,-11,-4,-3,0,2820,230,,,,,,,,,,,,,,,
3769894,1501039872448,,,,,,,,,0,2805,230,,,,,,,,,,,,,,,
3769904,1501039872458,,,,,,,,,0,2745,230,,,,,,,,,,,,,,,
3769914,1501039872468,,,,,,,,,0,2820,230,,,,,,,,,,,,,,,
3769924,1501039872478,3.35,,0.22,-0.19,0.99,-10,-1,4,0,2835,230,,,,,,,,,,,,,,,
3769934,1501039872488,,,,,,,,,0,2805,230,,,,,,,,,,,,,,,
3769944,1501039872495,,,,,,,,,0,2730,240,36.113354,-115.146164,14.41,7.659,2050.9,9,2,1.9,0,0.0,-1,0.0,0.0,0.0,0
3769954,1501039872505,,,,,,,,,0,2805,240,,,,,,,,,,,,,,,
3769964,1501039872515,3.33,,0.3,-0.24,1.1,-11,-1,5,0,2820,240,,,,,,,,,,,,,,,
3769974,1501039872525,,,,,,,,,0,2805,240,,,,,,,,,,,,,,,
3769984,1501039872535,,,,,,,,,0,2760,240,,,,,,,,,,,,,,,
3769994,1501039872545,,,,,,,,,0,2670,240,,,,,,,,,,,,,,,
3770004,1501039872555,3.31,,0.34,-0.23,0.93,-12,-1,7,0,2850,240,,,,,,,,,,,,,,,
3770014,1501039872565,,,,,,,,,0,2805,240,,,,,,,,,,,,,,,
3770024,1501039872575,,,,,,,,,0,2745,240,,,,,,,,,,,,,,,
3770034,1501039872585,,,,,,,,,0,2715,240,,,,,,,,,,,,,,,
3770044,1501039872597,3.28,4.5,0.35,-0.16,0.83,-12,-3,7,0,2775,240,36.113354,-115.146164,14.67,7.66,2050.6,9,2,1.9,0,0.0,-1,0.0,0.0,0.0,0
3770054,1501039872607,,,,,,,,,0,2805,240,,,,,,,,,,,,,,,
3770064,1501039872617,,,,,,,,,0,2775,250,,,,,,,,,,,,,,,
3770074,1501039872627,,,,,,,,,0,2685,250,,,,,,,,,,,,,,,
3770084,1501039872637,3.26,,0.31,-0.08,0.55,-12,-3,5,0,2790,250,,,,,,,,,,,,,,,
3770094,1501039872647,,,,,,,,,0,2805,250,,,,,,,,,,,,,,,
3770104,1501039872657,,,,,,,,,0,2760,240,,,,,,,,,,,,,,,
3770114,1501039872667,,,,,,,,,0,2700,240,,,,,,,,,,,,,,,
3770124,1501039872677,3.39,,0.21,-0.08,0.59,-11,-4,1,0,2625,240,,,,,,,,,,,,,,,
3770134,1501039872687,,,,,,,,,0,2790,240,,,,,,,,,,,,,,,
3770144,1501039872695,,,,,,,,,0,2745,250,36.11335,-115.146179,15.3,7.66,2050.6,9,2,1.9,0,0.0,-1,0.0,0.0,0.0,0
3770154,1501039872705,,,,,,,,,0,2745,250,,,,,,,,,,,,,,,
3770164,1501039872715,3.36,,0.17,-0.19,0.86,-10,-3,-2,0,2670,250,,,,,,,,,,,,,,,
3770174,1501039872725,,,,,,,,,0,2790,250,,,,,,,,,,,,,,,
3770184,1501039872735,,,,,,,,,0,2790,260,,,,,,,,,,,,,,,
3770194,1501039872745,,,,,,,,,0,2745,260,,,,,,,,,,,,,,,
3770204,1501039872755,3.32,,0.21,-0.21,1.05,-11,-2,5,0,2685,260,,,,,,,,,,,,,,,
3770214,1501039872765,,,,,,,,,0,2610,260,,,,,,,,,,,,,,,
3770224,1501039872775,,,,,,,,,0,2790,250,,,,,,,,,,,,,,,
3770234,1501039872785,,,,,,,,,0,2730,250,,,,,,,,,,,,,,,
3770244,1501039872797,3.31,,0.28,-0.22,1.03,-11,-4,5,0,2700,250,36.11335,-115.146179,15.86,7.661,2050.6,9,2,1.9,0,0.0,-1,0.0,0.0,0.0,0
3770254,1501039872807,,,,,,,,,0,2595,260,,,,,,,,,,,,,,,
3770264,1501039872817,,,,,,,,,0,2730,260,,,,,,,,,,,,,,,
3770274,1501039872827,,,,,,,,,0,2760,260,,,,,,,,,,,,,,,
3770284,1501039872837,3.31,,0.33,-0.16,0.83,-11,-6,4,0,2715,260,,,,,,,,,,,,,,,
3770294,1501039872847,,,,,,,,,0,2640,260,,,,,,,,,,,,,,,
3770304,1501039872857,,,,,,,,,0,2730,260,,,,,,,,,,,,,,,
3770314,1501039872867,,,,,,,,,0,2805,260,,,,,,,,,,,,,,,
3770324,1501039872877,3.25,,0.2,-0.13,0.75,-9,-7,-1,0,2715,260,,,,,,,,,,,,,,,
3770334,1501039872887,,,,,,,,,0,2685,260,,,,,,,,,,,,,,,
3770344,1501039872897,,,,,,,,,0,2595,260,36.11335,-115.146187,16.3,7.661,2050.6,9,2,2.0,0,0.0,-1,0.0,0.0,0.0,0
3770354,1501039872907,,,,,,,,,0,2805,260,,,,,,,,,,,,,,,
3770364,1501039872917,3.27,,0.15,-0.14,0.93,-8,-4,0,0,2745,260,,,,,,,,,,,,,,,
3770374,1501039872927,,,,,,,,,0,2730,260,,,,,,,,,,,,,,,
3770384,1501039872937,,,,,,,,,0,2640,260,,,,,,,,,,,,,,,
3770394,1501039872947,,,,,,,,,0,2730,260,,,,,,,,,,,,,,,
3770404,1501039872957,3.33,,0.13,-0.22,1.12,-8,-1,3,0,2745,270,,,,,,,,,,,,,,,
3770414,1501039872967,,,,,,,,,0,2715,270,,,,,,,,,,,,,,,
3770424,1501039872977,,,,,,,,,0,2685,270,,,,,,,,,,,,,,,
3770434,1501039872987,,,,,,,,,0,2595,270,,,,,,,,,,,,,,,
3770444,1501039872991,3.33,,0.21,-0.21,1.02,-10,-2,7,0,2790,260,36.11335,-115.146202,16.26,7.662,2050.8,9,2,2.2,0,0.0,-1,0.0,0.0,0.0,0
3770454,1501039873001,,,,,,,,,0,2715,260,,,,,,,,,,,,,,,
3770464,1501039873011,,,,,,,,,0,2685,260,,,,,,,,,,,,,,,
3770474,1501039873021,,,,,,,,,0,2625,260,,,,,,,,,,,,,,,
3770484,1501039873031,3.31,,0.23,-0.14,0.9,-9,-3,8,0,2715,260,,,,,,,,,,,,,,,
3770494,1501039873041,,,,,,,,,0,2745,260,,,,,,,,,,,,,,,
3770504,1501039873051,,,,,,,,,0,2700,260,,,,,,,,,,,,,,,
3770514,1501039873061,,,,,,,,,0,2670,260,,,,,,,,,,,,,,,
3770524,1501039873071,3.35,,0.19,-0.06,0.79,-9,-3,8,0,2580,270,,,,,,,,,,,,,,,
3770534,1501039873081,,,,,,,,,0,2760,270,,,,,,,,,,,,,,,
3770544,1501039873093,,,,,,,,,0,2700,270,36.11335,-115.146202,16.62,7.662,2051.1,9,2,2.2,0,0.0,-1,0.0,0.0,0.0,0
3770554,1501039873103,,,,,,,,,0,2670,270,,,,,,,,,,,,,,,
3770564,1501039873113,3.37,,0.13,-0.12,0.94,-7,-3,3,0,2625,270,,,,,,,,,,,,,,,
3770574,1501039873123,,,,,,,,,0,2715,270,,,,,,,,,,,,,,,
3770584,1501039873133,,,,,,,,,0,2745,270,,,,,,,,,,,,,,,
3770594,1501039873143,,,,,,,,,0,2700,270,,,,,,,,,,,,,,,
3770604,1501039873153,3.32,,0.17,-0.15,1.04,-8,-2,4,0,2625,270,,,,,,,,,,,,,,,
3770614,1501039873163,,,,,,,,,0,2580,270,,,,,,,,,,,,,,,
3770624,1501039873173,,,,,,,,,0,2760,280,,,,,,,,,,,,,,,
3770634,1501039873183,,,,,,,,,0,2715,280,,,,,,,,,,,,,,,
3770644,1501039873197,3.26,,0.2,-0.13,1.02,-8,-1,6,0,2670,280,36.113346,-115.146217,16.8,7.662,2051.5,9,2,2.2,0,0.0,-1,0.0,0.0,0.0,0
3770654,1501039873207,,,,,,,,,0,2565,280,,,,,,,,,,,,,,,
3770664,1501039873217,,,,,,,,,0,2715,280,,,,,,,,,,,,,,,
3770674,1501039873227,,,,,,,,,0,2760,280,,,,,,,,,,,,,,,
3770684,1501039873237,3.32,,0.25,-0.14,0.89,-9,-3,6,0,2715,280,,,,,,,,,,,,,,,
3770694,1501039873247,,,,,,,,,0,2625,270,,,,,,,,,,,,,,,
3770704,1501039873257,,,,,,,,,0,2715,270,,,,,,,,,,,,,,,
3770714,1501039873267,,,,,,,,,0,2775,270,,,,,,,,,,,,,,,
3770724,1501039873277,3.25,,0.14,-0.08,0.72,-8,-2,4,0,2700,270,,,,,,,,,,,,,,,
3770734,1501039873287,,,,,,,,,0,2655,280,,,,,,,,,,,,,,,
3770744,1501039873297,,,,,,,,,0,2580,280,36.113346,-115.146225,16.79,7.663,2051.6,9,2,1.9,0,0.0,-1,0.0,0.0,0.0,0
3770754,1501039873307,,,,,,,,,0,2775,280,,,,,,,,,,,,,,,
3770764,1501039873317,3.32,,0.09,-0.1,0.96,-7,0,1,0,2730,280,,,,,,,,,,,,,,,
3770774,1501039873327,,,,,,,,,0,2700,280,,,,,,,,,,,,,,,
3770784,1501039873337,,,,,,,,,0,2625,280,,,,,,,,,,,,,,,
3770794,1501039873347,,,,,,,,,0,2715,280,,,,,,,,,,,,,,,
3770804,1501039873357,3.31,,0.16,-0.14,1.04,-8,1,4,0,2730,280,,,,,,,,,,,,,,,
3770814,1501039873367,,,,,,,,,0,2715,280,,,,,,,,,,,,,,,
3770824,1501039873377,,,,,,,,,0,2685,280,,,,,,,,,,,,,,,
3770834,1501039873387,,,,,,,,,0,2595,290,,,,,,,,,,,,,,,
3770844,1501039873397,3.31,,0.2,-0.15,0.97,-9,0,7,0,2775,290,36.113346,-115.146225,16.75,7.663,2051.8,9,2,2.0,0,0.0,-1,0.0,0.0,0.0,0
3770854,1501039873407,,,,,,,,,0,2715,290,,,,,,,,,,,,,,,
3770864,1501039873417,,,,,,,,,0,2700,290,,,,,,,,,,,,,,,
3770874,1501039873427,,,,,,,,,0,2625,290,,,,,,,,,,,,,,,
3770884,1501039873437,3.26,,0.25,-0.08,0.75,-9,-1,7,0,2730,290,,,,,,,,,,,,,,,
3770894,1501039873447,,,,,,,,,0,2745,290,,,,,,,,,,,,,,,
3770904,1501039873457,,,,,,,,,0,2715,280,,,,,,,,,,,,,,,
3770914,1501039873467,,,,,,,,,0,2685,280,,,,,,,,,,,,,,,
3770924,1501039873477,3.33,,0.14,-0.07,0.72,-8,0,8,0,2595,280,,,,,,,,,,,,,,,
3770934,1501039873487,,,,,,,,,0,2790,280,,,,,,,,,,,,,,,
3770944,1501039873496,,,,,,,,,0,2715,290,36.113346,-115.14624,17.35,7.664,2051.9,9,2,2.0,0,0.0,-1,0.0,0.0,0.0,0
3770954,1501039873506,,,,,,,,,0,2685,290,,,,,,,,,,,,,,,
3770964,1501039873516,3.33,,0.06,-0.1,0.85,-6,-1,2,0,2640,290,,,,,,,,,,,,,,,
3770974,1501039873526,,,,,,,,,0,2730,290,,,,,,,,,,,,,,,
3770984,1501039873536,,,,,,,,,0,2745,290,,,,,,,,,,,,,,,
3770994,1501039873546,,,,,,,,,0,2715,290,,,,,,,,,,,,,,,
3771004,1501039873556,3.32,,0.11,-0.2,1.02,-7,1,7,0,2640,290,,,,,,,,,,,,,,,
3771014,1501039873566,,,,,,,,,0,2745,290,,,,,,,,,,,,,,,
3771024,1501039873576,,,,,,,,,0,2805,290,,,,,,,,,,,,,,,
3771034,1501039873586,,,,,,,,,0,2745,290,,,,,,,,,,,,,,,
3771044,1501039873596,3.29,4.5,0.15,-0.18,0.96,-7,-1,9,0,2715,300,36.113346,-115.146256,17.46,7.664,2052.2,9,2,2.0,0,0.0,-1,0.0,0.0,0.0,0
3771054,1501039873606,,,,,,,,,0,2625,300,,,,,,,,,,,,,,,
3771064,1501039873616,,,,,,,,,0,2805,300,,,,,,,,,,,,,,,
3771074,1501039873626,,,,,,,,,0,2775,290,,,,,,,,,,,,,,,
3771084,1501039873636,3.28,,0.2,-0.21,0.85,-8,-4,9,0,2730,290,,,,,,,,,,,,,,,
3771094,1501039873646,,,,,,,,,0,2655,290,,,,,,,,,,,,,,,
3771104,1501039873656,,,,,,,,,0,2745,290,,,,,,,,,,,,,,,
3771114,1501039873666,,,,,,,,,0,2760,290,,,,,,,,,,,,,,,
3771124,1501039873676,3.21,,0.18,-0.19,0.64,-7,-5,6,0,2730,290,,,,,,,,,,,,,,,
3771134,1501039873686,,,,,,,,,0,2700,290,,,,,,,,,,,,,,,
3771144,1501039873694,,,,,,,,,0,2610,300,36.113346,-115.146256,16.36,7.665,2051.9,9,2,1.9,0,0.0,-1,0.0,0.0,0.0,0
3771154,1501039873704,,,,,,,,,0,2805,300,,,,,,,,,,,,,,,
3771164,1501039873714,3.26,,0.04,-0.08,0.8,-6,-2,3,0,2730,300,,,,,,,,,,,,,,,
3771174,1501039873724,,,,,,,,,0,2715,300,,,,,,,,,,,,,,,
3771184,1501039873734,,,,,,,,,0,2670,300,,,,,,,,,,,,,,,
3771194,1501039873744,,,,,,,,,0,2760,300,,,,,,,,,,,,,,,
3771204,1501039873754,3.24,,-0.01,-0.14,1.0,-5,-0,0,0,2775,300,,,,,,,,,,,,,,,
3771214,1501039873764,,,,,,,,,0,2745,300,,,,,,,,,,,,,,,
3771224,1501039873774,,,,,,,,,0,2670,300,,,,,,,,,,,,,,,
3771234,1501039873784,,,,,,,,,0,2760,300,,,,,,,,,,,,,,,
3771244,1501039873794,3.32,,0.08,-0.18,1.03,-5,-1,0,0,2835,300,36.113346,-115.146271,17.21,7.665,2052.3,9,2,1.9,0,0.0,-1,0.0,0.0,0.0,0
3771254,1501039873804,,,,,,,,,0,2745,300,,,,,,,,,,,,,,,
3771264,1501039873814,,,,,,,,,0,2715,300,,,,,,,,,,,,,,,
3771274,1501039873824,,,,,,,,,0,2625,300,,,,,,,,,,,,,,,
3771284,1501039873834,3.27,,0.12,-0.16,0.93,-5,-1,5,0,2790,300,,,,,,,,,,,,,,,
3771294,1501039873844,,,,,,,,,0,2760,300,,,,,,,,,,,,,,,
3771304,1501039873854,,,,,,,,,0,2760,300,,,,,,,,,,,,,,,
3771314,1501039873864,,,,,,,,,0,2670,300,,,,,,,,,,,,,,,
3771324,1501039873874,3.27,,0.16,-0.09,0.82,-4,-4,3,0,2775,300,,,,,,,,,,,,,,,
3771334,1501039873884,,,,,,,,,0,2790,300,,,,,,,,,,,,,,,
3771344,1501039873894,,,,,,,,,0,2760,300,36.113346,-115.146271,16.36,7.666,2052.4,9,2,1.9,0,0.0,-1,0.0,0.0,0.0,0
3771354,1501039873904,,,,,,,,,0,2700,300,,,,,,,,,,,,,,,
3771364,1501039873914,3.29,,0.12,-0.05,0.84,-5,-4,-1,0,2610,300,,,,,,,,,,,,,,,
3771374,1501039873924,,,,,,,,,0,2805,300,,,,,,,,,,,,,,,
3771384,1501039873934,,,,,,,,,0,2760,300,,,,,,,,,,,,,,,
3771394,1501039873944,,,,,,,,,0,2715,300,,,,,,,,,,,,,,,
3771404,1501039873954,3.27,,0.05,-0.0,0.9,-3,-4,-2,0,2640,310,,,,,,,,,,,,,,,
3771414,1501039873964,,,,,,,,,0,2805,310,,,,,,,,,,,,,,,
3771424,1501039873974,,,,,,,,,0,2805,310,,,,,,,,,,,,,,,
3771434,1501039873984,,,,,,,,,0,2775,320,,,,,,,,,,,,,,,
3771444,1501039873994,3.31,,0.12,-0.12,1.11,-3,-2,4,0,2685,320,36.113346,-115.146271,16.36,7.666,2052.4,9,2,1.9,0,0.0,-1,0.0,0.0,0.0,0
3771454,1501039873998,,,,,,,,,0,2805,320,,,,,,,,,,,,,,,
3771464,1501039874008,,,,,,,,,0,2790,310,,,,,,,,,,,,,,,
3771474,1501039874018,,,,,,,,,0,2760,310,,,,,,,,,,,,,,,
3771484,1501039874028,3.27,,0.15,-0.12,1.11,-2,-1,7,0,2745,310,,,,,,,,,,,,,,,
3771494,1501039874038,,,,,,,,,0,2640,310,,,,,,,,,,,,,,,
3771504,1501039874048,,,,,,,,,0,2850,310,,,,,,,,,,,,,,,
3771514,1501039874058,,,,,,,,,0,2775,310,,,,,,,,,,,,,,,
3771524,1501039874068,3.28,,0.19,-0.15,1.05,-2,-5,6,0,2730,310,,,,,,,,,,,,,,,
3771534,1501039874078,,,,,,,,,0,2655,310,,,,,,,,,,,,,,,
3771544,1501039874096,,,,,,,,,0,2790,310,36.113342,-115.146294,18.3,7.667,2052.4,9,2,2.0,0,0.0,-1,0.0,0.0,0.0,0
3771554,1501039874106,,,,,,,,,0,2805,310,,,,,,,,,,,,,,,
3771564,1501039874116,3.29,,0.23,-0.15,0.82,-4,-7,7,0,2775,310,,,,,,,,,,,,,,,
3771574,1501039874126,,,,,,,,,0,2715,310,,,,,,,,,,,,,,,
3771584,1501039874136,,,,,,,,,0,2820,310,,,,,,,,,,,,,,,
3771594,1501039874146,,,,,,,,,0,2820,310,,,,,,,,,,,,,,,
3771604,1501039874156,3.25,,0.18,-0.09,0.7,-3,-10,7,0,2805,310,,,,,,,,,,,,,,,
3771614,1501039874166,,,,,,,,,0,2760,310,,,,,,,,,,,,,,,
3771624,1501039874176,,,,,,,,,0,2685,320,,,,,,,,,,,,,,,
3771634,1501039874186,,,,,,,,,0,2865,320,,,,,,,,,,,,,,,
3771644,1501039874196,3.23,,0.05,0.03,0.8,-2,-6,2,0,2835,320,36.113342,-115.146309,18.58,7.667,2052.5,9,2,2.0,0,0.0,-1,0.0,0.0,0.0,0
3771654,1501039874206,,,,,,,,,0,2760,320,,,,,,,,,,,,,,,
3771664,1501039874216,,,,,,,,,0,2685,320,,,,,,,,,,,,,,,
3771674,1501039874226,,,,,,,,,0,2865,320,,,,,,,,,,,,,,,
3771684,1501039874236,3.24,,-0.04,0.03,1.03,-3,-4,1,0,2820,310,,,,,,,,,,,,,,,
3771694,1501039874246,,,,,,,,,0,2835,310,,,,,,,,,,,,,,,
3771704,1501039874256,,,,,,,,,0,2745,310,,,,,,,,,,,,,,,
3771714,1501039874266,,,,,,,,,0,2835,320,,,,,,,,,,,,,,,
3771724,1501039874276,3.3,,0.01,-0.0,1.2,-3,-1,7,0,2850,320,,,,,,,,,,,,,,,
3771734,1501039874286,,,,,,,,,0,2820,320,,,,,,,,,,,,,,,
3771744,1501039874296,,,,,,,,,0,2745,320,36.113342,-115.146309,19.02,7.668,2052.6,9,2,2.0,0,0.0,-1,0.0,0.0,0.0,0
3771754,1501039874306,,,,,,,,,0,2865,320,,,,,,,,,,,,,,,
3771764,1501039874316,3.25,,0.09,-0.05,1.21,-3,1,7,0,2865,320,,,,,,,,,,,,,,,
3771774,1501039874326,,,,,,,,,0,2850,320,,,,,,,,,,,,,,,
3771784,1501039874336,,,,,,,,,0,2805,320,,,,,,,,,,,,,,,
3771794,1501039874346,,,,,,,,,0,2730,320,,,,,,,,,,,,,,,
3771804,1501039874356,3.28,,0.16,-0.11,1.11,-3,-2,6,0,2895,330,,,,,,,,,,,,,,,
3771814,1501039874366,,,,,,,,,0,2865,330,,,,,,,,,,,,,,,
3771824,1501039874376,,,,,,,,,0,2835,330,,,,,,,,,,,,,,,
3771834,1501039874386,,,,,,,,,0,2730,320,,,,,,,,,,,,,,,
3771844,1501039874396,3.28,,0.2,-0.18,0.94,-3,-4,8,0,2910,320,36.113342,-115.146317,19.4,7.668,2052.5,9,2,2.0,0,0.0,-1,0.0,0.0,0.0,0
3771854,1501039874406,,,,,,,,,0,2880,320,,,,,,,,,,,,,,,
3771864,1501039874416,,,,,,,,,0,2805,320,,,,,,,,,,,,,,,
3771874,1501039874426,,,,,,,,,0,2805,320,,,,,,,,,,,,,,,
3771884,1501039874436,3.3,,0.24,-0.21,0.71,-4,-6,8,0,2895,320,,,,,,,,,,,,,,,
3771894,1501039874446,,,,,,,,,0,2895,330,,,,,,,,,,,,,,,
3771904,1501039874456,,,,,,,,,0,2880,330,,,,,,,,,,,,,,,
3771914,1501039874466,,,,,,,,,0,2805,330,,,,,,,,,,,,,,,
3771924,1501039874476,3.31,,0.24,-0.12,0.55,-4,-7,7,0,2910,320,,,,,,,,,,,,,,,
3771934,1501039874486,,,,,,,,,0,2925,320,,,,,,,,,,,,,,,
3771944,1501039874495,,,,,,,,,0,2910,320,36.113338,-115.146332,19.72,7.669,2052.6,9,2,2.0,0,0.0,-1,0.0,0.0,0.0,0
3771954,1501039874505,,,,,,,,,0,2820,330,,,,,,,,,,,,,,,
3771964,1501039874515,3.35,,0.16,0.02,0.44,-3,-8,7,0,2925,330,,,,,,,,,,,,,,,
3771974,1501039874525,,,,,,,,,0,2925,330,,,,,,,,,,,,,,,
3771984,1501039874535,,,,,,,,,0,2910,340,,,,,,,,,,,,,,,
3771994,1501039874545,,,,,,,,,0,2880,340,,,,,,,,,,,,,,,
3772004,1501039874555,3.35,,0.04,0.13,0.48,-0,-5,3,0,2790,340,,,,,,,,,,,,,,,
3772014,1501039874565,,,,,,,,,0,2970,330,,,,,,,,,,,,,,,
3772024,1501039874575,,,,,,,,,0,2925,330,,,,,,,,,,,,,,,
3772034,1501039874585,,,,,,,,,0,2865,330,,,,,,,,,,,,,,,
3772044,1501039874597,3.3,4.51,-0.02,0.11,0.65,1,-5,-2,0,2820,330,36.113338,-115.146347,20.31,7.669,2052.6,9,2,2.0,0,0.0,-1,0.0,0.0,0.0,0
3772054,1501039874607,,,,,,,,,0,2955,330,,,,,,,,,,,,,,,
3772064,1501039874617,,,,,,,,,0,2940,330,,,,,,,,,,,,,,,
3772074,1501039874627,,,,,,,,,0,2895,340,,,,,,,,,,,,,,,
3772084,1501039874637,3.34,,-0.06,0.04,0.91,1,-2,-5,0,2820,340,,,,,,,,,,,,,,,
3772094,1501039874647,,,,,,,,,0,2970,340,,,,,,,,,,,,,,,
3772104,1501039874657,,,,,,,,,0,2940,330,,,,,,,,,,,,,,,
3772114,1501039874667,,,,,,,,,0,2880,330,,,,,,,,,,,,,,,
3772124,1501039874677,3.33,,-0.11,0.02,1.11,0,2,-10,0,2820,330,,,,,,,,,,,,,,,
3772134,1501039874687,,,,,,,,,0,2970,330,,,,,,,,,,,,,,,
3772144,1501039874697,,,,,,,,,0,2955,330,36.113338,-115.146355,20.78,7.67,2052.5,9,2,2.0,0,0.0,-1,0.0,0.0,0.0,0
3772154,1501039874707,,,,,,,,,0,2895,330,,,,,,,,,,,,,,,
3772164,1501039874717,3.29,,-0.09,-0.04,1.28,-2,3,-4,0,2835,340,,,,,,,,,,,,,,,
3772174,1501039874727,,,,,,,,,0,3030,340,,,,,,,,,,,,,,,
3772184,1501039874737,,,,,,,,,0,2985,340,,,,,,,,,,,,,,,
3772194,1501039874747,,,,,,,,,0,2910,340,,,,,,,,,,,,,,,
3772204,1501039874757,3.27,,-0.0,-0.09,1.41,-4,2,4,0,2880,340,,,,,,,,,,,,,,,
3772214,1501039874767,,,,,,,,,0,3000,340,,,,,,,,,,,,,,,
3772224,1501039874777,,,,,,,,,0,2985,330,,,,,,,,,,,,,,,
3772234,1501039874787,,,,,,,,,0,2955,330,,,,,,,,,,,,,,,
3772244,1501039874795,3.27,,0.08,-0.15,1.52,-3,1,10,0,2895,330,36.113335,-115.146355,21.3,7.671,2052.5,9,2,2.0,0,0.0,-1,0.0,0.0,0.0,0
3772254,1501039874805,,,,,,,,,0,3000,340,,,,,,,,,,,,,,,
3772264,1501039874815,,,,,,,,,0,2985,340,,,,,,,,,,,,,,,
3772274,1501039874825,,,,,,,,,0,3000,340,,,,,,,,,,,,,,,
3772284,1501039874835,3.34,,0.17,-0.23,1.58,-2,1,11,0,2910,340,,,,,,,,,,,,,,,
3772294,1501039874845,,,,,,,,,0,3015,340,,,,,,,,,,,,,,,
3772304,1501039874855,,,,,,,,,0,3015,340,,,,,,,,,,,,,,,
3772314,1501039874865,,,,,,,,,0,3000,340,,,,,,,,,,,,,,,
3772324,1501039874875,3.29,,0.25,-0.24,1.53,-2,2,12,0,2925,340,,,,,,,,,,,,,,,
3772334,1501039874885,,,,,,,,,0,3000,340,,,,,,,,,,,,,,,
3772344,1501039874897,,,,,,,,,0,3015,340,36.113335,-115.14637,21.51,7.671,2052.5,9,2,2.0,0,0.0,-1,0.0,0.0,0.0,0
3772354,1501039874907,,,,,,,,,0,3030,340,,,,,,,,,,,,,,,
3772364,1501039874917,3.25,,0.34,-0.27,1.43,-2,3,14,0,2895,340,,,,,,,,,,,,,,,
3772374,1501039874927,,,,,,,,,0,3045,340,,,,,,,,,,,,,,,
3772384,1501039874937,,,,,,,,,0,3045,340,,,,,,,,,,,,,,,
3772394,1501039874947,,,,,,,,,0,2970,340,,,,,,,,,,,,,,,
3772404,1501039874957,3.28,,0.39,-0.35,1.52,-1,2,12,0,2940,340,,,,,,,,,,,,,,,
3772414,1501039874967,,,,,,,,,0,3030,340,,,,,,,,,,,,,,,
3772424,1501039874977,,,,,,,,,0,3000,340,,,,,,,,,,,,,,,
3772434,1501039874987,,,,,,,,,0,3030,340,,,,,,,,,,,,,,,
3772444,1501039874997,3.25,,0.48,-0.31,1.45,-1,3,12,0,2925,340,36.113335,-115.14637,21.51,7.671,2052.5,9,2,2.0,0,0.0,-1,0.0,0.0,0.0,0
3772454,1501039874999,,,,,,,,,0,3015,340,,,,,,,,,,,,,,,
3772464,1501039875009,,,,,,,,,0,3045,340,,,,,,,,,,,,,,,
3772474,1501039875019,,,,,,,,,0,3030,340,,,,,,,,,,,,,,,
3772484,1501039875029,3.29,,0.52,-0.32,1.32,-1,3,14,0,2940,350,,,,,,,,,,,,,,,
3772494,1501039875039,,,,,,,,,0,3090,350,,,,,,,,,,,,,,,
3772504,1501039875049,,,,,,,,,0,3075,350,,,,,,,,,,,,,,,
3772514,1501039875059,,,,,,,,,0,3045,350,,,,,,,,,,,,,,,
3772524,1501039875069,3.29,,0.57,-0.3,1.17,-1,3,14,0,2985,350,,,,,,,,,,,,,,,
3772534,1501039875079,,,,,,,,,0,3105,350,,,,,,,,,,,,,,,
3772544,1501039875095,,,,,,,,,0,3075,350,36.113331,-115.146393,21.83,7.672,2052.5,9,2,1.9,0,0.0,-1,0.0,0.0,0.0,0
3772554,1501039875105,,,,,,,,,0,3075,350,,,,,,,,,,,,,,,
3772564,1501039875115,3.22,,0.61,-0.36,1.08,0,3,12,0,2985,350,,,,,,,,,,,,,,,
3772574,1501039875125,,,,,,,,,0,3120,340,,,,,,,,,,,,,,,
3772584,1501039875135,,,,,,,,,0,3060,340,,,,,,,,,,,,,,,
3772594,1501039875145,,,,,,,,,0,3000,350,,,,,,,,,,,,,,,
3772604,1501039875155,3.29,,0.57,-0.36,1.18,2,4,12,0,2955,350,,,,,,,,,,,,,,,
3772614,1501039875165,,,,,,,,,0,3090,350,,,,,,,,,,,,,,,
3772624,1501039875175,,,,,,,,,0,3060,350,,,,,,,,,,,,,,,
3772634,1501039875185,,,,,,,,,0,3045,350,,,,,,,,,,,,,,,
3772644,1501039875197,3.31,,0.56,-0.4,1.25,2,5,15,0,2940,350,36.113327,-115.146408,22.1,7.673,2052.4,9,2,1.9,0,0.0,-1,0.0,0.0,0.0,0
3772654,1501039875207,,,,,,,,,0,3105,350,,,,,,,,,,,,,,,
3772664,1501039875217,,,,,,,,,0,3075,350,,,,,,,,,,,,,,,
3772674,1501039875227,,,,,,,,,0,3045,350,,,,,,,,,,,,,,,
3772684,1501039875237,3.3,,0.5,-0.4,1.3,1,6,17,0,2970,360,,,,,,,,,,,,,,,
3772694,1501039875247,,,,,,,,,0,3150,360,,,,,,,,,,,,,,,
3772704,1501039875257,,,,,,,,,0,3075,360,,,,,,,,,,,,,,,
3772714,1501039875267,,,,,,,,,0,3030,350,,,,,,,,,,,,,,,
3772724,1501039875277,3.37,,0.38,-0.38,1.43,-2,10,19,0,2985,350,,,,,,,,,,,,,,,
3772734,1501039875287,,,,,,,,,0,3135,350,,,,,,,,,,,,,,,
3772744,1501039875297,,,,,,,,,0,3090,350,36.113327,-115.146423,22.47,7.674,2052.4,9,2,1.9,0,0.0,-1,0.0,0.0,0.0,0
3772754,1501039875307,,,,,,,,,0,3060,350,,,,,,,,,,,,,,,
3772764,1501039875317,3.33,,0.24,-0.32,1.54,-3,16,15,0,2985,350,,,,,,,,,,,,,,,
3772774,1501039875327,,,,,,,,,0,3120,350,,,,,,,,,,,,,,,
3772784,1501039875337,,,,,,,,,0,3090,350,,,,,,,,,,,,,,,
3772794,1501039875347,,,,,,,,,0,3090,360,,,,,,,,,,,,,,,
3772804,1501039875357,3.23,,0.1,-0.3,1.63,-2,17,12,0,3150,360,,,,,,,,,,,,,,,
3772814,1501039875367,,,,,,,,,0,3120,360,,,,,,,,,,,,,,,
3772824,1501039875377,,,,,,,,,0,3135,360,,,,,,,,,,,,,,,
3772834,1501039875387,,,,,,,,,0,3045,360,,,,,,,,,,,,,,,
3772844,1501039875397,3.29,,0.04,-0.22,1.6,-0,16,7,0,3120,360,36.113327,-115.146423,22.63,7.674,2052.4,9,2,1.9,0,0.0,-1,0.0,0.0,0.0,0
3772854,1501039875407,,,,,,,,,0,3090,360,,,,,,,,,,,,,,,
3772864,1501039875417,,,,,,,,,0,3135,360,,,,,,,,,,,,,,,
3772874,1501039875427,,,,,,,,,0,3030,350,,,,,,,,,,,,,,,
3772884,1501039875437,3.35,,0.11,-0.17,1.62,2,10,-2,0,3120,350,,,,,,,,,,,,,,,
3772894,1501039875447,,,,,,,,,0,3150,350,,,,,,,,,,,,,,,
3772904,1501039875457,,,,,,,,,0,3120,350,,,,,,,,,,,,,,,
3772914,1501039875467,,,,,,,,,0,3030,350,,,,,,,,,,,,,,,
3772924,1501039875477,3.24,,0.16,-0.14,1.25,2,6,-5,0,3150,350,,,,,,,,,,,,,,,
3772934,1501039875487,,,,,,,,,0,3120,360,,,,,,,,,,,,,,,
3772944,1501039875496,,,,,,,,,0,3120,360,36.113327,-115.146431,22.9,7.675,2052.2,9,2,1.9,0,0.0,-1,0.0,0.0,0.0,0
3772954,1501039875506,,,,,,,,,0,3015,360,,,,,,,,,,,,,,,
3772964,1501039875516,3.27,,0.22,-0.09,0.93,1,-1,-5,0,3195,350,,,,,,,,,,,,,,,
3772974,1501039875526,,,,,,,,,0,3135,350,,,,,,,,,,,,,,,
3772984,1501039875536,,,,,,,,,0,3090,360,,,,,,,,,,,,,,,
3772994,1501039875546,,,,,,,,,0,3045,360,,,,,,,,,,,,,,,
3773004,1501039875556,3.27,,0.24,-0.02,0.76,1,-7,2,0,3225,360,,,,,,,,,,,,,,,
3773014,1501039875566,,,,,,,,,0,3165,370,,,,,,,,,,,,,,,
3773024,1501039875576,,,,,,,,,0,3120,370,,,,,,,,,,,,,,,
3773034,1501039875586,,,,,,,,,0,3045,370,,,,,,,,,,,,,,,
3773044,1501039875596,3.26,4.51,0.24,-0.01,0.4,1,-13,4,0,3180,360,36.113323,-115.146446,23.02,7.675,2052.2,9,2,1.9,0,0.0,-1,0.0,0.0,0.0,0
3773054,1501039875606,,,,,,,,,0,3195,360,,,,,,,,,,,,,,,
3773064,1501039875616,,,,,,,,,0,3105,360,,,,,,,,,,,,,,,
3773074,1501039875626,,,,,,,,,0,3165,360,,,,,,,,,,,,,,,
3773084,1501039875636,3.37,,0.17,0.03,0.14,-1,-11,8,0,3165,360,,,,,,,,,,,,,,,
3773094,1501039875646,,,,,,,,,0,3180,360,,,,,,,,,,,,,,,
3773104,1501039875656,,,,,,,,,0,3105,360,,,,,,,,,,,,,,,
3773114,1501039875666,,,,,,,,,0,3135,360,,,,,,,,,,,,,,,
3773124,1501039875676,3.36,,0.15,0.02,0.13,-3,-10,11,0,3165,360,,,,,,,,,,,,,,,
3773134,1501039875686,,,,,,,,,0,3195,360,,,,,,,,,,,,,,,
3773144,1501039875696,,,,,,,,,0,3090,360,36.113323,-115.146461,23.23,7.676,2052.2,9,2,1.9,0,0.0,-1,0.0,0.0,0.0,0
3773154,1501039875706,,,,,,,,,0,3210,360,,,,,,,,,,,,,,,
3773164,1501039875716,3.33,,0.11,-0.04,0.35,-5,-8,13,0,3180,360,,,,,,,,,,,,,,,
3773174,1501039875726,,,,,,,,,0,3165,370,,,,,,,,,,,,,,,
3773184,1501039875736,,,,,,,,,0,3075,370,,,,,,,,,,,,,,,
3773194,1501039875746,,,,,,,,,0,3240,370,,,,,,,,,,,,,,,
3773204,1501039875756,3.29,,0.06,-0.09,0.66,-6,1,13,0,3195,370,,,,,,,,,,,,,,,
3773214,1501039875766,,,,,,,,,0,3150,370,,,,,,,,,,,,,,,
3773224,1501039875776,,,,,,,,,0,3225,370,,,,,,,,,,,,,,,
3773234,1501039875786,,,,,,,,,0,3210,360,,,,,,,,,,,,,,,
3773244,1501039875796,3.28,,0.02,-0.18,0.9,-2,6,7,0,3225,360,36.113319,-115.146469,23.53,7.677,2052.1,9,2,1.9,0,0.0,-1,0.0,0.0,0.0,0
3773254,1501039875806,,,,,,,,,0,3135,360,,,,,,,,,,,,,,,
3773264,1501039875816,,,,,,,,,0,3240,360,,,,,,,,,,,,,,,
3773274,1501039875826,,,,,,,,,0,3225,360,,,,,,,,,,,,,,,
3773284,1501039875836,3.3,,0.13,-0.15,1.03,0,3,0,0,3240,370,,,,,,,,,,,,,,,
3773294,1501039875846,,,,,,,,,0,3165,370,,,,,,,,,,,,,,,
3773304,1501039875856,,,,,,,,,0,3300,370,,,,,,,,,,,,,,,
3773314,1501039875866,,,,,,,,,0,3240,370,,,,,,,,,,,,,,,
3773324,1501039875876,3.25,,0.18,-0.09,0.93,-1,-3,-1,0,3195,370,,,,,,,,,,,,,,,
3773334,1501039875886,,,,,,,,,0,3135,370,,,,,,,,,,,,,,,
3773344,1501039875896,,,,,,,,,0,3360,370,36.113319,-115.146484,23.7,7.677,2052.2,9,2,1.9,0,0.0,-1,0.0,0.0,0.0,0
3773354,1501039875906,,,,,,,,,0,3240,370,,,,,,,,,,,,,,,
3773364,1501039875916,3.29,,0.15,-0.0,0.74,-2,-7,3,0,3195,370,,,,,,,,,,,,,,,
3773374,1501039875926,,,,,,,,,0,3255,370,,,,,,,,,,,,,,,
3773384,1501039875936,,,,,,,,,0,3255,370,,,,,,,,,,,,,,,
3773394,1501039875946,,,,,,,,,0,3270,370,,,,,,,,,,,,,,,
3773404,1501039875956,3.31,,0.1,0.01,0.58,-4,-5,6,0,3195,370,,,,,,,,,,,,,,,
3773414,1501039875966,,,,,,,,,0,3240,370,,,,,,,,,,,,,,,
3773424,1501039875976,,,,,,,,,0,3255,370,,,,,,,,,,,,,,,
3773434,1501039875986,,,,,,,,,0,3195,370,,,,,,,,,,,,,,,
