"Interval"|"ms"|0|0|1,"Utc"|"ms"|0|0|1,"Analog1"|""|0.0|5.0|25,"Battery"|"Volts"|0.0|20.0|1,"AccelX"|"G"|-3.0|3.0|25,"AccelY"|"G"|-3.0|3.0|25,"AccelZ"|"G"|-3.0|3.0|25,"Yaw"|"Deg/Sec"|-120|120|25,"Pitch"|"Deg/Sec"|-120|120|25,"Roll"|"Deg/Sec"|-120|120|25,"RPM"|""|0|10000|100,"EngineRPM"|""|0|10000|100,"AxleRpm"|""|0|10000|100,"Latitude"|"Degrees"|-180.0|180.0|10,"Longitude"|"Degrees"|-180.0|180.0|10,"Speed"|"mph"|0.0|150.0|10,"Distance"|"mi"|0.0|0.0|10,"Altitude"|"ft"|0.0|4000.0|10,"GPSSats"|""|0|20|10,"GPSQual"|""|0|5|10,"GPSDOP"|""|0.0|20.0|10,"LapCount"|""|0|0|10,"LapTime"|"Min"|0.0|0.0|10,"Sector"|""|0|0|10,"SectorTime"|"Min"|0.0|0.0|10,"PredTime"|"Min"|0.0|0.0|10,"ElapsedTime"|"Min"|0.0|0.0|10,"CurrentLap"|""|0|0|10
4224444,1501040326995,3.34,,-0.06,-0.11,0.57,-1,-6,2,0,1320,0,36.113461,-115.146027,0.0,9.721,2027.5,8,2,2.5,0,0.0,-1,0.0,0.0,0.0,0
4224454,1501040327005,,,,,,,,,0,1530,0,,,,,,,,,,,,,,,
4224464,1501040327015,,,,,,,,,0,1605,0,,,,,,,,,,,,,,,
4224474,1501040327025,,,,,,,,,0,1575,0,,,,,,,,,,,,,,,
4224484,1501040327035,3.35,,-0.05,-0.12,0.54,-2,-5,2,0,1530,0,,,,,,,,,,,,,,,
4224494,1501040327045,,,,,,,,,0,1515,0,,,,,,,,,,,,,,,
4224504,1501040327055,,,,,,,,,0,1455,0,,,,,,,,,,,,,,,
4224514,1501040327065,,,,,,,,,0,1395,0,,,,,,,,,,,,,,,
4224524,1501040327075,3.35,,-0.07,-0.13,0.61,-2,-3,2,0,1320,0,,,,,,,,,,,,,,,
4224534,1501040327093,,,,,,,,,0,1530,0,,,,,,,,,,,,,,,
4224544,1501040327103,,,,,,,,,0,1605,0,36.113461,-115.146027,0.0,9.721,2027.5,8,2,2.5,0,0.0,-1,0.0,0.0,0.0,0
4224554,1501040327113,,,,,,,,,0,1560,0,,,,,,,,,,,,,,,
4224564,1501040327123,3.32,,-0.05,-0.13,0.55,-2,-5,3,0,1545,0,,,,,,,,,,,,,,,
4224574,1501040327133,,,,,,,,,0,1515,0,,,,,,,,,,,,,,,
4224584,1501040327143,,,,,,,,,0,1455,0,,,,,,,,,,,,,,,
4224594,1501040327153,,,,,,,,,0,1395,0,,,,,,,,,,,,,,,
4224604,1501040327163,3.28,,-0.08,-0.13,0.65,-2,-4,3,0,1320,0,,,,,,,,,,,,,,,
4224614,1501040327173,,,,,,,,,0,1530,0,,,,,,,,,,,,,,,
4224624,1501040327183,,,,,,,,,0,1605,0,,,,,,,,,,,,,,,
4224634,1501040327193,,,,,,,,,0,1575,0,,,,,,,,,,,,,,,
4224644,1501040327203,3.32,,-0.07,-0.1,0.58,-2,-6,3,0,1545,0,36.113461,-115.146027,0.0,9.721,2027.5,8,2,2.5,0,0.0,-1,0.0,0.0,0.0,0
4224654,1501040327213,,,,,,,,,0,1530,0,,,,,,,,,,,,,,,
4224664,1501040327223,,,,,,,,,0,1455,0,,,,,,,,,,,,,,,
4224674,1501040327233,,,,,,,,,0,1410,0,,,,,,,,,,,,,,,
4224684,1501040327243,3.27,,-0.1,-0.1,0.63,-2,-7,3,0,1320,0,,,,,,,,,,,,,,,
4224694,1501040327253,,,,,,,,,0,1545,0,,,,,,,,,,,,,,,
4224704,1501040327263,,,,,,,,,0,1620,0,,,,,,,,,,,,,,,
4224714,1501040327273,,,,,,,,,0,1575,0,,,,,,,,,,,,,,,
4224724,1501040327283,3.27,,-0.1,-0.07,0.65,-2,-9,2,0,1560,0,,,,,,,,,,,,,,,
4224734,1501040327293,,,,,,,,,0,1530,0,,,,,,,,,,,,,,,
4224744,1501040327303,,,,,,,,,0,1455,0,36.113461,-115.146027,0.0,9.721,2027.5,8,2,2.5,0,0.0,-1,0.0,0.0,0.0,0
4224754,1501040327313,,,,,,,,,0,1425,0,,,,,,,,,,,,,,,
4224764,1501040327323,3.26,,-0.14,-0.06,0.7,-1,-8,2,0,1320,0,,,,,,,,,,,,,,,
4224774,1501040327333,,,,,,,,,0,1545,0,,,,,,,,,,,,,,,
4224784,1501040327343,,,,,,,,,0,1620,0,,,,,,,,,,,,,,,
4224794,1501040327353,,,,,,,,,0,1590,0,,,,,,,,,,,,,,,
4224804,1501040327363,3.29,,-0.12,-0.05,0.74,-1,-7,2,0,1545,0,,,,,,,,,,,,,,,
4224814,1501040327373,,,,,,,,,0,1530,0,,,,,,,,,,,,,,,
4224824,1501040327383,,,,,,,,,0,1470,0,,,,,,,,,,,,,,,
4224834,1501040327393,,,,,,,,,0,1425,0,,,,,,,,,,,,,,,
4224844,1501040327403,3.33,,-0.16,-0.03,0.77,-1,-6,2,0,1335,0,36.113461,-115.146027,0.0,9.721,2027.5,8,2,2.5,0,0.0,-1,0.0,0.0,0.0,0
4224854,1501040327413,,,,,,,,,0,1545,0,,,,,,,,,,,,,,,
4224864,1501040327423,,,,,,,,,0,1620,0,,,,,,,,,,,,,,,
4224874,1501040327433,,,,,,,,,0,1575,0,,,,,,,,,,,,,,,
4224884,1501040327443,3.33,,-0.12,-0.04,0.79,-1,-7,1,0,1560,0,,,,,,,,,,,,,,,
4224894,1501040327453,,,,,,,,,0,1530,0,,,,,,,,,,,,,,,
4224904,1501040327463,,,,,,,,,0,1470,0,,,,,,,,,,,,,,,
4224914,1501040327473,,,,,,,,,0,1410,0,,,,,,,,,,,,,,,
4224924,1501040327483,3.34,,-0.14,-0.03,0.79,-1,-6,2,0,1335,0,,,,,,,,,,,,,,,
4224934,1501040327493,,,,,,,,,0,1545,0,,,,,,,,,,,,,,,
4224944,1501040327503,,,,,,,,,0,1620,0,36.113461,-115.146027,0.0,9.721,2027.5,8,2,2.5,0,0.0,-1,0.0,0.0,0.0,0
4224954,1501040327513,,,,,,,,,0,1575,0,,,,,,,,,,,,,,,
4224964,1501040327523,3.35,,-0.11,-0.03,0.77,-1,-6,1,0,1560,0,,,,,,,,,,,,,,,
4224974,1501040327533,,,,,,,,,0,1530,0,,,,,,,,,,,,,,,
4224984,1501040327543,,,,,,,,,0,1455,0,,,,,,,,,,,,,,,
4224994,1501040327553,,,,,,,,,0,1410,0,,,,,,,,,,,,,,,
4225004,1501040327563,3.35,,-0.14,-0.02,0.77,-1,-5,1,0,1335,0,,,,,,,,,,,,,,,
4225014,1501040327573,,,,,,,,,0,1545,0,,,,,,,,,,,,,,,
4225024,1501040327583,,,,,,,,,0,1620,0,,,,,,,,,,,,,,,
4225034,1501040327593,,,,,,,,,0,1575,0,,,,,,,,,,,,,,,
4225044,1501040327603,3.36,4.47,-0.11,-0.02,0.77,-1,-5,1,0,1560,0,36.113461,-115.146027,0.0,9.721,2027.5,8,2,2.5,0,0.0,-1,0.0,0.0,0.0,0
4225054,1501040327613,,,,,,,,,0,1530,0,,,,,,,,,,,,,,,
4225064,1501040327623,,,,,,,,,0,1470,0,,,,,,,,,,,,,,,
4225074,1501040327633,,,,,,,,,0,1410,0,,,,,,,,,,,,,,,
4225084,1501040327643,3.35,,-0.13,-0.03,0.75,-1,-5,0,0,1335,0,,,,,,,,,,,,,,,
4225094,1501040327653,,,,,,,,,0,1545,0,,,,,,,,,,,,,,,
4225104,1501040327663,,,,,,,,,0,1620,0,,,,,,,,,,,,,,,
4225114,1501040327673,,,,,,,,,0,1590,0,,,,,,,,,,,,,,,
4225124,1501040327683,3.35,,-0.1,-0.02,0.76,-1,-6,1,0,1560,0,,,,,,,,,,,,,,,
4225134,1501040327693,,,,,,,,,0,1530,0,,,,,,,,,,,,,,,
4225144,1501040327703,,,,,,,,,0,1470,0,36.113461,-115.146027,0.0,9.721,2027.5,8,2,2.5,0,0.0,-1,0.0,0.0,0.0,0
4225154,1501040327713,,,,,,,,,0,1425,0,,,,,,,,,,,,,,,
4225164,1501040327723,3.37,,-0.11,-0.04,0.74,-1,-5,0,0,1335,0,,,,,,,,,,,,,,,
4225174,1501040327733,,,,,,,,,0,1545,0,,,,,,,,,,,,,,,
4225184,1501040327743,,,,,,,,,0,1620,0,,,,,,,,,,,,,,,
4225194,1501040327753,,,,,,,,,0,1575,0,,,,,,,,,,,,,,,
4225204,1501040327763,3.38,,-0.08,-0.01,0.73,-1,-6,-1,0,1560,0,,,,,,,,,,,,,,,
4225214,1501040327773,,,,,,,,,0,1530,0,,,,,,,,,,,,,,,
4225224,1501040327783,,,,,,,,,0,1470,0,,,,,,,,,,,,,,,
4225234,1501040327793,,,,,,,,,0,1425,0,,,,,,,,,,,,,,,
4225244,1501040327803,3.36,,-0.09,-0.06,0.74,-0,-5,-1,0,1335,0,36.113461,-115.146027,0.0,9.721,2027.5,8,2,2.5,0,0.0,-1,0.0,0.0,0.0,0
4225254,1501040327813,,,,,,,,,0,1545,0,,,,,,,,,,,,,,,
4225264,1501040327823,,,,,,,,,0,1620,0,,,,,,,,,,,,,,,
4225274,1501040327833,,,,,,,,,0,1575,0,,,,,,,,,,,,,,,
4225284,1501040327843,3.36,,-0.07,-0.04,0.73,-0,-6,-1,0,1560,0,,,,,,,,,,,,,,,
4225294,1501040327853,,,,,,,,,0,1530,0,,,,,,,,,,,,,,,
4225304,1501040327863,,,,,,,,,0,1470,0,,,,,,,,,,,,,,,
4225314,1501040327873,,,,,,,,,0,1425,0,,,,,,,,,,,,,,,
4225324,1501040327883,3.34,,-0.09,-0.09,0.73,0,-5,-2,0,1335,0,,,,,,,,,,,,,,,
4225334,1501040327892,,,,,,,,,0,1545,0,,,,,,,,,,,,,,,
4225344,1501040327902,,,,,,,,,0,1620,0,36.113461,-115.146027,0.0,9.721,2027.5,8,2,2.5,0,0.0,-1,0.0,0.0,0.0,0
4225354,1501040327912,,,,,,,,,0,1575,0,,,,,,,,,,,,,,,
4225364,1501040327922,3.38,,-0.07,-0.06,0.72,0,-6,-1,0,1545,0,,,,,,,,,,,,,,,
4225374,1501040327932,,,,,,,,,0,1530,0,,,,,,,,,,,,,,,
4225384,1501040327942,,,,,,,,,0,1470,0,,,,,,,,,,,,,,,
4225394,1501040327952,,,,,,,,,0,1425,0,,,,,,,,,,,,,,,
4225404,1501040327962,3.35,,-0.07,-0.11,0.74,1,-5,-2,0,1335,0,,,,,,,,,,,,,,,
4225414,1501040327972,,,,,,,,,0,1545,0,,,,,,,,,,,,,,,
4225424,1501040327982,,,,,,,,,0,1620,0,,,,,,,,,,,,,,,
4225434,1501040327992,,,,,,,,,0,1590,0,,,,,,,,,,,,,,,
4225444,1501040327996,3.38,,-0.05,-0.06,0.74,0,-7,-1,0,1560,0,36.113461,-115.146027,0.0,9.721,2027.5,8,2,2.5,0,0.0,-1,0.0,0.0,0.0,0
4225454,1501040328006,,,,,,,,,0,1530,0,,,,,,,,,,,,,,,
4225464,1501040328016,,,,,,,,,0,1470,0,,,,,,,,,,,,,,,
4225474,1501040328026,,,,,,,,,0,1425,0,,,,,,,,,,,,,,,
4225484,1501040328036,3.33,,-0.05,-0.11,0.74,0,-7,0,0,1335,0,,,,,,,,,,,,,,,
4225494,1501040328046,,,,,,,,,0,1545,0,,,,,,,,,,,,,,,
4225504,1501040328056,,,,,,,,,0,1620,0,,,,,,,,,,,,,,,
4225514,1501040328066,,,,,,,,,0,1590,0,,,,,,,,,,,,,,,
4225524,1501040328076,3.37,,-0.04,-0.07,0.75,0,-8,1,0,1560,0,,,,,,,,,,,,,,,
4225534,1501040328086,,,,,,,,,0,1545,0,,,,,,,,,,,,,,,
4225544,1501040328100,,,,,,,,,0,1470,0,36.113461,-115.146027,0.0,9.721,2027.5,8,2,2.5,0,0.0,-1,0.0,0.0,0.0,0
4225554,1501040328110,,,,,,,,,0,1425,0,,,,,,,,,,,,,,,
4225564,1501040328120,3.33,,-0.02,-0.11,0.76,0,-8,1,0,1350,0,,,,,,,,,,,,,,,
4225574,1501040328130,,,,,,,,,0,1545,0,,,,,,,,,,,,,,,
4225584,1501040328140,,,,,,,,,0,1620,0,,,,,,,,,,,,,,,
4225594,1501040328150,,,,,,,,,0,1590,0,,,,,,,,,,,,,,,
4225604,1501040328160,3.36,,-0.02,-0.06,0.77,-0,-8,2,0,1560,0,,,,,,,,,,,,,,,
4225614,1501040328170,,,,,,,,,0,1545,0,,,,,,,,,,,,,,,
4225624,1501040328180,,,,,,,,,0,1470,0,,,,,,,,,,,,,,,
4225634,1501040328190,,,,,,,,,0,1425,0,,,,,,,,,,,,,,,
4225644,1501040328200,3.34,,-0.0,-0.08,0.79,-1,-9,3,0,1350,0,36.113461,-115.146027,0.0,9.721,2027.5,8,2,2.5,0,0.0,-1,0.0,0.0,0.0,0
4225654,1501040328210,,,,,,,,,0,1560,0,,,,,,,,,,,,,,,
4225664,1501040328220,,,,,,,,,0,1620,0,,,,,,,,,,,,,,,
4225674,1501040328230,,,,,,,,,0,1590,0,,,,,,,,,,,,,,,
4225684,1501040328240,3.37,,0.0,-0.05,0.78,-1,-10,3,0,1560,0,,,,,,,,,,,,,,,
4225694,1501040328250,,,,,,,,,0,1545,0,,,,,,,,,,,,,,,
4225704,1501040328260,,,,,,,,,0,1485,0,,,,,,,,,,,,,,,
4225714,1501040328270,,,,,,,,,0,1425,0,,,,,,,,,,,,,,,
4225724,1501040328280,3.37,,0.03,-0.06,0.78,-2,-10,4,0,1350,0,,,,,,,,,,,,,,,
4225734,1501040328292,,,,,,,,,0,1560,0,,,,,,,,,,,,,,,
4225744,1501040328302,,,,,,,,,0,1620,0,36.113461,-115.146027,0.0,9.721,2027.5,8,2,2.5,0,0.0,-1,0.0,0.0,0.0,0
4225754,1501040328312,,,,,,,,,0,1590,0,,,,,,,,,,,,,,,
4225764,1501040328322,3.38,,0.03,-0.04,0.81,-2,-10,4,0,1560,0,,,,,,,,,,,,,,,
4225774,1501040328332,,,,,,,,,0,1545,0,,,,,,,,,,,,,,,
4225784,1501040328342,,,,,,,,,0,1470,0,,,,,,,,,,,,,,,
4225794,1501040328352,,,,,,,,,0,1425,0,,,,,,,,,,,,,,,
4225804,1501040328362,3.39,,0.05,-0.03,0.8,-3,-11,4,0,1350,0,,,,,,,,,,,,,,,
4225814,1501040328372,,,,,,,,,0,1560,0,,,,,,,,,,,,,,,
4225824,1501040328382,,,,,,,,,0,1590,0,,,,,,,,,,,,,,,
4225834,1501040328392,,,,,,,,,0,1560,0,,,,,,,,,,,,,,,
4225844,1501040328402,3.34,,0.03,-0.04,0.84,-3,-10,3,0,1545,0,36.113461,-115.146027,0.0,9.721,2027.5,8,2,2.5,0,0.0,-1,0.0,0.0,0.0,0
4225854,1501040328412,,,,,,,,,0,1470,0,,,,,,,,,,,,,,,
4225864,1501040328422,,,,,,,,,0,1470,0,,,,,,,,,,,,,,,
4225874,1501040328432,,,,,,,,,0,1425,0,,,,,,,,,,,,,,,
4225884,1501040328442,3.4,,0.03,-0.02,0.83,-3,-10,3,0,1350,0,,,,,,,,,,,,,,,
4225894,1501040328452,,,,,,,,,0,1620,0,,,,,,,,,,,,,,,
4225904,1501040328462,,,,,,,,,0,1590,0,,,,,,,,,,,,,,,
4225914,1501040328472,,,,,,,,,0,1560,0,,,,,,,,,,,,,,,
4225924,1501040328482,3.33,,0.01,-0.03,0.87,-3,-9,3,0,1530,0,,,,,,,,,,,,,,,
4225934,1501040328492,,,,,,,,,0,1470,0,,,,,,,,,,,,,,,
4225944,1501040328502,,,,,,,,,0,1470,0,36.113461,-115.146027,0.0,9.721,2027.5,8,2,2.5,0,0.0,-1,0.0,0.0,0.0,0
4225954,1501040328512,,,,,,,,,0,1425,0,,,,,,,,,,,,,,,
4225964,1501040328522,3.35,,-0.0,-0.03,0.85,-3,-9,3,0,1560,0,,,,,,,,,,,,,,,
4225974,1501040328532,,,,,,,,,0,1620,0,,,,,,,,,,,,,,,
4225984,1501040328542,,,,,,,,,0,1590,0,,,,,,,,,,,,,,,
4225994,1501040328552,,,,,,,,,0,1560,0,,,,,,,,,,,,,,,
4226004,1501040328562,3.39,,-0.02,-0.06,0.93,-3,-8,3,0,1545,0,,,,,,,,,,,,,,,
4226014,1501040328572,,,,,,,,,0,1470,0,,,,,,,,,,,,,,,
4226024,1501040328582,,,,,,,,,0,1425,0,,,,,,,,,,,,,,,
4226034,1501040328594,,,,,,,,,0,1350,0,,,,,,,,,,,,,,,
4226044,1501040328604,3.41,4.5,-0.04,-0.05,0.93,-2,-7,3,0,1560,0,36.113461,-115.146027,0.0,9.721,2027.5,8,2,2.5,0,0.0,-1,0.0,0.0,0.0,0
4226054,1501040328614,,,,,,,,,0,1620,0,,,,,,,,,,,,,,,
4226064,1501040328624,,,,,,,,,0,1590,0,,,,,,,,,,,,,,,
4226074,1501040328634,,,,,,,,,0,1560,0,,,,,,,,,,,,,,,
4226084,1501040328644,3.39,,-0.05,-0.08,1.0,-2,-6,4,0,1545,0,,,,,,,,,,,,,,,
4226094,1501040328654,,,,,,,,,0,1485,0,,,,,,,,,,,,,,,
4226104,1501040328664,,,,,,,,,0,1440,0,,,,,,,,,,,,,,,
4226114,1501040328674,,,,,,,,,0,1350,0,,,,,,,,,,,,,,,
4226124,1501040328684,3.42,,-0.07,-0.06,1.02,-2,-5,5,0,1560,0,,,,,,,,,,,,,,,
4226134,1501040328692,,,,,,,,,0,1635,0,,,,,,,,,,,,,,,
4226144,1501040328702,,,,,,,,,0,1590,0,36.113461,-115.146027,0.0,9.721,2027.5,8,2,2.5,0,0.0,-1,0.0,0.0,0.0,0
4226154,1501040328712,,,,,,,,,0,1560,0,,,,,,,,,,,,,,,
4226164,1501040328722,3.39,,-0.06,-0.1,1.06,-1,-4,6,0,1545,0,,,,,,,,,,,,,,,
4226174,1501040328732,,,,,,,,,0,1485,0,,,,,,,,,,,,,,,
4226184,1501040328742,,,,,,,,,0,1425,0,,,,,,,,,,,,,,,
4226194,1501040328752,,,,,,,,,0,1350,0,,,,,,,,,,,,,,,
4226204,1501040328762,3.43,,-0.07,-0.07,1.07,-1,-2,7,0,1560,0,,,,,,,,,,,,,,,
4226214,1501040328772,,,,,,,,,0,1635,0,,,,,,,,,,,,,,,
4226224,1501040328782,,,,,,,,,0,1590,0,,,,,,,,,,,,,,,
4226234,1501040328792,,,,,,,,,0,1575,0,,,,,,,,,,,,,,,
4226244,1501040328802,3.39,,-0.06,-0.1,1.08,-1,-1,6,0,1560,0,36.113461,-115.146027,0.0,9.721,2027.5,8,2,2.5,0,0.0,-1,0.0,0.0,0.0,0
4226254,1501040328812,,,,,,,,,0,1485,0,,,,,,,,,,,,,,,
4226264,1501040328822,,,,,,,,,0,1440,0,,,,,,,,,,,,,,,
4226274,1501040328832,,,,,,,,,0,1365,0,,,,,,,,,,,,,,,
4226284,1501040328842,3.42,,-0.02,-0.06,1.1,-1,0,7,0,1560,0,,,,,,,,,,,,,,,
4226294,1501040328852,,,,,,,,,0,1635,0,,,,,,,,,,,,,,,
4226304,1501040328862,,,,,,,,,0,1590,0,,,,,,,,,,,,,,,
4226314,1501040328872,,,,,,,,,0,1575,0,,,,,,,,,,,,,,,
4226324,1501040328882,3.38,,-0.02,-0.1,1.09,-2,-0,6,0,1545,0,,,,,,,,,,,,,,,
4226334,1501040328891,,,,,,,,,0,1485,0,,,,,,,,,,,,,,,
4226344,1501040328901,,,,,,,,,0,1440,0,36.113461,-115.146027,0.0,9.721,2027.5,8,2,2.5,0,0.0,-1,0.0,0.0,0.0,0
4226354,1501040328911,,,,,,,,,0,1365,0,,,,,,,,,,,,,,,
4226364,1501040328921,3.42,,0.02,-0.1,1.2,-2,-1,6,0,1560,0,,,,,,,,,,,,,,,
4226374,1501040328931,,,,,,,,,0,1620,0,,,,,,,,,,,,,,,
4226384,1501040328941,,,,,,,,,0,1590,0,,,,,,,,,,,,,,,
4226394,1501040328951,,,,,,,,,0,1560,0,,,,,,,,,,,,,,,
4226404,1501040328961,3.39,,-0.0,-0.12,1.16,-2,-2,5,0,1545,0,,,,,,,,,,,,,,,
4226414,1501040328971,,,,,,,,,0,1470,0,,,,,,,,,,,,,,,
4226424,1501040328981,,,,,,,,,0,1425,0,,,,,,,,,,,,,,,
4226434,1501040328991,,,,,,,,,0,1350,0,,,,,,,,,,,,,,,
4226444,1501040328997,3.39,,0.02,-0.12,1.29,-2,-2,5,0,1560,0,36.113461,-115.146027,0.0,9.721,2027.5,8,2,2.5,0,0.0,-1,0.0,0.0,0.0,0
4226454,1501040329007,,,,,,,,,0,1620,0,,,,,,,,,,,,,,,
4226464,1501040329017,,,,,,,,,0,1575,0,,,,,,,,,,,,,,,
4226474,1501040329027,,,,,,,,,0,1560,0,,,,,,,,,,,,,,,
4226484,1501040329037,3.39,,-0.01,-0.12,1.2,-1,-2,3,0,1530,0,,,,,,,,,,,,,,,
4226494,1501040329047,,,,,,,,,0,1470,0,,,,,,,,,,,,,,,
4226504,1501040329057,,,,,,,,,0,1425,0,,,,,,,,,,,,,,,
4226514,1501040329067,,,,,,,,,0,1350,0,,,,,,,,,,,,,,,
4226524,1501040329077,3.37,,-0.02,-0.12,1.31,-1,-3,4,0,1545,0,,,,,,,,,,,,,,,
4226534,1501040329091,,,,,,,,,0,1620,0,,,,,,,,,,,,,,,
4226544,1501040329101,,,,,,,,,0,1575,0,36.113461,-115.146027,0.0,9.721,2027.5,8,2,2.5,0,0.0,-1,0.0,0.0,0.0,0
4226554,1501040329111,,,,,,,,,0,1560,0,,,,,,,,,,,,,,,
4226564,1501040329121,3.39,,-0.04,-0.12,1.22,-1,-2,2,0,1530,0,,,,,,,,,,,,,,,
4226574,1501040329131,,,,,,,,,0,1470,0,,,,,,,,,,,,,,,
4226584,1501040329141,,,,,,,,,0,1425,0,,,,,,,,,,,,,,,
4226594,1501040329151,,,,,,,,,0,1335,0,,,,,,,,,,,,,,,
4226604,1501040329161,3.38,,-0.04,-0.13,1.3,-1,-3,4,0,1545,0,,,,,,,,,,,,,,,
4226614,1501040329171,,,,,,,,,0,1590,0,,,,,,,,,,,,,,,
4226624,1501040329181,,,,,,,,,0,1545,0,,,,,,,,,,,,,,,
4226634,1501040329193,,,,,,,,,0,1545,0,,,,,,,,,,,,,,,
4226644,1501040329203,3.4,,-0.06,-0.11,1.21,-0,-3,2,0,1470,0,36.113461,-115.146027,0.0,9.721,2027.5,8,2,2.5,0,0.0,-1,0.0,0.0,0.0,0
4226654,1501040329213,,,,,,,,,0,1470,0,,,,,,,,,,,,,,,
4226664,1501040329223,,,,,,,,,0,1425,0,,,,,,,,,,,,,,,
4226674,1501040329233,,,,,,,,,0,1335,0,,,,,,,,,,,,,,,
4226684,1501040329243,3.33,,-0.07,-0.12,1.3,-1,-3,4,0,1635,0,,,,,,,,,,,,,,,
4226694,1501040329253,,,,,,,,,0,1590,0,,,,,,,,,,,,,,,
4226704,1501040329263,,,,,,,,,0,1560,0,,,,,,,,,,,,,,,
4226714,1501040329273,,,,,,,,,0,1545,0,,,,,,,,,,,,,,,
4226724,1501040329283,3.35,,-0.07,-0.1,1.19,-0,-3,3,0,1470,0,,,,,,,,,,,,,,,
4226734,1501040329293,,,,,,,,,0,1470,0,,,,,,,,,,,,,,,
4226744,1501040329303,,,,,,,,,0,1425,0,36.113461,-115.146027,0.0,9.721,2027.5,8,2,2.5,0,0.0,-1,0.0,0.0,0.0,0
4226754,1501040329313,,,,,,,,,0,1560,0,,,,,,,,,,,,,,,
4226764,1501040329323,3.37,,-0.08,-0.1,1.24,-1,-4,3,0,1620,0,,,,,,,,,,,,,,,
4226774,1501040329333,,,,,,,,,0,1590,0,,,,,,,,,,,,,,,
4226784,1501040329343,,,,,,,,,0,1560,0,,,,,,,,,,,,,,,
4226794,1501040329353,,,,,,,,,0,1545,0,,,,,,,,,,,,,,,
4226804,1501040329363,3.39,,-0.08,-0.06,1.14,-1,-4,3,0,1470,0,,,,,,,,,,,,,,,
4226814,1501040329373,,,,,,,,,0,1425,0,,,,,,,,,,,,,,,
4226824,1501040329383,,,,,,,,,0,1350,0,,,,,,,,,,,,,,,
4226834,1501040329393,,,,,,,,,0,1545,0,,,,,,,,,,,,,,,
4226844,1501040329403,3.39,,-0.08,-0.07,1.13,-1,-5,2,0,1620,0,36.113461,-115.146027,0.0,9.721,2027.5,8,2,2.5,0,0.0,-1,0.0,0.0,0.0,0
4226854,1501040329413,,,,,,,,,0,1590,0,,,,,,,,,,,,,,,
4226864,1501040329423,,,,,,,,,0,1560,0,,,,,,,,,,,,,,,
4226874,1501040329433,,,,,,,,,0,1545,0,,,,,,,,,,,,,,,
4226884,1501040329443,3.39,,-0.08,-0.03,1.05,-1,-5,2,0,1470,0,,,,,,,,,,,,,,,
4226894,1501040329453,,,,,,,,,0,1425,0,,,,,,,,,,,,,,,
4226904,1501040329463,,,,,,,,,0,1350,0,,,,,,,,,,,,,,,
4226914,1501040329473,,,,,,,,,0,1560,0,,,,,,,,,,,,,,,
4226924,1501040329483,3.41,,-0.08,-0.05,1.01,-1,-5,0,0,1620,0,,,,,,,,,,,,,,,
4226934,1501040329493,,,,,,,,,0,1590,0,,,,,,,,,,,,,,,
4226944,1501040329503,,,,,,,,,0,1560,0,36.113461,-115.146027,0.0,9.721,2027.5,8,2,2.5,0,0.0,-1,0.0,0.0,0.0,0
4226954,1501040329513,,,,,,,,,0,1545,0,,,,,,,,,,,,,,,
4226964,1501040329523,3.41,,-0.07,-0.0,0.95,-1,-4,1,0,1470,0,,,,,,,,,,,,,,,
4226974,1501040329533,,,,,,,,,0,1425,0,,,,,,,,,,,,,,,
4226984,1501040329543,,,,,,,,,0,1350,0,,,,,,,,,,,,,,,
4226994,1501040329553,,,,,,,,,0,1545,0,,,,,,,,,,,,,,,
4227004,1501040329563,3.4,,-0.07,-0.04,0.9,-1,-5,-1,0,1620,0,,,,,,,,,,,,,,,
4227014,1501040329573,,,,,,,,,0,1575,0,,,,,,,,,,,,,,,
4227024,1501040329583,,,,,,,,,0,1545,0,,,,,,,,,,,,,,,
4227034,1501040329593,,,,,,,,,0,1530,0,,,,,,,,,,,,,,,
4227044,1501040329603,3.39,4.47,-0.06,-0.01,0.87,-1,-5,0,0,1470,0,36.113461,-115.146027,0.0,9.721,2027.5,8,2,2.5,0,0.0,-1,0.0,0.0,0.0,0
4227054,1501040329613,,,,,,,,,0,1425,0,,,,,,,,,,,,,,,
4227064,1501040329623,,,,,,,,,0,1335,0,,,,,,,,,,,,,,,
4227074,1501040329633,,,,,,,,,0,1545,0,,,,,,,,,,,,,,,
4227084,1501040329643,3.41,,-0.07,-0.06,0.85,-0,-5,-2,0,1620,0,,,,,,,,,,,,,,,
4227094,1501040329653,,,,,,,,,0,1575,0,,,,,,,,,,,,,,,
4227104,1501040329663,,,,,,,,,0,1560,0,,,,,,,,,,,,,,,
4227114,1501040329673,,,,,,,,,0,1530,0,,,,,,,,,,,,,,,
4227124,1501040329683,3.39,,-0.06,-0.02,0.8,-1,-5,-1,0,1455,0,,,,,,,,,,,,,,,
4227134,1501040329695,,,,,,,,,0,1410,0,,,,,,,,,,,,,,,
4227144,1501040329705,,,,,,,,,0,1335,0,36.113461,-115.146027,0.0,9.721,2027.5,8,2,2.5,0,0.0,-1,0.0,0.0,0.0,0
4227154,1501040329715,,,,,,,,,0,1530,0,,,,,,,,,,,,,,,
4227164,1501040329725,3.42,,-0.07,-0.07,0.81,0,-6,-2,0,1605,0,,,,,,,,,,,,,,,
4227174,1501040329735,,,,,,,,,0,1575,0,,,,,,,,,,,,,,,
4227184,1501040329745,,,,,,,,,0,1545,0,,,,,,,,,,,,,,,
4227194,1501040329755,,,,,,,,,0,1530,0,,,,,,,,,,,,,,,
4227204,1501040329765,3.41,,-0.05,-0.03,0.78,-1,-6,-1,0,1455,0,,,,,,,,,,,,,,,
4227214,1501040329775,,,,,,,,,0,1410,0,,,,,,,,,,,,,,,
4227224,1501040329785,,,,,,,,,0,1335,0,,,,,,,,,,,,,,,
4227234,1501040329793,,,,,,,,,0,1530,0,,,,,,,,,,,,,,,
4227244,1501040329803,3.41,,-0.06,-0.07,0.76,0,-6,-2,0,1605,0,36.113461,-115.146027,0.0,9.721,2027.5,8,2,2.5,0,0.0,-1,0.0,0.0,0.0,0
4227254,1501040329813,,,,,,,,,0,1560,0,,,,,,,,,,,,,,,
4227264,1501040329823,,,,,,,,,0,1545,0,,,,,,,,,,,,,,,
4227274,1501040329833,,,,,,,,,0,1530,0,,,,,,,,,,,,,,,
4227284,1501040329843,3.4,,-0.05,-0.03,0.75,-1,-6,-1,0,1455,0,,,,,,,,,,,,,,,
4227294,1501040329853,,,,,,,,,0,1410,0,,,,,,,,,,,,,,,
4227304,1501040329863,,,,,,,,,0,1320,0,,,,,,,,,,,,,,,
4227314,1501040329873,,,,,,,,,0,1530,0,,,,,,,,,,,,,,,
4227324,1501040329883,3.41,,-0.06,-0.08,0.74,0,-6,-3,0,1605,0,,,,,,,,,,,,,,,
4227334,1501040329894,,,,,,,,,0,1560,0,,,,,,,,,,,,,,,
4227344,1501040329904,,,,,,,,,0,1545,0,36.113461,-115.146027,0.0,9.721,2027.5,8,2,2.5,0,0.0,-1,0.0,0.0,0.0,0
4227354,1501040329914,,,,,,,,,0,1515,0,,,,,,,,,,,,,,,
4227364,1501040329924,3.42,,-0.05,-0.04,0.73,-0,-6,-2,0,1455,0,,,,,,,,,,,,,,,
4227374,1501040329934,,,,,,,,,0,1410,0,,,,,,,,,,,,,,,
4227384,1501040329944,,,,,,,,,0,1320,0,,,,,,,,,,,,,,,
4227394,1501040329954,,,,,,,,,0,1530,0,,,,,,,,,,,,,,,
4227404,1501040329964,3.42,,-0.06,-0.08,0.74,0,-6,-3,0,1605,0,,,,,,,,,,,,,,,
4227414,1501040329974,,,,,,,,,0,1575,0,,,,,,,,,,,,,,,
4227424,1501040329984,,,,,,,,,0,1545,0,,,,,,,,,,,,,,,
4227434,1501040329994,,,,,,,,,0,1530,0,,,,,,,,,,,,,,,
4227444,1501040329996,3.41,,-0.06,-0.04,0.73,-0,-6,-2,0,1455,0,36.113461,-115.146027,0.0,9.721,2027.5,8,2,2.5,0,0.0,-1,0.0,0.0,0.0,0
4227454,1501040330006,,,,,,,,,0,1410,0,,,,,,,,,,,,,,,
4227464,1501040330016,,,,,,,,,0,1335,0,,,,,,,,,,,,,,,
4227474,1501040330026,,,,,,,,,0,1545,0,,,,,,,,,,,,,,,
4227484,1501040330036,3.41,,-0.07,-0.08,0.74,0,-6,-3,0,1620,0,,,,,,,,,,,,,,,
4227494,1501040330046,,,,,,,,,0,1590,0,,,,,,,,,,,,,,,
4227504,1501040330056,,,,,,,,,0,1560,0,,,,,,,,,,,,,,,
4227514,1501040330066,,,,,,,,,0,1530,0,,,,,,,,,,,,,,,
4227524,1501040330076,3.4,,-0.06,-0.03,0.73,-0,-6,-2,0,1470,0,,,,,,,,,,,,,,,
4227534,1501040330092,,,,,,,,,0,1425,0,,,,,,,,,,,,,,,
4227544,1501040330102,,,,,,,,,0,1335,0,36.113461,-115.146027,0.0,9.721,2027.5,8,2,2.5,0,0.0,-1,0.0,0.0,0.0,0
4227554,1501040330112,,,,,,,,,0,1560,0,,,,,,,,,,,,,,,
4227564,1501040330122,3.42,,-0.06,-0.08,0.73,0,-7,-3,0,1635,0,,,,,,,,,,,,,,,
4227574,1501040330132,,,,,,,,,0,1590,0,,,,,,,,,,,,,,,
4227584,1501040330142,,,,,,,,,0,1560,0,,,,,,,,,,,,,,,
4227594,1501040330152,,,,,,,,,0,1545,0,,,,,,,,,,,,,,,
4227604,1501040330162,3.4,,-0.06,-0.04,0.74,-0,-6,-1,0,1470,0,,,,,,,,,,,,,,,
4227614,1501040330172,,,,,,,,,0,1425,0,,,,,,,,,,,,,,,
4227624,1501040330182,,,,,,,,,0,1350,0,,,,,,,,,,,,,,,
4227634,1501040330194,,,,,,,,,0,1560,0,,,,,,,,,,,,,,,
4227644,1501040330204,3.41,,-0.04,-0.07,0.74,1,-8,-2,0,1620,0,36.113461,-115.146027,0.0,9.721,2027.5,8,2,2.5,0,0.0,-1,0.0,0.0,0.0,0
4227654,1501040330214,,,,,,,,,0,1575,0,,,,,,,,,,,,,,,
4227664,1501040330224,,,,,,,,,0,1560,0,,,,,,,,,,,,,,,
4227674,1501040330234,,,,,,,,,0,1530,0,,,,,,,,,,,,,,,
4227684,1501040330244,3.39,,-0.04,-0.05,0.76,0,-7,-1,0,1470,0,,,,,,,,,,,,,,,
4227694,1501040330254,,,,,,,,,0,1425,0,,,,,,,,,,,,,,,
4227704,1501040330264,,,,,,,,,0,1350,0,,,,,,,,,,,,,,,
4227714,1501040330274,,,,,,,,,0,1545,0,,,,,,,,,,,,,,,
4227724,1501040330284,3.4,,-0.02,-0.06,0.75,1,-7,-1,0,1620,0,,,,,,,,,,,,,,,
4227734,1501040330294,,,,,,,,,0,1575,0,,,,,,,,,,,,,,,
4227744,1501040330304,,,,,,,,,0,1545,0,36.113461,-115.146027,0.0,9.721,2027.5,8,2,2.5,0,0.0,-1,0.0,0.0,0.0,0
4227754,1501040330314,,,,,,,,,0,1530,0,,,,,,,,,,,,,,,
4227764,1501040330324,3.41,,-0.02,-0.04,0.78,0,-6,0,0,1455,0,,,,,,,,,,,,,,,
4227774,1501040330334,,,,,,,,,0,1410,0,,,,,,,,,,,,,,,
4227784,1501040330344,,,,,,,,,0,1335,0,,,,,,,,,,,,,,,
4227794,1501040330354,,,,,,,,,0,1545,0,,,,,,,,,,,,,,,
4227804,1501040330364,3.4,,-0.0,-0.05,0.77,0,-7,-0,0,1605,0,,,,,,,,,,,,,,,
4227814,1501040330374,,,,,,,,,0,1575,0,,,,,,,,,,,,,,,
4227824,1501040330384,,,,,,,,,0,1545,0,,,,,,,,,,,,,,,
4227834,1501040330394,,,,,,,,,0,1530,0,,,,,,,,,,,,,,,
4227844,1501040330404,3.4,,-0.01,-0.04,0.8,0,-7,2,0,1455,0,36.113461,-115.146027,0.0,9.721,2027.5,8,2,2.5,0,0.0,-1,0.0,0.0,0.0,0
4227854,1501040330414,,,,,,,,,0,1410,0,,,,,,,,,,,,,,,
4227864,1501040330424,,,,,,,,,0,1335,0,,,,,,,,,,,,,,,
4227874,1501040330434,,,,,,,,,0,1545,0,,,,,,,,,,,,,,,
4227884,1501040330444,3.4,,0.0,-0.05,0.78,1,-8,1,0,1605,0,,,,,,,,,,,,,,,
4227894,1501040330454,,,,,,,,,0,1575,0,,,,,,,,,,,,,,,
4227904,1501040330464,,,,,,,,,0,1545,0,,,,,,,,,,,,,,,
4227914,1501040330474,,,,,,,,,0,1530,0,,,,,,,,,,,,,,,
4227924,1501040330484,3.4,,-0.01,-0.05,0.81,0,-7,2,0,1470,0,,,,,,,,,,,,,,,
4227934,1501040330494,,,,,,,,,0,1425,0,,,,,,,,,,,,,,,
4227944,1501040330504,,,,,,,,,0,1335,0,36.113461,-115.146027,0.0,9.721,2027.5,8,2,2.5,0,0.0,-1,0.0,0.0,0.0,0
4227954,1501040330514,,,,,,,,,0,1560,0,,,,,,,,,,,,,,,
4227964,1501040330524,3.41,,0.01,-0.03,0.79,0,-9,2,0,1620,0,,,,,,,,,,,,,,,
4227974,1501040330534,,,,,,,,,0,1575,0,,,,,,,,,,,,,,,
4227984,1501040330544,,,,,,,,,0,1560,0,,,,,,,,,,,,,,,
4227994,1501040330554,,,,,,,,,0,1530,0,,,,,,,,,,,,,,,
4228004,1501040330564,3.4,,-0.0,-0.04,0.81,-0,-8,2,0,1470,0,,,,,,,,,,,,,,,
4228014,1501040330574,,,,,,,,,0,1425,0,,,,,,,,,,,,,,,
4228024,1501040330584,,,,,,,,,0,1335,0,,,,,,,,,,,,,,,
4228034,1501040330594,,,,,,,,,0,1545,0,,,,,,,,,,,,,,,
4228044,1501040330604,3.4,4.48,0.01,-0.02,0.8,-0,-8,2,0,1620,0,36.113461,-115.146027,0.0,9.721,2027.5,8,2,2.5,0,0.0,-1,0.0,0.0,0.0,0
4228054,1501040330614,,,,,,,,,0,1575,0,,,,,,,,,,,,,,,
4228064,1501040330624,,,,,,,,,0,1560,0,,,,,,,,,,,,,,,
4228074,1501040330634,,,,,,,,,0,1530,0,,,,,,,,,,,,,,,
4228084,1501040330644,3.39,,0.0,-0.03,0.84,-0,-7,3,0,1470,0,,,,,,,,,,,,,,,
4228094,1501040330654,,,,,,,,,0,1425,0,,,,,,,,,,,,,,,
4228104,1501040330664,,,,,,,,,0,1350,0,,,,,,,,,,,,,,,
4228114,1501040330674,,,,,,,,,0,1545,0,,,,,,,,,,,,,,,
4228124,1501040330684,3.39,,0.02,-0.0,0.81,-1,-9,3,0,1620,0,,,,,,,,,,,,,,,
4228134,1501040330694,,,,,,,,,0,1590,0,,,,,,,,,,,,,,,
4228144,1501040330704,,,,,,,,,0,1560,0,36.113461,-115.146027,0.0,9.721,2027.5,8,2,2.5,0,0.0,-1,0.0,0.0,0.0,0
4228154,1501040330714,,,,,,,,,0,1545,0,,,,,,,,,,,,,,,
4228164,1501040330724,3.4,,0.02,-0.02,0.85,-1,-8,5,0,1470,0,,,,,,,,,,,,,,,
4228174,1501040330734,,,,,,,,,0,1425,0,,,,,,,,,,,,,,,
4228184,1501040330744,,,,,,,,,0,1350,0,,,,,,,,,,,,,,,
4228194,1501040330754,,,,,,,,,0,1545,0,,,,,,,,,,,,,,,
4228204,1501040330764,3.38,,0.03,0.02,0.8,-2,-10,4,0,1620,0,,,,,,,,,,,,,,,
4228214,1501040330774,,,,,,,,,0,1575,0,,,,,,,,,,,,,,,
4228224,1501040330784,,,,,,,,,0,1560,0,,,,,,,,,,,,,,,
4228234,1501040330794,,,,,,,,,0,1530,0,,,,,,,,,,,,,,,
4228244,1501040330804,3.38,,0.03,-0.02,0.87,-3,-9,5,0,1455,0,36.113461,-115.146027,0.0,9.721,2027.5,8,2,2.5,0,0.0,-1,0.0,0.0,0.0,0
4228254,1501040330814,,,,,,,,,0,1425,0,,,,,,,,,,,,,,,
4228264,1501040330824,,,,,,,,,0,1335,0,,,,,,,,,,,,,,,
4228274,1501040330834,,,,,,,,,0,1545,0,,,,,,,,,,,,,,,
4228284,1501040330844,3.37,,0.03,0.03,0.81,-3,-10,4,0,1620,0,,,,,,,,,,,,,,,
4228294,1501040330854,,,,,,,,,0,1560,0,,,,,,,,,,,,,,,
4228304,1501040330864,,,,,,,,,0,1530,0,,,,,,,,,,,,,,,
4228314,1501040330874,,,,,,,,,0,1530,0,,,,,,,,,,,,,,,
4228324,1501040330884,3.38,,0.03,-0.03,0.86,-3,-9,5,0,1470,0,,,,,,,,,,,,,,,
4228334,1501040330893,,,,,,,,,0,1425,0,,,,,,,,,,,,,,,
4228344,1501040330903,,,,,,,,,0,1350,0,36.113461,-115.146027,0.0,9.721,2027.5,8,2,2.5,0,0.0,-1,0.0,0.0,0.0,0
4228354,1501040330913,,,,,,,,,0,1620,0,,,,,,,,,,,,,,,
4228364,1501040330923,3.32,,0.02,0.02,0.82,-4,-11,4,0,1590,0,,,,,,,,,,,,,,,
4228374,1501040330933,,,,,,,,,0,1560,0,,,,,,,,,,,,,,,
4228384,1501040330943,,,,,,,,,0,1545,0,,,,,,,,,,,,,,,
4228394,1501040330953,,,,,,,,,0,1470,0,,,,,,,,,,,,,,,
4228404,1501040330963,3.38,,0.03,-0.03,0.87,-4,-9,5,0,1470,0,,,,,,,,,,,,,,,
4228414,1501040330973,,,,,,,,,0,1425,0,,,,,,,,,,,,,,,
4228424,1501040330983,,,,,,,,,0,1560,0,,,,,,,,,,,,,,,
4228434,1501040330993,,,,,,,,,0,1620,0,,,,,,,,,,,,,,,
4228444,1501040330997,3.35,,-0.0,0.0,0.85,-4,-9,4,0,1590,0,36.113461,-115.146027,0.0,9.721,2027.5,8,2,2.5,0,0.0,-1,0.0,0.0,0.0,0
4228454,1501040331007,,,,,,,,,0,1575,0,,,,,,,,,,,,,,,
4228464,1501040331017,,,,,,,,,0,1560,0,,,,,,,,,,,,,,,
4228474,1501040331027,,,,,,,,,0,1485,0,,,,,,,,,,,,,,,
4228484,1501040331037,3.32,,-0.0,-0.04,0.9,-3,-8,4,0,1440,0,,,,,,,,,,,,,,,
4228494,1501040331047,,,,,,,,,0,1365,0,,,,,,,,,,,,,,,
4228504,1501040331057,,,,,,,,,0,1560,0,,,,,,,,,,,,,,,
4228514,1501040331067,,,,,,,,,0,1635,0,,,,,,,,,,,,,,,
4228524,1501040331077,3.36,,-0.04,-0.04,0.91,-3,-6,4,0,1605,0,,,,,,,,,,,,,,,
4228534,1501040331093,,,,,,,,,0,1575,0,,,,,,,,,,,,,,,
4228544,1501040331103,,,,,,,,,0,1545,0,36.113461,-115.146027,0.0,9.721,2027.5,8,2,2.5,0,0.0,-1,0.0,0.0,0.0,0
4228554,1501040331113,,,,,,,,,0,1485,0,,,,,,,,,,,,,,,
4228564,1501040331123,3.36,,-0.03,-0.07,0.96,-2,-5,4,0,1440,0,,,,,,,,,,,,,,,
4228574,1501040331133,,,,,,,,,0,1380,0,,,,,,,,,,,,,,,
4228584,1501040331143,,,,,,,,,0,1560,0,,,,,,,,,,,,,,,
4228594,1501040331153,,,,,,,,,0,1620,0,,,,,,,,,,,,,,,
4228604,1501040331163,3.36,,-0.03,-0.08,0.98,-2,-3,6,0,1590,0,,,,,,,,,,,,,,,
4228614,1501040331173,,,,,,,,,0,1575,0,,,,,,,,,,,,,,,
4228624,1501040331183,,,,,,,,,0,1545,0,,,,,,,,,,,,,,,
4228634,1501040331193,,,,,,,,,0,1485,0,,,,,,,,,,,,,,,
4228644,1501040331203,3.36,,-0.03,-0.08,1.04,-1,-2,5,0,1425,0,36.113461,-115.146027,0.0,9.721,2027.5,8,2,2.5,0,0.0,-1,0.0,0.0,0.0,0
4228654,1501040331213,,,,,,,,,0,1365,0,,,,,,,,,,,,,,,
4228664,1501040331223,,,,,,,,,0,1560,0,,,,,,,,,,,,,,,
4228674,1501040331233,,,,,,,,,0,1620,0,,,,,,,,,,,,,,,
4228684,1501040331243,3.37,,-0.03,-0.1,1.02,-2,-1,7,0,1575,0,,,,,,,,,,,,,,,
4228694,1501040331253,,,,,,,,,0,1560,0,,,,,,,,,,,,,,,
4228704,1501040331263,,,,,,,,,0,1530,0,,,,,,,,,,,,,,,
4228714,1501040331273,,,,,,,,,0,1470,0,,,,,,,,,,,,,,,
4228724,1501040331283,3.37,,-0.02,-0.07,1.05,-2,-1,6,0,1425,0,,,,,,,,,,,,,,,
4228734,1501040331293,,,,,,,,,0,1350,0,,,,,,,,,,,,,,,
4228744,1501040331303,,,,,,,,,0,1560,0,36.113461,-115.146027,0.0,9.721,2027.5,8,2,2.5,0,0.0,-1,0.0,0.0,0.0,0
4228754,1501040331313,,,,,,,,,0,1620,0,,,,,,,,,,,,,,,
4228764,1501040331323,3.36,,-0.0,-0.1,1.05,-2,0,7,0,1575,0,,,,,,,,,,,,,,,
4228774,1501040331333,,,,,,,,,0,1560,0,,,,,,,,,,,,,,,
4228784,1501040331343,,,,,,,,,0,1530,0,,,,,,,,,,,,,,,
4228794,1501040331353,,,,,,,,,0,1470,0,,,,,,,,,,,,,,,
4228804,1501040331363,3.38,,0.02,-0.08,1.09,-2,-0,6,0,1425,0,,,,,,,,,,,,,,,
4228814,1501040331373,,,,,,,,,0,1350,0,,,,,,,,,,,,,,,
4228824,1501040331383,,,,,,,,,0,1560,0,,,,,,,,,,,,,,,
4228834,1501040331393,,,,,,,,,0,1620,0,,,,,,,,,,,,,,,
4228844,1501040331403,3.36,,0.02,-0.12,1.13,-3,0,5,0,1590,0,36.113461,-115.146027,0.0,9.721,2027.5,8,2,2.5,0,0.0,-1,0.0,0.0,0.0,0
4228854,1501040331413,,,,,,,,,0,1560,0,,,,,,,,,,,,,,,
4228864,1501040331423,,,,,,,,,0,1545,0,,,,,,,,,,,,,,,
4228874,1501040331433,,,,,,,,,0,1470,0,,,,,,,,,,,,,,,
4228884,1501040331443,3.37,,0.03,-0.09,1.18,-3,-1,5,0,1440,0,,,,,,,,,,,,,,,
4228894,1501040331453,,,,,,,,,0,1350,0,,,,,,,,,,,,,,,
4228904,1501040331463,,,,,,,,,0,1560,0,,,,,,,,,,,,,,,
4228914,1501040331473,,,,,,,,,0,1635,0,,,,,,,,,,,,,,,
4228924,1501040331483,3.34,,0.01,-0.14,1.23,-2,-1,5,0,1590,0,,,,,,,,,,,,,,,
4228934,1501040331493,,,,,,,,,0,1560,0,,,,,,,,,,,,,,,
4228944,1501040331503,,,,,,,,,0,1545,0,36.113461,-115.146027,0.0,9.721,2027.5,8,2,2.5,0,0.0,-1,0.0,0.0,0.0,0
4228954,1501040331513,,,,,,,,,0,1485,0,,,,,,,,,,,,,,,
4228964,1501040331523,3.37,,0.01,-0.11,1.23,-2,-2,4,0,1440,0,,,,,,,,,,,,,,,
4228974,1501040331533,,,,,,,,,0,1365,0,,,,,,,,,,,,,,,
4228984,1501040331543,,,,,,,,,0,1560,0,,,,,,,,,,,,,,,
4228994,1501040331553,,,,,,,,,0,1590,0,,,,,,,,,,,,,,,
4229004,1501040331563,3.28,,-0.02,-0.15,1.26,-1,-2,3,0,1575,0,,,,,,,,,,,,,,,
4229014,1501040331573,,,,,,,,,0,1560,0,,,,,,,,,,,,,,,
4229024,1501040331583,,,,,,,,,0,1485,0,,,,,,,,,,,,,,,
4229034,1501040331593,,,,,,,,,0,1485,0,,,,,,,,,,,,,,,
4229044,1501040331603,3.37,4.49,-0.03,-0.11,1.24,-1,-2,3,0,1440,0,36.113461,-115.146027,0.0,9.721,2027.5,8,2,2.5,0,0.0,-1,0.0,0.0,0.0,0
4229054,1501040331613,,,,,,,,,0,1575,0,,,,,,,,,,,,,,,
4229064,1501040331623,,,,,,,,,0,1635,0,,,,,,,,,,,,,,,
4229074,1501040331633,,,,,,,,,0,1590,0,,,,,,,,,,,,,,,
4229084,1501040331643,3.32,,-0.04,-0.12,1.21,-1,-1,2,0,1575,0,,,,,,,,,,,,,,,
4229094,1501040331653,,,,,,,,,0,1560,0,,,,,,,,,,,,,,,
4229104,1501040331663,,,,,,,,,0,1485,0,,,,,,,,,,,,,,,
4229114,1501040331673,,,,,,,,,0,1440,0,,,,,,,,,,,,,,,
4229124,1501040331683,3.36,,-0.06,-0.08,1.19,-1,-1,3,0,1365,0,,,,,,,,,,,,,,,
4229134,1501040331693,,,,,,,,,0,1560,0,,,,,,,,,,,,,,,
4229144,1501040331703,,,,,,,,,0,1620,0,36.113461,-115.146027,0.0,9.721,2027.5,8,2,2.5,0,0.0,-1,0.0,0.0,0.0,0
4229154,1501040331713,,,,,,,,,0,1590,0,,,,,,,,,,,,,,,
4229164,1501040331723,3.34,,-0.04,-0.06,1.13,-1,-2,2,0,1560,0,,,,,,,,,,,,,,,
4229174,1501040331733,,,,,,,,,0,1530,0,,,,,,,,,,,,,,,
4229184,1501040331743,,,,,,,,,0,1470,0,,,,,,,,,,,,,,,
4229194,1501040331753,,,,,,,,,0,1425,0,,,,,,,,,,,,,,,
4229204,1501040331763,3.36,,-0.05,-0.01,1.05,-1,-1,2,0,1350,0,,,,,,,,,,,,,,,
4229214,1501040331773,,,,,,,,,0,1545,0,,,,,,,,,,,,,,,
4229224,1501040331783,,,,,,,,,0,1590,0,,,,,,,,,,,,,,,
4229234,1501040331795,,,,,,,,,0,1560,0,,,,,,,,,,,,,,,
4229244,1501040331805,3.36,,-0.04,-0.0,0.97,-1,-2,0,0,1530,0,36.113461,-115.146027,0.0,9.721,2027.5,8,2,2.5,0,0.0,-1,0.0,0.0,0.0,0
4229254,1501040331815,,,,,,,,,0,1500,0,,,,,,,,,,,,,,,
4229264,1501040331825,,,,,,,,,0,1440,0,,,,,,,,,,,,,,,
4229274,1501040331835,,,,,,,,,0,1380,0,,,,,,,,,,,,,,,
4229284,1501040331845,3.33,,-0.06,0.03,0.98,-1,-2,1,0,1305,0,,,,,,,,,,,,,,,
4229294,1501040331855,,,,,,,,,0,1500,0,,,,,,,,,,,,,,,
4229304,1501040331865,,,,,,,,,0,1575,0,,,,,,,,,,,,,,,
4229314,1501040331875,,,,,,,,,0,1545,0,,,,,,,,,,,,,,,
4229324,1501040331885,3.36,,-0.05,0.02,0.92,-1,-2,0,0,1515,0,,,,,,,,,,,,,,,
4229334,1501040331894,,,,,,,,,0,1470,0,,,,,,,,,,,,,,,
4229344,1501040331904,,,,,,,,,0,1425,0,36.113461,-115.146027,0.0,9.721,2027.5,8,2,2.5,0,0.0,-1,0.0,0.0,0.0,0
4229354,1501040331914,,,,,,,,,0,1425,0,,,,,,,,,,,,,,,
4229364,1501040331924,3.38,,-0.08,0.05,0.94,-2,-3,2,0,1365,0,,,,,,,,,,,,,,,
4229374,1501040331934,,,,,,,,,0,1275,0,,,,,,,,,,,,,,,
4229384,1501040331944,,,,,,,,,0,1500,0,,,,,,,,,,,,,,,
4229394,1501040331954,,,,,,,,,0,1575,0,,,,,,,,,,,,,,,
4229404,1501040331964,3.36,,-0.1,0.01,0.97,-1,-2,1,0,1545,0,,,,,,,,,,,,,,,
4229414,1501040331974,,,,,,,,,0,1515,0,,,,,,,,,,,,,,,
4229424,1501040331984,,,,,,,,,0,1485,0,,,,,,,,,,,,,,,
4229434,1501040331994,,,,,,,,,0,1440,0,,,,,,,,,,,,,,,
4229444,1501040331996,3.39,,-0.08,0.02,1.02,-1,-4,3,0,1380,0,36.113461,-115.146027,0.0,9.721,2027.5,8,2,2.5,0,0.0,-1,0.0,0.0,0.0,0
4229454,1501040332006,,,,,,,,,0,1290,0,,,,,,,,,,,,,,,
4229464,1501040332016,,,,,,,,,0,1515,0,,,,,,,,,,,,,,,
4229474,1501040332026,,,,,,,,,0,1605,0,,,,,,,,,,,,,,,
4229484,1501040332036,3.36,,-0.11,-0.02,1.08,-1,-3,1,0,1560,0,,,,,,,,,,,,,,,
4229494,1501040332046,,,,,,,,,0,1545,0,,,,,,,,,,,,,,,
4229504,1501040332056,,,,,,,,,0,1515,0,,,,,,,,,,,,,,,
4229514,1501040332066,,,,,,,,,0,1455,0,,,,,,,,,,,,,,,
4229524,1501040332076,3.37,,-0.09,-0.02,1.12,-1,-4,2,0,1410,0,,,,,,,,,,,,,,,
4229534,1501040332094,,,,,,,,,0,1320,0,,,,,,,,,,,,,,,
4229544,1501040332104,,,,,,,,,0,1545,0,36.113461,-115.146027,0.0,9.721,2027.5,8,2,2.5,0,0.0,-1,0.0,0.0,0.0,0
4229554,1501040332114,,,,,,,,,0,1620,0,,,,,,,,,,,,,,,
4229564,1501040332124,3.33,,-0.09,-0.08,1.19,-1,-4,1,0,1590,0,,,,,,,,,,,,,,,
4229574,1501040332134,,,,,,,,,0,1560,0,,,,,,,,,,,,,,,
4229584,1501040332144,,,,,,,,,0,1545,0,,,,,,,,,,,,,,,
4229594,1501040332154,,,,,,,,,0,1470,0,,,,,,,,,,,,,,,
4229604,1501040332164,3.36,,-0.09,-0.07,1.21,-1,-4,2,0,1440,0,,,,,,,,,,,,,,,
4229614,1501040332174,,,,,,,,,0,1350,0,,,,,,,,,,,,,,,
4229624,1501040332184,,,,,,,,,0,1560,0,,,,,,,,,,,,,,,
4229634,1501040332194,,,,,,,,,0,1635,0,,,,,,,,,,,,,,,
4229644,1501040332204,3.28,,-0.1,-0.12,1.26,-0,-4,1,0,1575,0,36.113461,-115.146027,0.0,9.721,2027.5,8,2,2.5,0,0.0,-1,0.0,0.0,0.0,0
4229654,1501040332214,,,,,,,,,0,1560,0,,,,,,,,,,,,,,,
4229664,1501040332224,,,,,,,,,0,1500,0,,,,,,,,,,,,,,,
4229674,1501040332234,,,,,,,,,0,1500,0,,,,,,,,,,,,,,,
4229684,1501040332244,3.36,,-0.1,-0.09,1.26,-0,-3,1,0,1455,0,,,,,,,,,,,,,,,
4229694,1501040332254,,,,,,,,,0,1575,0,,,,,,,,,,,,,,,
4229704,1501040332264,,,,,,,,,0,1635,0,,,,,,,,,,,,,,,
4229714,1501040332274,,,,,,,,,0,1605,0,,,,,,,,,,,,,,,
4229724,1501040332284,3.34,,-0.09,-0.1,1.21,-0,-3,1,0,1575,0,,,,,,,,,,,,,,,
4229734,1501040332294,,,,,,,,,0,1560,0,,,,,,,,,,,,,,,
4229744,1501040332304,,,,,,,,,0,1500,0,36.113461,-115.146027,0.0,9.721,2027.5,8,2,2.5,0,0.0,-1,0.0,0.0,0.0,0
4229754,1501040332314,,,,,,,,,0,1455,0,,,,,,,,,,,,,,,
4229764,1501040332324,3.35,,-0.11,-0.07,1.14,-0,-2,1,0,1380,0,,,,,,,,,,,,,,,
4229774,1501040332334,,,,,,,,,0,1560,0,,,,,,,,,,,,,,,
4229784,1501040332344,,,,,,,,,0,1635,0,,,,,,,,,,,,,,,
4229794,1501040332354,,,,,,,,,0,1590,0,,,,,,,,,,,,,,,
4229804,1501040332364,3.36,,-0.08,-0.05,1.06,-0,-3,1,0,1575,0,,,,,,,,,,,,,,,
4229814,1501040332374,,,,,,,,,0,1545,0,,,,,,,,,,,,,,,
4229824,1501040332384,,,,,,,,,0,1485,0,,,,,,,,,,,,,,,
4229834,1501040332394,,,,,,,,,0,1440,0,,,,,,,,,,,,,,,
4229844,1501040332404,3.35,,-0.08,-0.04,0.99,-0,-2,1,0,1365,0,36.113461,-115.146027,0.0,9.721,2027.5,8,2,2.5,0,0.0,-1,0.0,0.0,0.0,0
4229854,1501040332414,,,,,,,,,0,1560,0,,,,,,,,,,,,,,,
4229864,1501040332424,,,,,,,,,0,1620,0,,,,,,,,,,,,,,,
4229874,1501040332434,,,,,,,,,0,1590,0,,,,,,,,,,,,,,,
4229884,1501040332444,3.38,,-0.07,-0.03,0.91,-0,-3,-1,0,1560,0,,,,,,,,,,,,,,,
4229894,1501040332454,,,,,,,,,0,1545,0,,,,,,,,,,,,,,,
4229904,1501040332464,,,,,,,,,0,1470,0,,,,,,,,,,,,,,,
4229914,1501040332474,,,,,,,,,0,1425,0,,,,,,,,,,,,,,,
4229924,1501040332484,3.35,,-0.06,-0.06,0.9,0,-3,-0,0,1350,0,,,,,,,,,,,,,,,
4229934,1501040332494,,,,,,,,,0,1545,0,,,,,,,,,,,,,,,
4229944,1501040332504,,,,,,,,,0,1620,0,36.113461,-115.146027,0.0,9.721,2027.5,8,2,2.5,0,0.0,-1,0.0,0.0,0.0,0
4229954,1501040332514,,,,,,,,,0,1590,0,,,,,,,,,,,,,,,
4229964,1501040332524,3.39,,-0.04,-0.04,0.84,0,-4,-1,0,1560,0,,,,,,,,,,,,,,,
4229974,1501040332534,,,,,,,,,0,1545,0,,,,,,,,,,,,,,,
4229984,1501040332544,,,,,,,,,0,1470,0,,,,,,,,,,,,,,,
4229994,1501040332554,,,,,,,,,0,1425,0,,,,,,,,,,,,,,,
4230004,1501040332564,3.35,,-0.03,-0.06,0.82,1,-4,-0,0,1350,0,,,,,,,,,,,,,,,
4230014,1501040332574,,,,,,,,,0,1545,0,,,,,,,,,,,,,,,
4230024,1501040332584,,,,,,,,,0,1620,0,,,,,,,,,,,,,,,
4230034,1501040332594,,,,,,,,,0,1590,0,,,,,,,,,,,,,,,
4230044,1501040332604,3.39,4.49,-0.02,-0.03,0.79,1,-5,1,0,1560,0,36.113461,-115.146027,0.0,9.721,2027.5,8,2,2.5,0,0.0,-1,0.0,0.0,0.0,0
4230054,1501040332614,,,,,,,,,0,1530,0,,,,,,,,,,,,,,,
4230064,1501040332624,,,,,,,,,0,1470,0,,,,,,,,,,,,,,,
4230074,1501040332634,,,,,,,,,0,1425,0,,,,,,,,,,,,,,,
4230084,1501040332644,3.35,,-0.0,-0.05,0.78,0,-6,1,0,1350,0,,,,,,,,,,,,,,,
4230094,1501040332654,,,,,,,,,0,1545,0,,,,,,,,,,,,,,,
4230104,1501040332664,,,,,,,,,0,1605,0,,,,,,,,,,,,,,,
4230114,1501040332674,,,,,,,,,0,1575,0,,,,,,,,,,,,,,,
4230124,1501040332684,3.38,,0.0,-0.01,0.77,0,-6,2,0,1545,0,,,,,,,,,,,,,,,
4230134,1501040332694,,,,,,,,,0,1530,0,,,,,,,,,,,,,,,
4230144,1501040332704,,,,,,,,,0,1455,0,36.113461,-115.146027,0.0,9.721,2027.5,8,2,2.5,0,0.0,-1,0.0,0.0,0.0,0
4230154,1501040332714,,,,,,,,,0,1410,0,,,,,,,,,,,,,,,
4230164,1501040332724,3.35,,0.02,-0.04,0.79,0,-7,2,0,1335,0,,,,,,,,,,,,,,,
4230174,1501040332734,,,,,,,,,0,1530,0,,,,,,,,,,,,,,,
4230184,1501040332744,,,,,,,,,0,1605,0,,,,,,,,,,,,,,,
4230194,1501040332754,,,,,,,,,0,1560,0,,,,,,,,,,,,,,,
4230204,1501040332764,3.39,,0.02,-0.0,0.77,-0,-7,3,0,1530,0,,,,,,,,,,,,,,,
4230214,1501040332774,,,,,,,,,0,1515,0,,,,,,,,,,,,,,,
4230224,1501040332784,,,,,,,,,0,1455,0,,,,,,,,,,,,,,,
4230234,1501040332794,,,,,,,,,0,1410,0,,,,,,,,,,,,,,,
4230244,1501040332804,3.35,,0.03,-0.05,0.78,0,-7,3,0,1320,0,36.113461,-115.146027,0.0,9.721,2027.5,8,2,2.5,0,0.0,-1,0.0,0.0,0.0,0
4230254,1501040332814,,,,,,,,,0,1530,0,,,,,,,,,,,,,,,
4230264,1501040332824,,,,,,,,,0,1605,0,,,,,,,,,,,,,,,
4230274,1501040332834,,,,,,,,,0,1575,0,,,,,,,,,,,,,,,
4230284,1501040332844,3.38,,0.03,-0.01,0.77,-0,-7,3,0,1545,0,,,,,,,,,,,,,,,
4230294,1501040332854,,,,,,,,,0,1530,0,,,,,,,,,,,,,,,
4230304,1501040332864,,,,,,,,,0,1455,0,,,,,,,,,,,,,,,
4230314,1501040332874,,,,,,,,,0,1410,0,,,,,,,,,,,,,,,
4230324,1501040332884,3.34,,0.04,-0.06,0.78,0,-7,3,0,1335,0,,,,,,,,,,,,,,,
4230334,1501040332893,,,,,,,,,0,1545,0,,,,,,,,,,,,,,,
4230344,1501040332903,,,,,,,,,0,1605,0,36.113461,-115.146027,0.0,9.721,2027.5,8,2,2.5,0,0.0,-1,0.0,0.0,0.0,0
4230354,1501040332913,,,,,,,,,0,1575,0,,,,,,,,,,,,,,,
4230364,1501040332923,3.38,,0.04,-0.01,0.76,-0,-7,3,0,1545,0,,,,,,,,,,,,,,,
4230374,1501040332933,,,,,,,,,0,1530,0,,,,,,,,,,,,,,,
4230384,1501040332943,,,,,,,,,0,1455,0,,,,,,,,,,,,,,,
4230394,1501040332953,,,,,,,,,0,1410,0,,,,,,,,,,,,,,,
4230404,1501040332963,3.35,,0.05,-0.06,0.78,0,-7,3,0,1335,0,,,,,,,,,,,,,,,
4230414,1501040332973,,,,,,,,,0,1545,0,,,,,,,,,,,,,,,
4230424,1501040332983,,,,,,,,,0,1620,0,,,,,,,,,,,,,,,
4230434,1501040332993,,,,,,,,,0,1575,0,,,,,,,,,,,,,,,
4230444,1501040332995,3.38,,0.05,-0.01,0.75,-0,-8,3,0,1560,0,36.113461,-115.146027,0.0,9.721,2027.5,8,2,2.5,0,0.0,-1,0.0,0.0,0.0,0
4230454,1501040333005,,,,,,,,,0,1530,0,,,,,,,,,,,,,,,
4230464,1501040333015,,,,,,,,,0,1470,0,,,,,,,,,,,,,,,
4230474,1501040333025,,,,,,,,,0,1425,0,,,,,,,,,,,,,,,
4230484,1501040333035,3.34,,0.06,-0.04,0.78,-0,-9,3,0,1350,0,,,,,,,,,,,,,,,
4230494,1501040333045,,,,,,,,,0,1545,0,,,,,,,,,,,,,,,
4230504,1501040333055,,,,,,,,,0,1620,0,,,,,,,,,,,,,,,
4230514,1501040333065,,,,,,,,,0,1575,0,,,,,,,,,,,,,,,
4230524,1501040333075,3.37,,0.05,-0.0,0.76,-1,-9,3,0,1560,0,,,,,,,,,,,,,,,
4230534,1501040333093,,,,,,,,,0,1530,0,,,,,,,,,,,,,,,
4230544,1501040333103,,,,,,,,,0,1470,0,36.113461,-115.146027,0.0,9.721,2027.5,8,2,2.5,0,0.0,-1,0.0,0.0,0.0,0
4230554,1501040333113,,,,,,,,,0,1425,0,,,,,,,,,,,,,,,
4230564,1501040333123,3.36,,0.06,-0.02,0.77,-1,-10,4,0,1350,0,,,,,,,,,,,,,,,
4230574,1501040333133,,,,,,,,,0,1560,0,,,,,,,,,,,,,,,
4230584,1501040333143,,,,,,,,,0,1620,0,,,,,,,,,,,,,,,
4230594,1501040333153,,,,,,,,,0,1575,0,,,,,,,,,,,,,,,
4230604,1501040333163,3.38,,0.05,0.01,0.77,-1,-11,4,0,1560,0,,,,,,,,,,,,,,,
4230614,1501040333173,,,,,,,,,0,1530,0,,,,,,,,,,,,,,,
4230624,1501040333183,,,,,,,,,0,1470,0,,,,,,,,,,,,,,,
4230634,1501040333193,,,,,,,,,0,1425,0,,,,,,,,,,,,,,,
4230644,1501040333203,3.38,,0.06,-0.01,0.76,-2,-11,3,0,1335,0,36.113461,-115.146027,0.0,9.721,2027.5,8,2,2.5,0,0.0,-1,0.0,0.0,0.0,0
4230654,1501040333213,,,,,,,,,0,1545,0,,,,,,,,,,,,,,,
4230664,1501040333223,,,,,,,,,0,1605,0,,,,,,,,,,,,,,,
4230674,1501040333233,,,,,,,,,0,1575,0,,,,,,,,,,,,,,,
4230684,1501040333243,3.39,,0.06,0.03,0.77,-2,-11,3,0,1545,0,,,,,,,,,,,,,,,
4230694,1501040333253,,,,,,,,,0,1530,0,,,,,,,,,,,,,,,
4230704,1501040333263,,,,,,,,,0,1455,0,,,,,,,,,,,,,,,
4230714,1501040333273,,,,,,,,,0,1410,0,,,,,,,,,,,,,,,
4230724,1501040333283,3.38,,0.07,0.0,0.76,-2,-11,3,0,1320,0,,,,,,,,,,,,,,,
4230734,1501040333293,,,,,,,,,0,1530,0,,,,,,,,,,,,,,,
4230744,1501040333303,,,,,,,,,0,1590,0,36.113461,-115.146027,0.0,9.721,2027.5,8,2,2.5,0,0.0,-1,0.0,0.0,0.0,0
4230754,1501040333313,,,,,,,,,0,1560,0,,,,,,,,,,,,,,,
4230764,1501040333323,3.38,,0.06,0.03,0.78,-3,-10,3,0,1545,0,,,,,,,,,,,,,,,
4230774,1501040333333,,,,,,,,,0,1515,0,,,,,,,,,,,,,,,
4230784,1501040333343,,,,,,,,,0,1440,0,,,,,,,,,,,,,,,
4230794,1501040333353,,,,,,,,,0,1395,0,,,,,,,,,,,,,,,
4230804,1501040333363,3.36,,0.07,-0.01,0.8,-3,-10,2,0,1305,0,,,,,,,,,,,,,,,
4230814,1501040333373,,,,,,,,,0,1515,0,,,,,,,,,,,,,,,
4230824,1501040333383,,,,,,,,,0,1590,0,,,,,,,,,,,,,,,
4230834,1501040333393,,,,,,,,,0,1545,0,,,,,,,,,,,,,,,
4230844,1501040333403,3.38,,0.06,0.03,0.8,-3,-11,3,0,1515,0,36.113461,-115.146027,0.0,9.721,2027.5,8,2,2.5,0,0.0,-1,0.0,0.0,0.0,0
4230854,1501040333413,,,,,,,,,0,1485,0,,,,,,,,,,,,,,,
4230864,1501040333423,,,,,,,,,0,1425,0,,,,,,,,,,,,,,,
4230874,1501040333433,,,,,,,,,0,1380,0,,,,,,,,,,,,,,,
4230884,1501040333443,3.35,,0.05,-0.04,0.81,-2,-10,3,0,1275,0,,,,,,,,,,,,,,,
4230894,1501040333453,,,,,,,,,0,1500,0,,,,,,,,,,,,,,,
4230904,1501040333463,,,,,,,,,0,1575,0,,,,,,,,,,,,,,,
4230914,1501040333473,,,,,,,,,0,1530,0,,,,,,,,,,,,,,,
4230924,1501040333483,3.39,,0.05,-0.0,0.77,-2,-10,3,0,1500,0,,,,,,,,,,,,,,,
4230934,1501040333493,,,,,,,,,0,1470,0,,,,,,,,,,,,,,,
4230944,1501040333503,,,,,,,,,0,1410,0,36.113461,-115.146027,0.0,9.721,2027.5,8,2,2.5,0,0.0,-1,0.0,0.0,0.0,0
4230954,1501040333513,,,,,,,,,0,1350,0,,,,,,,,,,,,,,,
4230964,1501040333523,3.36,,0.01,-0.02,0.8,-1,-8,3,0,1245,0,,,,,,,,,,,,,,,
4230974,1501040333533,,,,,,,,,0,1470,0,,,,,,,,,,,,,,,
4230984,1501040333543,,,,,,,,,0,1545,0,,,,,,,,,,,,,,,
4230994,1501040333553,,,,,,,,,0,1515,0,,,,,,,,,,,,,,,
4231004,1501040333563,3.38,,0.01,-0.01,0.77,-1,-9,2,0,1470,0,,,,,,,,,,,,,,,
4231014,1501040333573,,,,,,,,,0,1425,0,,,,,,,,,,,,,,,
4231024,1501040333583,,,,,,,,,0,1425,0,,,,,,,,,,,,,,,
4231034,1501040333593,,,,,,,,,0,1365,0,,,,,,,,,,,,,,,
4231044,1501040333603,3.4,4.48,0.02,0.03,0.8,-2,-8,2,0,1305,0,36.113461,-115.146027,0.0,9.721,2027.5,8,2,2.5,0,0.0,-1,0.0,0.0,0.0,0
4231054,1501040333613,,,,,,,,,0,1185,0,,,,,,,,,,,,,,,
4231064,1501040333623,,,,,,,,,0,1425,0,,,,,,,,,,,,,,,
4231074,1501040333633,,,,,,,,,0,1500,0,,,,,,,,,,,,,,,
4231084,1501040333643,3.34,,-0.0,-0.0,0.85,-2,-5,2,0,1455,0,,,,,,,,,,,,,,,
4231094,1501040333653,,,,,,,,,0,1410,0,,,,,,,,,,,,,,,
4231104,1501040333663,,,,,,,,,0,1365,0,,,,,,,,,,,,,,,
4231114,1501040333673,,,,,,,,,0,1305,0,,,,,,,,,,,,,,,
4231124,1501040333683,3.36,,-0.01,-0.01,0.86,-1,-5,1,0,1305,0,,,,,,,,,,,,,,,
4231134,1501040333695,,,,,,,,,0,1230,0,,,,,,,,,,,,,,,
4231144,1501040333705,,,,,,,,,0,1110,0,36.113461,-115.146027,0.0,9.721,2027.5,8,2,2.5,0,0.0,-1,0.0,0.0,0.0,0
4231154,1501040333715,,,,,,,,,0,1350,0,,,,,,,,,,,,,,,
4231164,1501040333725,3.36,,0.01,0.06,0.81,-1,-7,1,0,1440,0,,,,,,,,,,,,,,,
4231174,1501040333735,,,,,,,,,0,1395,0,,,,,,,,,,,,,,,
4231184,1501040333745,,,,,,,,,0,1350,0,,,,,,,,,,,,,,,
4231194,1501040333755,,,,,,,,,0,1305,0,,,,,,,,,,,,,,,
4231204,1501040333765,3.36,,0.01,0.04,0.88,-2,-7,2,0,1305,0,,,,,,,,,,,,,,,
4231214,1501040333775,,,,,,,,,0,1230,0,,,,,,,,,,,,,,,
4231224,1501040333785,,,,,,,,,0,1155,0,,,,,,,,,,,,,,,
4231234,1501040333795,,,,,,,,,0,1035,0,,,,,,,,,,,,,,,
4231244,1501040333805,3.39,,0.04,0.01,1.02,-2,-7,4,0,1275,0,36.113461,-115.146027,0.0,9.721,2027.5,8,2,2.5,0,0.0,-1,0.0,0.0,0.0,0
4231254,1501040333815,,,,,,,,,0,1365,0,,,,,,,,,,,,,,,
4231264,1501040333825,,,,,,,,,0,1365,0,,,,,,,,,,,,,,,
4231274,1501040333835,,,,,,,,,0,1320,0,,,,,,,,,,,,,,,
4231284,1501040333845,3.38,,0.07,-0.07,1.11,-2,-6,6,0,1275,0,,,,,,,,,,,,,,,
4231294,1501040333855,,,,,,,,,0,1215,0,,,,,,,,,,,,,,,
4231304,1501040333865,,,,,,,,,0,1170,0,,,,,,,,,,,,,,,
4231314,1501040333875,,,,,,,,,0,1170,0,,,,,,,,,,,,,,,
4231324,1501040333885,3.41,,0.06,-0.1,1.15,-2,-6,6,0,1095,0,,,,,,,,,,,,,,,
4231334,1501040333895,,,,,,,,,0,960,0,,,,,,,,,,,,,,,
4231344,1501040333905,,,,,,,,,0,1215,0,36.113461,-115.146027,0.0,9.721,2027.5,8,2,2.5,0,0.0,-1,0.0,0.0,0.0,0
4231354,1501040333915,,,,,,,,,0,1215,0,,,,,,,,,,,,,,,
4231364,1501040333925,3.38,,0.03,-0.11,1.18,-2,-5,6,0,1320,0,,,,,,,,,,,,,,,
4231374,1501040333935,,,,,,,,,0,1290,0,,,,,,,,,,,,,,,
4231384,1501040333945,,,,,,,,,0,1245,0,,,,,,,,,,,,,,,
4231394,1501040333955,,,,,,,,,0,1215,0,,,,,,,,,,,,,,,
4231404,1501040333965,3.38,,0.01,-0.13,1.22,-2,-5,7,0,1215,0,,,,,,,,,,,,,,,
4231414,1501040333975,,,,,,,,,0,1155,0,,,,,,,,,,,,,,,
4231424,1501040333985,,,,,,,,,0,1110,0,,,,,,,,,,,,,,,
4231434,1501040333995,,,,,,,,,0,990,0,,,,,,,,,,,,,,,
4231444,1501040333996,3.33,,0.01,-0.13,1.26,-2,-4,6,0,1260,0,36.113461,-115.146027,0.0,9.721,2027.5,8,2,2.5,0,0.0,-1,0.0,0.0,0.0,0
4231454,1501040334006,,,,,,,,,0,1260,0,,,,,,,,,,,,,,,
4231464,1501040334016,,,,,,,,,0,1365,0,,,,,,,,,,,,,,,
4231474,1501040334026,,,,,,,,,0,1335,0,,,,,,,,,,,,,,,
4231484,1501040334036,3.37,,-0.01,-0.15,1.26,-2,-3,6,0,1305,0,,,,,,,,,,,,,,,
4231494,1501040334046,,,,,,,,,0,1290,0,,,,,,,,,,,,,,,
4231504,1501040334056,,,,,,,,,0,1245,0,,,,,,,,,,,,,,,
4231514,1501040334066,,,,,,,,,0,1245,0,,,,,,,,,,,,,,,
4231524,1501040334076,3.39,,-0.02,-0.14,1.29,-2,-3,5,0,1200,0,,,,,,,,,,,,,,,
4231534,1501040334092,,,,,,,,,0,1095,0,,,,,,,,,,,,,,,
4231544,1501040334102,,,,,,,,,0,1350,0,36.113461,-115.146027,0.0,9.721,2027.5,8,2,2.5,0,0.0,-1,0.0,0.0,0.0,0
4231554,1501040334112,,,,,,,,,0,1470,0,,,,,,,,,,,,,,,
4231564,1501040334122,3.37,,-0.06,-0.18,1.26,-1,-2,3,0,1455,0,,,,,,,,,,,,,,,
4231574,1501040334132,,,,,,,,,0,1425,0,,,,,,,,,,,,,,,
4231584,1501040334142,,,,,,,,,0,1410,0,,,,,,,,,,,,,,,
4231594,1501040334152,,,,,,,,,0,1365,0,,,,,,,,,,,,,,,
4231604,1501040334162,3.37,,-0.04,-0.12,1.19,-1,-2,3,0,1320,0,,,,,,,,,,,,,,,
4231614,1501040334172,,,,,,,,,0,1230,0,,,,,,,,,,,,,,,
4231624,1501040334182,,,,,,,,,0,1500,0,,,,,,,,,,,,,,,
4231634,1501040334194,,,,,,,,,0,1590,0,,,,,,,,,,,,,,,
4231644,1501040334204,3.37,,-0.07,-0.11,1.18,-1,-1,6,0,1560,0,36.113461,-115.146027,0.0,9.721,2027.5,8,2,2.5,0,0.0,-1,0.0,0.0,0.0,0
4231654,1501040334214,,,,,,,,,0,1545,0,,,,,,,,,,,,,,,
4231664,1501040334224,,,,,,,,,0,1545,0,,,,,,,,,,,,,,,
4231674,1501040334234,,,,,,,,,0,1485,0,,,,,,,,,,,,,,,
4231684,1501040334244,3.36,,-0.05,-0.12,1.2,-1,-1,6,0,1455,0,,,,,,,,,,,,,,,
4231694,1501040334254,,,,,,,,,0,1380,0,,,,,,,,,,,,,,,
4231704,1501040334264,,,,,,,,,0,1605,0,,,,,,,,,,,,,,,
4231714,1501040334274,,,,,,,,,0,1710,0,,,,,,,,,,,,,,,
4231724,1501040334284,3.35,,-0.07,-0.14,1.26,-1,0,8,0,1665,0,,,,,,,,,,,,,,,
4231734,1501040334294,,,,,,,,,0,1650,0,,,,,,,,,,,,,,,
4231744,1501040334304,,,,,,,,,0,1635,0,36.113461,-115.146027,0.0,9.721,2027.5,8,2,2.5,0,0.0,-1,0.0,0.0,0.0,0
4231754,1501040334314,,,,,,,,,0,1605,0,,,,,,,,,,,,,,,
4231764,1501040334324,3.35,,-0.04,-0.15,1.34,-2,0,9,0,1545,0,,,,,,,,,,,,,,,
4231774,1501040334334,,,,,,,,,0,1650,0,,,,,,,,,,,,,,,
4231784,1501040334344,,,,,,,,,0,1725,0,,,,,,,,,,,,,,,
4231794,1501040334354,,,,,,,,,0,1695,0,,,,,,,,,,,,,,,
4231804,1501040334364,3.37,,-0.03,-0.17,1.39,-2,-1,9,0,1665,0,,,,,,,,,,,,,,,
4231814,1501040334374,,,,,,,,,0,1665,0,,,,,,,,,,,,,,,
4231824,1501040334384,,,,,,,,,0,1605,0,,,,,,,,,,,,,,,
4231834,1501040334394,,,,,,,,,0,1560,0,,,,,,,,,,,,,,,
4231844,1501040334404,3.35,,0.01,-0.15,1.31,-1,-2,6,0,1500,0,36.113461,-115.146027,0.0,9.721,2027.5,8,2,2.5,0,0.0,-1,0.0,0.0,0.0,0
4231854,1501040334414,,,,,,,,,0,1635,0,,,,,,,,,,,,,,,
4231864,1501040334424,,,,,,,,,0,1680,0,,,,,,,,,,,,,,,
4231874,1501040334434,,,,,,,,,0,1635,0,,,,,,,,,,,,,,,
4231884,1501040334444,3.39,,0.0,-0.13,1.2,-1,-2,5,0,1620,0,,,,,,,,,,,,,,,
4231894,1501040334454,,,,,,,,,0,1605,0,,,,,,,,,,,,,,,
4231904,1501040334464,,,,,,,,,0,1545,0,,,,,,,,,,,,,,,
4231914,1501040334474,,,,,,,,,0,1500,0,,,,,,,,,,,,,,,
4231924,1501040334484,3.35,,-0.02,-0.13,1.09,-1,-4,4,0,1575,0,,,,,,,,,,,,,,,
4231934,1501040334492,,,,,,,,,0,1620,0,,,,,,,,,,,,,,,
4231944,1501040334502,,,,,,,,,0,1590,0,36.113461,-115.146027,0.0,9.721,2027.5,8,2,2.5,0,0.0,-1,0.0,0.0,0.0,0
4231954,1501040334512,,,,,,,,,0,1560,0,,,,,,,,,,,,,,,
4231964,1501040334522,3.38,,-0.02,-0.1,1.08,-2,-5,4,0,1545,0,,,,,,,,,,,,,,,
4231974,1501040334532,,,,,,,,,0,1500,0,,,,,,,,,,,,,,,
4231984,1501040334542,,,,,,,,,0,1440,0,,,,,,,,,,,,,,,
4231994,1501040334552,,,,,,,,,0,1380,0,,,,,,,,,,,,,,,
4232004,1501040334562,3.4,,-0.05,-0.09,1.06,-1,-4,4,0,1545,0,,,,,,,,,,,,,,,
4232014,1501040334572,,,,,,,,,0,1605,0,,,,,,,,,,,,,,,
4232024,1501040334582,,,,,,,,,0,1575,0,,,,,,,,,,,,,,,
4232034,1501040334594,,,,,,,,,0,1545,0,,,,,,,,,,,,,,,
4232044,1501040334604,3.36,4.47,-0.06,-0.13,1.1,-1,-4,4,0,1530,0,36.113461,-115.146027,0.0,9.721,2027.5,8,2,2.5,0,0.0,-1,0.0,0.0,0.0,0
4232054,1501040334614,,,,,,,,,0,1470,0,,,,,,,,,,,,,,,
4232064,1501040334624,,,,,,,,,0,1425,0,,,,,,,,,,,,,,,
4232074,1501040334634,,,,,,,,,0,1350,0,,,,,,,,,,,,,,,
4232084,1501040334644,3.39,,-0.08,-0.11,1.09,-1,-3,4,0,1545,0,,,,,,,,,,,,,,,
4232094,1501040334654,,,,,,,,,0,1605,0,,,,,,,,,,,,,,,
4232104,1501040334664,,,,,,,,,0,1575,0,,,,,,,,,,,,,,,
4232114,1501040334674,,,,,,,,,0,1545,0,,,,,,,,,,,,,,,
4232124,1501040334684,3.36,,-0.08,-0.14,1.14,-1,-2,5,0,1515,0,,,,,,,,,,,,,,,
4232134,1501040334694,,,,,,,,,0,1470,0,,,,,,,,,,,,,,,
4232144,1501040334704,,,,,,,,,0,1425,0,36.113461,-115.146027,0.0,9.721,2027.5,8,2,2.5,0,0.0,-1,0.0,0.0,0.0,0
4232154,1501040334714,,,,,,,,,0,1350,0,,,,,,,,,,,,,,,
4232164,1501040334724,3.41,,-0.1,-0.12,1.15,-0,-1,5,0,1560,0,,,,,,,,,,,,,,,
4232174,1501040334734,,,,,,,,,0,1620,0,,,,,,,,,,,,,,,
4232184,1501040334744,,,,,,,,,0,1590,0,,,,,,,,,,,,,,,
4232194,1501040334754,,,,,,,,,0,1575,0,,,,,,,,,,,,,,,
4232204,1501040334764,3.38,,-0.1,-0.13,1.21,-0,-1,6,0,1545,0,,,,,,,,,,,,,,,
4232214,1501040334774,,,,,,,,,0,1485,0,,,,,,,,,,,,,,,
4232224,1501040334784,,,,,,,,,0,1440,0,,,,,,,,,,,,,,,
4232234,1501040334794,,,,,,,,,0,1380,0,,,,,,,,,,,,,,,
4232244,1501040334804,3.42,,-0.09,-0.11,1.22,-1,0,8,0,1575,0,36.113461,-115.146027,0.0,9.721,2027.5,8,2,2.5,0,0.0,-1,0.0,0.0,0.0,0
4232254,1501040334814,,,,,,,,,0,1650,0,,,,,,,,,,,,,,,
4232264,1501040334824,,,,,,,,,0,1620,0,,,,,,,,,,,,,,,
4232274,1501040334834,,,,,,,,,0,1590,0,,,,,,,,,,,,,,,
4232284,1501040334844,3.38,,-0.08,-0.13,1.25,-1,1,8,0,1575,0,,,,,,,,,,,,,,,
4232294,1501040334854,,,,,,,,,0,1515,0,,,,,,,,,,,,,,,
4232304,1501040334864,,,,,,,,,0,1470,0,,,,,,,,,,,,,,,
4232314,1501040334874,,,,,,,,,0,1410,0,,,,,,,,,,,,,,,
4232324,1501040334884,3.41,,-0.04,-0.13,1.31,-1,1,7,0,1590,0,,,,,,,,,,,,,,,
4232334,1501040334893,,,,,,,,,0,1665,0,,,,,,,,,,,,,,,
4232344,1501040334903,,,,,,,,,0,1620,0,36.113461,-115.146027,0.0,9.721,2027.5,8,2,2.5,0,0.0,-1,0.0,0.0,0.0,0
4232354,1501040334913,,,,,,,,,0,1605,0,,,,,,,,,,,,,,,
4232364,1501040334923,3.39,,-0.01,-0.15,1.29,-1,-0,5,0,1575,0,,,,,,,,,,,,,,,
4232374,1501040334933,,,,,,,,,0,1530,0,,,,,,,,,,,,,,,
4232384,1501040334943,,,,,,,,,0,1485,0,,,,,,,,,,,,,,,
4232394,1501040334953,,,,,,,,,0,1590,0,,,,,,,,,,,,,,,
4232404,1501040334963,3.38,,-0.03,-0.14,1.35,-1,-0,6,0,1665,0,,,,,,,,,,,,,,,
4232414,1501040334973,,,,,,,,,0,1620,0,,,,,,,,,,,,,,,
4232424,1501040334983,,,,,,,,,0,1605,0,,,,,,,,,,,,,,,
4232434,1501040334993,,,,,,,,,0,1590,0,,,,,,,,,,,,,,,
4232444,1501040334997,3.41,,-0.05,-0.09,1.24,-1,-1,5,0,1515,0,36.113461,-115.146027,0.0,9.721,2027.5,8,2,2.5,0,0.0,-1,0.0,0.0,0.0,0
4232454,1501040335007,,,,,,,,,0,1485,0,,,,,,,,,,,,,,,
4232464,1501040335017,,,,,,,,,0,1410,0,,,,,,,,,,,,,,,
4232474,1501040335027,,,,,,,,,0,1575,0,,,,,,,,,,,,,,,
4232484,1501040335037,3.38,,-0.07,-0.09,1.15,-0,-1,3,0,1635,0,,,,,,,,,,,,,,,
4232494,1501040335047,,,,,,,,,0,1605,0,,,,,,,,,,,,,,,
4232504,1501040335057,,,,,,,,,0,1590,0,,,,,,,,,,,,,,,
4232514,1501040335067,,,,,,,,,0,1545,0,,,,,,,,,,,,,,,
4232524,1501040335077,3.39,,-0.04,-0.04,1.08,-1,-2,3,0,1500,0,,,,,,,,,,,,,,,
4232534,1501040335091,,,,,,,,,0,1455,0,,,,,,,,,,,,,,,
4232544,1501040335101,,,,,,,,,0,1380,0,36.113461,-115.146027,0.0,9.721,2027.5,8,2,2.5,0,0.0,-1,0.0,0.0,0.0,0
4232554,1501040335111,,,,,,,,,0,1575,0,,,,,,,,,,,,,,,
4232564,1501040335121,3.39,,-0.03,-0.07,1.02,0,-3,2,0,1620,0,,,,,,,,,,,,,,,
4232574,1501040335131,,,,,,,,,0,1605,0,,,,,,,,,,,,,,,
4232584,1501040335141,,,,,,,,,0,1560,0,,,,,,,,,,,,,,,
4232594,1501040335151,,,,,,,,,0,1545,0,,,,,,,,,,,,,,,
4232604,1501040335161,3.38,,-0.02,-0.06,0.98,-0,-3,2,0,1500,0,,,,,,,,,,,,,,,
4232614,1501040335171,,,,,,,,,0,1455,0,,,,,,,,,,,,,,,
4232624,1501040335181,,,,,,,,,0,1380,0,,,,,,,,,,,,,,,
4232634,1501040335193,,,,,,,,,0,1560,0,,,,,,,,,,,,,,,
4232644,1501040335203,3.38,,0.0,-0.06,0.93,-0,-5,3,0,1620,0,36.113461,-115.146027,0.0,9.721,2027.5,8,2,2.5,0,0.0,-1,0.0,0.0,0.0,0
4232654,1501040335213,,,,,,,,,0,1590,0,,,,,,,,,,,,,,,
4232664,1501040335223,,,,,,,,,0,1575,0,,,,,,,,,,,,,,,
4232674,1501040335233,,,,,,,,,0,1545,0,,,,,,,,,,,,,,,
4232684,1501040335243,3.38,,-0.0,-0.07,0.95,-1,-5,3,0,1500,0,,,,,,,,,,,,,,,
4232694,1501040335253,,,,,,,,,0,1455,0,,,,,,,,,,,,,,,
4232704,1501040335263,,,,,,,,,0,1380,0,,,,,,,,,,,,,,,
4232714,1501040335273,,,,,,,,,0,1575,0,,,,,,,,,,,,,,,
4232724,1501040335283,3.33,,0.02,-0.02,0.89,-2,-7,3,0,1605,0,,,,,,,,,,,,,,,
4232734,1501040335293,,,,,,,,,0,1590,0,,,,,,,,,,,,,,,
4232744,1501040335303,,,,,,,,,0,1575,0,36.113461,-115.146027,0.0,9.721,2027.5,8,2,2.5,0,0.0,-1,0.0,0.0,0.0,0
4232754,1501040335313,,,,,,,,,0,1500,0,,,,,,,,,,,,,,,
4232764,1501040335323,3.33,,0.0,-0.05,0.93,-2,-6,3,0,1470,0,,,,,,,,,,,,,,,
4232774,1501040335333,,,,,,,,,0,1395,0,,,,,,,,,,,,,,,
4232784,1501040335343,,,,,,,,,0,1590,0,,,,,,,,,,,,,,,
4232794,1501040335353,,,,,,,,,0,1650,0,,,,,,,,,,,,,,,
4232804,1501040335363,3.37,,-0.02,-0.02,0.88,-2,-7,3,0,1620,0,,,,,,,,,,,,,,,
4232814,1501040335373,,,,,,,,,0,1590,0,,,,,,,,,,,,,,,
4232824,1501040335383,,,,,,,,,0,1575,0,,,,,,,,,,,,,,,
4232834,1501040335393,,,,,,,,,0,1530,0,,,,,,,,,,,,,,,
4232844,1501040335403,3.37,,-0.04,-0.05,0.95,-2,-5,4,0,1470,0,36.113461,-115.146027,0.0,9.721,2027.5,8,2,2.5,0,0.0,-1,0.0,0.0,0.0,0
4232854,1501040335413,,,,,,,,,0,1410,0,,,,,,,,,,,,,,,
4232864,1501040335423,,,,,,,,,0,1590,0,,,,,,,,,,,,,,,
4232874,1501040335433,,,,,,,,,0,1650,0,,,,,,,,,,,,,,,
4232884,1501040335443,3.38,,-0.06,-0.05,0.96,-2,-3,5,0,1620,0,,,,,,,,,,,,,,,
4232894,1501040335453,,,,,,,,,0,1590,0,,,,,,,,,,,,,,,
4232904,1501040335463,,,,,,,,,0,1575,0,,,,,,,,,,,,,,,
4232914,1501040335473,,,,,,,,,0,1515,0,,,,,,,,,,,,,,,
4232924,1501040335483,3.39,,-0.02,-0.08,1.03,-2,-3,6,0,1470,0,,,,,,,,,,,,,,,
4232934,1501040335493,,,,,,,,,0,1410,0,,,,,,,,,,,,,,,
4232944,1501040335503,,,,,,,,,0,1590,0,36.113461,-115.146027,0.0,9.721,2027.5,8,2,2.5,0,0.0,-1,0.0,0.0,0.0,0
4232954,1501040335513,,,,,,,,,0,1635,0,,,,,,,,,,,,,,,
4232964,1501040335523,3.38,,-0.03,-0.13,1.11,-2,-3,4,0,1605,0,,,,,,,,,,,,,,,
4232974,1501040335533,,,,,,,,,0,1590,0,,,,,,,,,,,,,,,
4232984,1501040335543,,,,,,,,,0,1560,0,,,,,,,,,,,,,,,
4232994,1501040335553,,,,,,,,,0,1500,0,,,,,,,,,,,,,,,
4233004,1501040335563,3.39,,-0.06,-0.11,1.13,-1,-3,3,0,1470,0,,,,,,,,,,,,,,,
4233014,1501040335573,,,,,,,,,0,1395,0,,,,,,,,,,,,,,,
4233024,1501040335583,,,,,,,,,0,1635,0,,,,,,,,,,,,,,,
4233034,1501040335593,,,,,,,,,0,1605,0,,,,,,,,,,,,,,,
4233044,1501040335603,3.36,4.48,-0.06,-0.12,1.14,-1,-2,3,0,1590,0,36.113461,-115.146027,0.0,9.721,2027.5,8,2,2.5,0,0.0,-1,0.0,0.0,0.0,0
4233054,1501040335613,,,,,,,,,0,1560,0,,,,,,,,,,,,,,,
4233064,1501040335623,,,,,,,,,0,1500,0,,,,,,,,,,,,,,,
4233074,1501040335633,,,,,,,,,0,1470,0,,,,,,,,,,,,,,,
4233084,1501040335643,3.36,,-0.08,-0.07,1.12,-1,-2,3,0,1395,0,,,,,,,,,,,,,,,
4233094,1501040335653,,,,,,,,,0,1575,0,,,,,,,,,,,,,,,
4233104,1501040335663,,,,,,,,,0,1635,0,,,,,,,,,,,,,,,
4233114,1501040335673,,,,,,,,,0,1605,0,,,,,,,,,,,,,,,
4233124,1501040335683,3.37,,-0.06,-0.05,1.03,-1,-1,2,0,1590,0,,,,,,,,,,,,,,,
4233134,1501040335693,,,,,,,,,0,1575,0,,,,,,,,,,,,,,,
4233144,1501040335703,,,,,,,,,0,1500,0,36.113461,-115.146027,0.0,9.721,2027.5,8,2,2.5,0,0.0,-1,0.0,0.0,0.0,0
4233154,1501040335713,,,,,,,,,0,1470,0,,,,,,,,,,,,,,,
4233164,1501040335723,3.35,,-0.03,-0.03,0.96,-1,-3,2,0,1410,0,,,,,,,,,,,,,,,
4233174,1501040335733,,,,,,,,,0,1575,0,,,,,,,,,,,,,,,
4233184,1501040335743,,,,,,,,,0,1635,0,,,,,,,,,,,,,,,
4233194,1501040335753,,,,,,,,,0,1605,0,,,,,,,,,,,,,,,
4233204,1501040335763,3.38,,-0.02,-0.03,0.9,-1,-3,1,0,1590,0,,,,,,,,,,,,,,,
4233214,1501040335773,,,,,,,,,0,1575,0,,,,,,,,,,,,,,,
4233224,1501040335783,,,,,,,,,0,1515,0,,,,,,,,,,,,,,,
4233234,1501040335793,,,,,,,,,0,1470,0,,,,,,,,,,,,,,,
4233244,1501040335803,3.36,,0.0,-0.03,0.86,-1,-6,1,0,1410,0,36.113461,-115.146027,0.0,9.721,2027.5,8,2,2.5,0,0.0,-1,0.0,0.0,0.0,0
4233254,1501040335813,,,,,,,,,0,1590,0,,,,,,,,,,,,,,,
4233264,1501040335823,,,,,,,,,0,1650,0,,,,,,,,,,,,,,,
4233274,1501040335833,,,,,,,,,0,1620,0,,,,,,,,,,,,,,,
4233284,1501040335843,3.38,,0.01,-0.01,0.87,-1,-6,2,0,1605,0,,,,,,,,,,,,,,,
4233294,1501040335853,,,,,,,,,0,1590,0,,,,,,,,,,,,,,,
4233304,1501040335863,,,,,,,,,0,1530,0,,,,,,,,,,,,,,,
4233314,1501040335873,,,,,,,,,0,1440,0,,,,,,,,,,,,,,,
4233324,1501040335883,3.38,,-0.03,-0.04,0.82,-1,-6,0,0,1605,0,,,,,,,,,,,,,,,
4233334,1501040335894,,,,,,,,,0,1665,0,,,,,,,,,,,,,,,
4233344,1501040335904,,,,,,,,,0,1635,0,36.113461,-115.146027,0.0,9.721,2027.5,8,2,2.5,0,0.0,-1,0.0,0.0,0.0,0
4233354,1501040335914,,,,,,,,,0,1620,0,,,,,,,,,,,,,,,
4233364,1501040335924,3.39,,-0.05,-0.05,0.91,-1,-6,2,0,1605,0,,,,,,,,,,,,,,,
4233374,1501040335934,,,,,,,,,0,1545,0,,,,,,,,,,,,,,,
4233384,1501040335944,,,,,,,,,0,1500,0,,,,,,,,,,,,,,,
4233394,1501040335954,,,,,,,,,0,1455,0,,,,,,,,,,,,,,,
4233404,1501040335964,3.4,,-0.05,-0.04,0.93,-2,-4,5,0,1620,0,,,,,,,,,,,,,,,
4233414,1501040335974,,,,,,,,,0,1665,0,,,,,,,,,,,,,,,
4233424,1501040335984,,,,,,,,,0,1635,0,,,,,,,,,,,,,,,
4233434,1501040335994,,,,,,,,,0,1620,0,,,,,,,,,,,,,,,
4233444,1501040335996,3.41,,-0.03,-0.08,0.97,-2,-4,4,0,1605,0,36.113461,-115.146027,0.0,9.721,2027.5,8,2,2.5,0,0.0,-1,0.0,0.0,0.0,0
4233454,1501040336006,,,,,,,,,0,1545,0,,,,,,,,,,,,,,,
4233464,1501040336016,,,,,,,,,0,1500,0,,,,,,,,,,,,,,,
4233474,1501040336026,,,,,,,,,0,1455,0,,,,,,,,,,,,,,,
4233484,1501040336036,3.34,,-0.04,-0.12,1.1,-1,-2,4,0,1650,0,,,,,,,,,,,,,,,
4233494,1501040336046,,,,,,,,,0,1635,0,,,,,,,,,,,,,,,
4233504,1501040336056,,,,,,,,,0,1620,0,,,,,,,,,,,,,,,
4233514,1501040336066,,,,,,,,,0,1590,0,,,,,,,,,,,,,,,
4233524,1501040336076,3.41,,-0.03,-0.07,1.06,-1,-2,3,0,1530,0,,,,,,,,,,,,,,,
4233534,1501040336092,,,,,,,,,0,1500,0,,,,,,,,,,,,,,,
