"Interval"|"ms"|0|0|1,"Utc"|"ms"|0|0|1,"Analog1"|""|0.0|5.0|25,"Battery"|"Volts"|0.0|20.0|1,"AccelX"|"G"|-3.0|3.0|25,"AccelY"|"G"|-3.0|3.0|25,"AccelZ"|"G"|-3.0|3.0|25,"Yaw"|"Deg/Sec"|-120|120|25,"Pitch"|"Deg/Sec"|-120|120|25,"Roll"|"Deg/Sec"|-120|120|25,"RPM"|""|0|10000|100,"EngineRPM"|""|0|10000|100,"AxleRpm"|""|0|10000|100,"Latitude"|"Degrees"|-180.0|180.0|10,"Longitude"|"Degrees"|-180.0|180.0|10,"Speed"|"mph"|0.0|150.0|10,"Distance"|"mi"|0.0|0.0|10,"Altitude"|"ft"|0.0|4000.0|10,"GPSSats"|""|0|20|10,"GPSQual"|""|0|5|10,"GPSDOP"|""|0.0|20.0|10,"LapCount"|""|0|0|10,"LapTime"|"Min"|0.0|0.0|10,"Sector"|""|0|0|10,"SectorTime"|"Min"|0.0|0.0|10,"PredTime"|"Min"|0.0|0.0|10,"ElapsedTime"|"Min"|0.0|0.0|10,"CurrentLap"|""|0|0|10
4373564,1501040476122,3.46,,-0.02,-0.08,1.01,-2,-3,5,0,0,0,,,,,,,,,,,,,,,
4373574,1501040476132,,,,,,,,,0,0,0,,,,,,,,,,,,,,,
4373584,1501040476142,,,,,,,,,0,0,0,,,,,,,,,,,,,,,
4373594,1501040476152,,,,,,,,,0,0,0,,,,,,,,,,,,,,,
4373604,1501040476162,3.44,,-0.02,-0.07,1.0,-2,-2,5,0,0,0,,,,,,,,,,,,,,,
4373614,1501040476172,,,,,,,,,0,0,0,,,,,,,,,,,,,,,
4373624,1501040476182,,,,,,,,,0,0,0,,,,,,,,,,,,,,,
4373634,1501040476192,,,,,,,,,0,0,0,,,,,,,,,,,,,,,
4373644,1501040476202,3.43,,-0.02,-0.07,1.01,-2,-2,5,0,0,0,36.113461,-115.145973,0.0,10.244,2032.0,8,3,2.4,0,0.0,-1,0.0,0.0,0.0,0
4373654,1501040476212,,,,,,,,,0,0,0,,,,,,,,,,,,,,,
4373664,1501040476222,,,,,,,,,0,0,0,,,,,,,,,,,,,,,
4373674,1501040476232,,,,,,,,,0,0,0,,,,,,,,,,,,,,,
4373684,1501040476242,3.42,,-0.03,-0.07,1.01,-2,-3,5,0,0,0,,,,,,,,,,,,,,,
4373694,1501040476252,,,,,,,,,0,0,0,,,,,,,,,,,,,,,
4373704,1501040476262,,,,,,,,,0,0,0,,,,,,,,,,,,,,,
4373714,1501040476272,,,,,,,,,0,0,0,,,,,,,,,,,,,,,
4373724,1501040476282,3.42,,-0.03,-0.08,1.01,-2,-3,5,0,0,0,,,,,,,,,,,,,,,
4373734,1501040476294,,,,,,,,,0,0,0,,,,,,,,,,,,,,,
4373744,1501040476304,,,,,,,,,0,0,0,36.113461,-115.145973,0.0,10.244,2032.0,8,3,2.4,0,0.0,-1,0.0,0.0,0.0,0
4373754,1501040476314,,,,,,,,,0,0,0,,,,,,,,,,,,,,,
4373764,1501040476324,3.41,,-0.03,-0.08,1.01,-2,-3,5,0,0,0,,,,,,,,,,,,,,,
4373774,1501040476334,,,,,,,,,0,0,0,,,,,,,,,,,,,,,
4373784,1501040476344,,,,,,,,,0,0,0,,,,,,,,,,,,,,,
4373794,1501040476354,,,,,,,,,0,0,0,,,,,,,,,,,,,,,
4373804,1501040476364,3.4,,-0.03,-0.07,1.01,-1,-3,5,0,0,0,,,,,,,,,,,,,,,
4373814,1501040476374,,,,,,,,,0,0,0,,,,,,,,,,,,,,,
4373824,1501040476384,,,,,,,,,0,0,0,,,,,,,,,,,,,,,
4373834,1501040476392,,,,,,,,,0,0,0,,,,,,,,,,,,,,,
4373844,1501040476402,3.41,,-0.04,-0.07,1.01,-1,-5,4,0,0,0,36.113461,-115.145973,0.0,10.244,2032.0,8,3,2.4,0,0.0,-1,0.0,0.0,0.0,0
4373854,1501040476412,,,,,,,,,0,0,0,,,,,,,,,,,,,,,
4373864,1501040476422,,,,,,,,,0,0,0,,,,,,,,,,,,,,,
4373874,1501040476432,,,,,,,,,0,0,0,,,,,,,,,,,,,,,
4373884,1501040476442,3.38,,-0.04,-0.07,1.01,-1,-6,4,0,0,0,,,,,,,,,,,,,,,
4373894,1501040476452,,,,,,,,,0,0,0,,,,,,,,,,,,,,,
4373904,1501040476462,,,,,,,,,0,0,0,,,,,,,,,,,,,,,
4373914,1501040476472,,,,,,,,,0,0,0,,,,,,,,,,,,,,,
4373924,1501040476482,3.32,,-0.04,-0.07,1.01,-1,-6,4,0,0,0,,,,,,,,,,,,,,,
4373934,1501040476492,,,,,,,,,0,0,0,,,,,,,,,,,,,,,
4373944,1501040476502,,,,,,,,,0,0,0,36.113461,-115.145973,0.0,10.244,2032.0,8,3,2.4,0,0.0,-1,0.0,0.0,0.0,0
4373954,1501040476512,,,,,,,,,0,0,0,,,,,,,,,,,,,,,
4373964,1501040476522,3.29,,-0.03,-0.08,1.01,-1,-5,4,0,0,0,,,,,,,,,,,,,,,
4373974,1501040476532,,,,,,,,,0,0,0,,,,,,,,,,,,,,,
4373984,1501040476542,,,,,,,,,0,0,0,,,,,,,,,,,,,,,
4373994,1501040476552,,,,,,,,,0,0,0,,,,,,,,,,,,,,,
4374004,1501040476562,3.33,,-0.03,-0.08,1.01,-1,-5,4,0,0,0,,,,,,,,,,,,,,,
4374014,1501040476572,,,,,,,,,0,0,0,,,,,,,,,,,,,,,
4374024,1501040476582,,,,,,,,,0,0,0,,,,,,,,,,,,,,,
4374034,1501040476592,,,,,,,,,0,0,0,,,,,,,,,,,,,,,
4374044,1501040476602,3.38,4.5,-0.03,-0.07,1.01,-1,-5,4,0,0,0,36.113461,-115.145973,0.0,10.244,2032.0,8,3,2.4,0,0.0,-1,0.0,0.0,0.0,0
4374054,1501040476612,,,,,,,,,0,0,0,,,,,,,,,,,,,,,
4374064,1501040476622,,,,,,,,,0,0,0,,,,,,,,,,,,,,,
4374074,1501040476632,,,,,,,,,0,0,0,,,,,,,,,,,,,,,
4374084,1501040476642,3.44,,-0.03,-0.07,1.01,-1,-6,4,0,0,0,,,,,,,,,,,,,,,
4374094,1501040476652,,,,,,,,,0,0,0,,,,,,,,,,,,,,,
4374104,1501040476662,,,,,,,,,0,0,0,,,,,,,,,,,,,,,
4374114,1501040476672,,,,,,,,,0,0,0,,,,,,,,,,,,,,,
4374124,1501040476682,3.43,,-0.03,-0.07,1.01,-1,-5,3,0,0,0,,,,,,,,,,,,,,,
4374134,1501040476692,,,,,,,,,0,0,0,,,,,,,,,,,,,,,
4374144,1501040476702,,,,,,,,,0,0,0,36.113461,-115.145973,0.0,10.244,2032.0,8,3,2.4,0,0.0,-1,0.0,0.0,0.0,0
4374154,1501040476712,,,,,,,,,0,0,0,,,,,,,,,,,,,,,
4374164,1501040476722,3.44,,-0.03,-0.08,1.01,-1,-5,3,0,0,0,,,,,,,,,,,,,,,
4374174,1501040476732,,,,,,,,,0,0,0,,,,,,,,,,,,,,,
4374184,1501040476742,,,,,,,,,0,0,0,,,,,,,,,,,,,,,
4374194,1501040476752,,,,,,,,,0,0,0,,,,,,,,,,,,,,,
4374204,1501040476762,3.44,,-0.03,-0.08,1.0,-1,-4,3,0,0,0,,,,,,,,,,,,,,,
4374214,1501040476772,,,,,,,,,0,0,0,,,,,,,,,,,,,,,
4374224,1501040476782,,,,,,,,,0,0,0,,,,,,,,,,,,,,,
4374234,1501040476794,,,,,,,,,0,0,0,,,,,,,,,,,,,,,
4374244,1501040476804,3.44,,-0.03,-0.08,1.0,-1,-5,3,0,0,0,36.113461,-115.145973,0.0,10.244,2032.0,8,3,2.4,0,0.0,-1,0.0,0.0,0.0,0
4374254,1501040476814,,,,,,,,,0,0,0,,,,,,,,,,,,,,,
4374264,1501040476824,,,,,,,,,0,0,0,,,,,,,,,,,,,,,
4374274,1501040476834,,,,,,,,,0,0,0,,,,,,,,,,,,,,,
4374284,1501040476844,3.43,,-0.03,-0.07,1.01,-1,-4,3,0,0,0,,,,,,,,,,,,,,,
4374294,1501040476854,,,,,,,,,0,0,0,,,,,,,,,,,,,,,
4374304,1501040476864,,,,,,,,,0,0,0,,,,,,,,,,,,,,,
4374314,1501040476874,,,,,,,,,0,0,0,,,,,,,,,,,,,,,
4374324,1501040476884,3.43,,-0.03,-0.07,1.01,-1,-5,4,0,0,0,,,,,,,,,,,,,,,
4374334,1501040476894,,,,,,,,,0,0,0,,,,,,,,,,,,,,,
4374344,1501040476904,,,,,,,,,0,0,0,36.113461,-115.145973,0.0,10.244,2032.0,8,3,2.4,0,0.0,-1,0.0,0.0,0.0,0
4374354,1501040476914,,,,,,,,,0,0,0,,,,,,,,,,,,,,,
4374364,1501040476924,3.43,,-0.03,-0.08,1.01,-1,-4,3,0,0,0,,,,,,,,,,,,,,,
4374374,1501040476934,,,,,,,,,0,0,0,,,,,,,,,,,,,,,
4374384,1501040476944,,,,,,,,,0,0,0,,,,,,,,,,,,,,,
4374394,1501040476954,,,,,,,,,0,0,0,,,,,,,,,,,,,,,
4374404,1501040476964,3.44,,-0.03,-0.08,1.01,-1,-5,4,0,0,0,,,,,,,,,,,,,,,
4374414,1501040476974,,,,,,,,,0,0,0,,,,,,,,,,,,,,,
4374424,1501040476984,,,,,,,,,0,0,0,,,,,,,,,,,,,,,
4374434,1501040476994,,,,,,,,,0,0,0,,,,,,,,,,,,,,,
4374444,1501040476994,3.43,,-0.03,-0.08,1.01,-1,-6,4,0,0,0,36.113461,-115.145973,0.0,10.244,2032.0,8,3,2.4,0,0.0,-1,0.0,0.0,0.0,0
4374454,1501040477004,,,,,,,,,0,0,0,,,,,,,,,,,,,,,
4374464,1501040477014,,,,,,,,,0,0,0,,,,,,,,,,,,,,,
4374474,1501040477024,,,,,,,,,0,0,0,,,,,,,,,,,,,,,
4374484,1501040477034,3.44,,-0.03,-0.08,1.01,-1,-5,4,0,0,0,,,,,,,,,,,,,,,
4374494,1501040477044,,,,,,,,,0,0,0,,,,,,,,,,,,,,,
4374504,1501040477054,,,,,,,,,0,0,0,,,,,,,,,,,,,,,
4374514,1501040477064,,,,,,,,,0,0,0,,,,,,,,,,,,,,,
4374524,1501040477074,3.43,,-0.03,-0.08,1.01,-1,-6,4,0,0,0,,,,,,,,,,,,,,,
4374534,1501040477091,,,,,,,,,0,0,0,,,,,,,,,,,,,,,
4374544,1501040477101,,,,,,,,,0,0,0,36.113461,-115.145973,0.0,10.244,2032.0,8,3,2.4,0,0.0,-1,0.0,0.0,0.0,0
4374554,1501040477111,,,,,,,,,0,0,0,,,,,,,,,,,,,,,
4374564,1501040477121,3.43,,-0.03,-0.07,1.01,-1,-5,4,0,0,0,,,,,,,,,,,,,,,
4374574,1501040477131,,,,,,,,,0,0,0,,,,,,,,,,,,,,,
4374584,1501040477141,,,,,,,,,0,0,0,,,,,,,,,,,,,,,
4374594,1501040477151,,,,,,,,,0,0,0,,,,,,,,,,,,,,,
4374604,1501040477161,3.43,,-0.03,-0.08,1.01,-1,-5,4,0,0,0,,,,,,,,,,,,,,,
4374614,1501040477171,,,,,,,,,0,0,0,,,,,,,,,,,,,,,
4374624,1501040477181,,,,,,,,,0,0,0,,,,,,,,,,,,,,,
4374634,1501040477193,,,,,,,,,0,0,0,,,,,,,,,,,,,,,
4374644,1501040477203,3.44,,-0.03,-0.08,1.01,-1,-5,4,0,0,0,36.113461,-115.145973,0.0,10.244,2032.0,8,3,2.4,0,0.0,-1,0.0,0.0,0.0,0
4374654,1501040477213,,,,,,,,,0,0,0,,,,,,,,,,,,,,,
4374664,1501040477223,,,,,,,,,0,0,0,,,,,,,,,,,,,,,
4374674,1501040477233,,,,,,,,,0,0,0,,,,,,,,,,,,,,,
4374684,1501040477243,3.44,,-0.03,-0.08,1.01,-1,-5,4,0,0,0,,,,,,,,,,,,,,,
4374694,1501040477253,,,,,,,,,0,0,0,,,,,,,,,,,,,,,
4374704,1501040477263,,,,,,,,,0,0,0,,,,,,,,,,,,,,,
4374714,1501040477273,,,,,,,,,0,0,0,,,,,,,,,,,,,,,
4374724,1501040477283,3.44,,-0.03,-0.08,1.01,-1,-5,4,0,0,0,,,,,,,,,,,,,,,
4374734,1501040477293,,,,,,,,,0,0,0,,,,,,,,,,,,,,,
4374744,1501040477303,,,,,,,,,0,0,0,36.113461,-115.145973,0.0,10.244,2032.0,8,3,2.4,0,0.0,-1,0.0,0.0,0.0,0
4374754,1501040477313,,,,,,,,,0,0,0,,,,,,,,,,,,,,,
4374764,1501040477323,3.44,,-0.03,-0.08,1.01,-1,-5,4,0,0,0,,,,,,,,,,,,,,,
4374774,1501040477333,,,,,,,,,0,0,0,,,,,,,,,,,,,,,
4374784,1501040477343,,,,,,,,,0,0,0,,,,,,,,,,,,,,,
4374794,1501040477353,,,,,,,,,0,0,0,,,,,,,,,,,,,,,
4374804,1501040477363,3.44,,-0.03,-0.08,1.01,-1,-5,4,0,0,0,,,,,,,,,,,,,,,
4374814,1501040477373,,,,,,,,,0,0,0,,,,,,,,,,,,,,,
4374824,1501040477383,,,,,,,,,0,0,0,,,,,,,,,,,,,,,
4374834,1501040477393,,,,,,,,,0,0,0,,,,,,,,,,,,,,,
4374844,1501040477403,3.44,,-0.03,-0.08,1.01,-1,-6,4,0,0,0,36.113461,-115.145973,0.0,10.244,2032.0,8,3,2.4,0,0.0,-1,0.0,0.0,0.0,0
4374854,1501040477413,,,,,,,,,0,0,0,,,,,,,,,,,,,,,
4374864,1501040477423,,,,,,,,,0,0,0,,,,,,,,,,,,,,,
4374874,1501040477433,,,,,,,,,0,0,0,,,,,,,,,,,,,,,
4374884,1501040477443,3.43,,-0.03,-0.08,1.01,-1,-5,4,0,0,0,,,,,,,,,,,,,,,
4374894,1501040477453,,,,,,,,,0,0,0,,,,,,,,,,,,,,,
4374904,1501040477463,,,,,,,,,0,0,0,,,,,,,,,,,,,,,
4374914,1501040477473,,,,,,,,,0,0,0,,,,,,,,,,,,,,,
4374924,1501040477483,3.42,,-0.03,-0.08,1.01,-1,-5,4,0,0,0,,,,,,,,,,,,,,,
4374934,1501040477493,,,,,,,,,0,0,0,,,,,,,,,,,,,,,
4374944,1501040477503,,,,,,,,,0,0,0,36.113461,-115.145973,0.0,10.244,2032.0,8,3,2.4,0,0.0,-1,0.0,0.0,0.0,0
4374954,1501040477513,,,,,,,,,0,0,0,,,,,,,,,,,,,,,
4374964,1501040477523,3.43,,-0.03,-0.08,1.01,-1,-5,4,0,0,0,,,,,,,,,,,,,,,
4374974,1501040477533,,,,,,,,,0,0,0,,,,,,,,,,,,,,,
4374984,1501040477543,,,,,,,,,0,0,0,,,,,,,,,,,,,,,
4374994,1501040477553,,,,,,,,,0,0,0,,,,,,,,,,,,,,,
4375004,1501040477563,3.44,,-0.03,-0.08,1.01,-1,-5,4,0,0,0,,,,,,,,,,,,,,,
4375014,1501040477573,,,,,,,,,0,0,0,,,,,,,,,,,,,,,
4375024,1501040477583,,,,,,,,,0,0,0,,,,,,,,,,,,,,,
4375034,1501040477593,,,,,,,,,0,0,0,,,,,,,,,,,,,,,
4375044,1501040477603,3.44,4.5,-0.03,-0.08,1.01,-1,-5,4,0,0,0,36.113461,-115.145973,0.0,10.244,2032.0,8,3,2.4,0,0.0,-1,0.0,0.0,0.0,0
4375054,1501040477613,,,,,,,,,0,0,0,,,,,,,,,,,,,,,
4375064,1501040477623,,,,,,,,,0,0,0,,,,,,,,,,,,,,,
4375074,1501040477633,,,,,,,,,0,0,0,,,,,,,,,,,,,,,
4375084,1501040477643,3.44,,-0.03,-0.08,1.01,-1,-5,4,0,0,0,,,,,,,,,,,,,,,
4375094,1501040477653,,,,,,,,,0,0,0,,,,,,,,,,,,,,,
4375104,1501040477663,,,,,,,,,0,0,0,,,,,,,,,,,,,,,
4375114,1501040477673,,,,,,,,,0,0,0,,,,,,,,,,,,,,,
4375124,1501040477683,3.43,,-0.03,-0.08,1.01,-1,-5,4,0,0,0,,,,,,,,,,,,,,,
4375134,1501040477693,,,,,,,,,0,0,0,,,,,,,,,,,,,,,
4375144,1501040477703,,,,,,,,,0,0,0,36.113461,-115.145973,0.0,10.244,2032.0,8,3,2.4,0,0.0,-1,0.0,0.0,0.0,0
4375154,1501040477713,,,,,,,,,0,0,0,,,,,,,,,,,,,,,
4375164,1501040477723,3.44,,-0.03,-0.08,1.01,-1,-5,4,0,0,0,,,,,,,,,,,,,,,
4375174,1501040477733,,,,,,,,,0,0,0,,,,,,,,,,,,,,,
4375184,1501040477743,,,,,,,,,0,0,0,,,,,,,,,,,,,,,
4375194,1501040477753,,,,,,,,,0,0,0,,,,,,,,,,,,,,,
4375204,1501040477763,3.44,,-0.03,-0.08,1.01,-1,-5,4,0,0,0,,,,,,,,,,,,,,,
4375214,1501040477773,,,,,,,,,0,0,0,,,,,,,,,,,,,,,
4375224,1501040477783,,,,,,,,,0,0,0,,,,,,,,,,,,,,,
4375234,1501040477793,,,,,,,,,0,0,0,,,,,,,,,,,,,,,
4375244,1501040477803,3.44,,-0.03,-0.08,1.01,-1,-5,4,0,0,0,36.113461,-115.145973,0.0,10.244,2032.0,8,3,2.4,0,0.0,-1,0.0,0.0,0.0,0
4375254,1501040477813,,,,,,,,,0,0,0,,,,,,,,,,,,,,,
4375264,1501040477823,,,,,,,,,0,0,0,,,,,,,,,,,,,,,
4375274,1501040477833,,,,,,,,,0,0,0,,,,,,,,,,,,,,,
4375284,1501040477843,3.44,,-0.03,-0.08,1.01,-1,-5,4,0,0,0,,,,,,,,,,,,,,,
4375294,1501040477853,,,,,,,,,0,0,0,,,,,,,,,,,,,,,
4375304,1501040477863,,,,,,,,,0,0,0,,,,,,,,,,,,,,,
4375314,1501040477873,,,,,,,,,0,0,0,,,,,,,,,,,,,,,
4375324,1501040477883,3.44,,-0.03,-0.07,1.01,-1,-5,4,0,0,0,,,,,,,,,,,,,,,
4375334,1501040477893,,,,,,,,,0,0,0,,,,,,,,,,,,,,,
4375344,1501040477903,,,,,,,,,0,0,0,36.113461,-115.145973,0.0,10.244,2032.0,8,3,2.4,0,0.0,-1,0.0,0.0,0.0,0
4375354,1501040477913,,,,,,,,,0,0,0,,,,,,,,,,,,,,,
4375364,1501040477923,3.44,,-0.03,-0.08,1.01,-1,-5,4,0,0,0,,,,,,,,,,,,,,,
4375374,1501040477933,,,,,,,,,0,0,0,,,,,,,,,,,,,,,
4375384,1501040477943,,,,,,,,,0,0,0,,,,,,,,,,,,,,,
4375394,1501040477953,,,,,,,,,0,0,0,,,,,,,,,,,,,,,
4375404,1501040477963,3.44,,-0.03,-0.08,1.01,-1,-5,4,0,0,0,,,,,,,,,,,,,,,
4375414,1501040477973,,,,,,,,,0,0,0,,,,,,,,,,,,,,,
4375424,1501040477983,,,,,,,,,0,0,0,,,,,,,,,,,,,,,
4375434,1501040477993,,,,,,,,,0,0,0,,,,,,,,,,,,,,,
4375444,1501040477995,3.44,,-0.03,-0.08,1.01,-1,-5,4,0,0,0,36.113461,-115.145973,0.0,10.244,2032.0,8,3,2.4,0,0.0,-1,0.0,0.0,0.0,0
4375454,1501040478005,,,,,,,,,0,0,0,,,,,,,,,,,,,,,
4375464,1501040478015,,,,,,,,,0,0,0,,,,,,,,,,,,,,,
4375474,1501040478025,,,,,,,,,0,0,0,,,,,,,,,,,,,,,
4375484,1501040478035,3.45,,-0.03,-0.08,1.01,-1,-5,4,0,0,0,,,,,,,,,,,,,,,
4375494,1501040478045,,,,,,,,,0,0,0,,,,,,,,,,,,,,,
4375504,1501040478055,,,,,,,,,0,0,0,,,,,,,,,,,,,,,
4375514,1501040478065,,,,,,,,,0,0,0,,,,,,,,,,,,,,,
4375524,1501040478075,3.43,,-0.03,-0.07,1.01,-1,-6,4,0,0,0,,,,,,,,,,,,,,,
4375534,1501040478092,,,,,,,,,0,0,0,,,,,,,,,,,,,,,
4375544,1501040478102,,,,,,,,,0,0,0,36.113461,-115.145973,0.0,10.244,2032.0,8,3,2.4,0,0.0,-1,0.0,0.0,0.0,0
4375554,1501040478112,,,,,,,,,0,0,0,,,,,,,,,,,,,,,
4375564,1501040478122,3.44,,-0.03,-0.07,1.01,-1,-5,4,0,0,0,,,,,,,,,,,,,,,
4375574,1501040478132,,,,,,,,,0,0,0,,,,,,,,,,,,,,,
4375584,1501040478142,,,,,,,,,0,0,0,,,,,,,,,,,,,,,
4375594,1501040478152,,,,,,,,,0,0,0,,,,,,,,,,,,,,,
4375604,1501040478162,3.44,,-0.03,-0.08,1.01,-1,-5,4,0,0,0,,,,,,,,,,,,,,,
4375614,1501040478172,,,,,,,,,0,0,0,,,,,,,,,,,,,,,
4375624,1501040478182,,,,,,,,,0,0,0,,,,,,,,,,,,,,,
4375634,1501040478192,,,,,,,,,0,0,0,,,,,,,,,,,,,,,
4375644,1501040478202,3.44,,-0.03,-0.08,1.01,-1,-5,4,0,0,0,36.113461,-115.145973,0.0,10.244,2032.0,8,3,2.4,0,0.0,-1,0.0,0.0,0.0,0
4375654,1501040478212,,,,,,,,,0,0,0,,,,,,,,,,,,,,,
4375664,1501040478222,,,,,,,,,0,0,0,,,,,,,,,,,,,,,
4375674,1501040478232,,,,,,,,,0,0,0,,,,,,,,,,,,,,,
4375684,1501040478242,3.44,,-0.03,-0.08,1.01,-1,-5,4,0,0,0,,,,,,,,,,,,,,,
4375694,1501040478252,,,,,,,,,0,0,0,,,,,,,,,,,,,,,
4375704,1501040478262,,,,,,,,,0,0,0,,,,,,,,,,,,,,,
4375714,1501040478272,,,,,,,,,0,0,0,,,,,,,,,,,,,,,
4375724,1501040478282,3.44,,-0.03,-0.08,1.01,-1,-5,4,0,0,0,,,,,,,,,,,,,,,
4375734,1501040478292,,,,,,,,,0,0,0,,,,,,,,,,,,,,,
4375744,1501040478302,,,,,,,,,0,0,0,36.113461,-115.145973,0.0,10.244,2032.0,8,3,2.4,0,0.0,-1,0.0,0.0,0.0,0
4375754,1501040478312,,,,,,,,,0,0,0,,,,,,,,,,,,,,,
4375764,1501040478322,3.44,,-0.03,-0.08,1.01,-1,-5,4,0,0,0,,,,,,,,,,,,,,,
4375774,1501040478332,,,,,,,,,0,0,0,,,,,,,,,,,,,,,
4375784,1501040478342,,,,,,,,,0,0,0,,,,,,,,,,,,,,,
4375794,1501040478352,,,,,,,,,0,0,0,,,,,,,,,,,,,,,
4375804,1501040478362,3.45,,-0.03,-0.08,1.01,-1,-5,4,0,0,0,,,,,,,,,,,,,,,
4375814,1501040478372,,,,,,,,,0,0,0,,,,,,,,,,,,,,,
4375824,1501040478382,,,,,,,,,0,0,0,,,,,,,,,,,,,,,
4375834,1501040478392,,,,,,,,,0,0,0,,,,,,,,,,,,,,,
4375844,1501040478402,3.44,,-0.03,-0.08,1.01,-1,-5,4,0,0,0,36.113461,-115.145973,0.0,10.244,2032.0,8,3,2.4,0,0.0,-1,0.0,0.0,0.0,0
4375854,1501040478412,,,,,,,,,0,0,0,,,,,,,,,,,,,,,
4375864,1501040478422,,,,,,,,,0,0,0,,,,,,,,,,,,,,,
4375874,1501040478432,,,,,,,,,0,0,0,,,,,,,,,,,,,,,
4375884,1501040478442,3.45,,-0.03,-0.08,1.01,-1,-5,4,0,0,0,,,,,,,,,,,,,,,
4375894,1501040478452,,,,,,,,,0,0,0,,,,,,,,,,,,,,,
4375904,1501040478462,,,,,,,,,0,0,0,,,,,,,,,,,,,,,
4375914,1501040478472,,,,,,,,,0,0,0,,,,,,,,,,,,,,,
4375924,1501040478482,3.44,,-0.03,-0.08,1.01,-1,-5,4,0,0,0,,,,,,,,,,,,,,,
4375934,1501040478494,,,,,,,,,0,0,0,,,,,,,,,,,,,,,
4375944,1501040478504,,,,,,,,,0,0,0,36.113461,-115.145973,0.0,10.244,2032.0,8,3,2.4,0,0.0,-1,0.0,0.0,0.0,0
4375954,1501040478514,,,,,,,,,0,0,0,,,,,,,,,,,,,,,
4375964,1501040478524,3.44,,-0.03,-0.08,1.01,-1,-5,3,0,0,0,,,,,,,,,,,,,,,
4375974,1501040478534,,,,,,,,,0,0,0,,,,,,,,,,,,,,,
4375984,1501040478544,,,,,,,,,0,0,0,,,,,,,,,,,,,,,
4375994,1501040478554,,,,,,,,,0,0,0,,,,,,,,,,,,,,,
4376004,1501040478564,3.44,,-0.03,-0.08,1.01,-1,-5,4,0,0,0,,,,,,,,,,,,,,,
4376014,1501040478574,,,,,,,,,0,0,0,,,,,,,,,,,,,,,
4376024,1501040478584,,,,,,,,,0,0,0,,,,,,,,,,,,,,,
4376034,1501040478594,,,,,,,,,0,0,0,,,,,,,,,,,,,,,
4376044,1501040478604,3.44,4.51,-0.03,-0.08,1.01,-1,-5,4,0,0,0,36.113461,-115.145973,0.0,10.244,2032.0,8,3,2.4,0,0.0,-1,0.0,0.0,0.0,0
4376054,1501040478614,,,,,,,,,0,0,0,,,,,,,,,,,,,,,
4376064,1501040478624,,,,,,,,,0,0,0,,,,,,,,,,,,,,,
4376074,1501040478634,,,,,,,,,0,0,0,,,,,,,,,,,,,,,
4376084,1501040478644,3.44,,-0.03,-0.07,1.01,-1,-5,4,0,0,0,,,,,,,,,,,,,,,
4376094,1501040478654,,,,,,,,,0,0,0,,,,,,,,,,,,,,,
4376104,1501040478664,,,,,,,,,0,0,0,,,,,,,,,,,,,,,
4376114,1501040478674,,,,,,,,,0,0,0,,,,,,,,,,,,,,,
4376124,1501040478684,3.44,,-0.03,-0.08,1.01,-1,-5,4,0,0,0,,,,,,,,,,,,,,,
4376134,1501040478694,,,,,,,,,0,0,0,,,,,,,,,,,,,,,
4376144,1501040478704,,,,,,,,,0,0,0,36.113461,-115.145973,0.0,10.244,2032.0,8,3,2.4,0,0.0,-1,0.0,0.0,0.0,0
4376154,1501040478714,,,,,,,,,0,0,0,,,,,,,,,,,,,,,
4376164,1501040478724,3.44,,-0.03,-0.08,1.01,-1,-5,4,0,0,0,,,,,,,,,,,,,,,
4376174,1501040478734,,,,,,,,,0,0,0,,,,,,,,,,,,,,,
4376184,1501040478744,,,,,,,,,0,0,0,,,,,,,,,,,,,,,
4376194,1501040478754,,,,,,,,,0,0,0,,,,,,,,,,,,,,,
4376204,1501040478764,3.44,,-0.03,-0.08,1.01,-1,-6,4,0,0,0,,,,,,,,,,,,,,,
4376214,1501040478774,,,,,,,,,0,0,0,,,,,,,,,,,,,,,
4376224,1501040478784,,,,,,,,,0,0,0,,,,,,,,,,,,,,,
4376234,1501040478794,,,,,,,,,0,0,0,,,,,,,,,,,,,,,
4376244,1501040478804,3.45,,-0.03,-0.08,1.01,-1,-6,4,0,0,0,36.113461,-115.145973,0.0,10.244,2032.0,8,3,2.4,0,0.0,-1,0.0,0.0,0.0,0
4376254,1501040478814,,,,,,,,,0,0,0,,,,,,,,,,,,,,,
4376264,1501040478824,,,,,,,,,0,0,0,,,,,,,,,,,,,,,
4376274,1501040478834,,,,,,,,,0,0,0,,,,,,,,,,,,,,,
4376284,1501040478844,3.45,,-0.03,-0.08,1.01,-1,-6,5,0,0,0,,,,,,,,,,,,,,,
4376294,1501040478854,,,,,,,,,0,0,0,,,,,,,,,,,,,,,
4376304,1501040478864,,,,,,,,,0,0,0,,,,,,,,,,,,,,,
4376314,1501040478874,,,,,,,,,0,0,0,,,,,,,,,,,,,,,
4376324,1501040478884,3.44,,-0.03,-0.07,1.01,-1,-5,4,0,0,0,,,,,,,,,,,,,,,
4376334,1501040478892,,,,,,,,,0,0,0,,,,,,,,,,,,,,,
4376344,1501040478902,,,,,,,,,0,0,0,36.113461,-115.145973,0.0,10.244,2032.0,8,3,2.4,0,0.0,-1,0.0,0.0,0.0,0
4376354,1501040478912,,,,,,,,,0,0,0,,,,,,,,,,,,,,,
4376364,1501040478922,3.44,,-0.03,-0.08,1.01,-1,-5,4,0,0,0,,,,,,,,,,,,,,,
4376374,1501040478932,,,,,,,,,0,0,0,,,,,,,,,,,,,,,
4376384,1501040478942,,,,,,,,,0,0,0,,,,,,,,,,,,,,,
4376394,1501040478952,,,,,,,,,0,0,0,,,,,,,,,,,,,,,
4376404,1501040478962,3.45,,-0.03,-0.08,1.01,-1,-5,4,0,0,0,,,,,,,,,,,,,,,
4376414,1501040478972,,,,,,,,,0,0,0,,,,,,,,,,,,,,,
4376424,1501040478982,,,,,,,,,0,0,0,,,,,,,,,,,,,,,
4376434,1501040478992,,,,,,,,,0,0,0,,,,,,,,,,,,,,,
4376444,1501040478996,3.45,,-0.03,-0.08,1.01,-1,-5,5,0,0,0,36.113461,-115.145973,0.0,10.244,2032.0,8,3,2.4,0,0.0,-1,0.0,0.0,0.0,0
4376454,1501040479006,,,,,,,,,0,0,0,,,,,,,,,,,,,,,
4376464,1501040479016,,,,,,,,,0,0,0,,,,,,,,,,,,,,,
4376474,1501040479026,,,,,,,,,0,0,0,,,,,,,,,,,,,,,
4376484,1501040479036,3.45,,-0.03,-0.08,1.01,-1,-5,4,0,0,0,,,,,,,,,,,,,,,
4376494,1501040479046,,,,,,,,,0,0,0,,,,,,,,,,,,,,,
4376504,1501040479056,,,,,,,,,0,0,0,,,,,,,,,,,,,,,
4376514,1501040479066,,,,,,,,,0,0,0,,,,,,,,,,,,,,,
4376524,1501040479076,3.44,,-0.03,-0.08,1.01,-1,-5,4,0,0,0,,,,,,,,,,,,,,,
4376534,1501040479091,,,,,,,,,0,0,0,,,,,,,,,,,,,,,
4376544,1501040479101,,,,,,,,,0,0,0,36.113461,-115.145973,0.0,10.244,2032.0,8,3,2.4,0,0.0,-1,0.0,0.0,0.0,0
4376554,1501040479111,,,,,,,,,0,0,0,,,,,,,,,,,,,,,
4376564,1501040479121,3.44,,-0.03,-0.08,1.01,-1,-5,4,0,0,0,,,,,,,,,,,,,,,
4376574,1501040479131,,,,,,,,,0,0,0,,,,,,,,,,,,,,,
4376584,1501040479141,,,,,,,,,0,0,0,,,,,,,,,,,,,,,
4376594,1501040479151,,,,,,,,,0,0,0,,,,,,,,,,,,,,,
4376604,1501040479161,3.44,,-0.03,-0.08,1.01,-1,-5,4,0,0,0,,,,,,,,,,,,,,,
4376614,1501040479171,,,,,,,,,0,0,0,,,,,,,,,,,,,,,
4376624,1501040479181,,,,,,,,,0,0,0,,,,,,,,,,,,,,,
4376634,1501040479193,,,,,,,,,0,0,0,,,,,,,,,,,,,,,
4376644,1501040479203,3.44,,-0.03,-0.08,1.01,-1,-5,4,0,0,0,36.113461,-115.145973,0.0,10.244,2032.0,8,3,2.4,0,0.0,-1,0.0,0.0,0.0,0
4376654,1501040479213,,,,,,,,,0,0,0,,,,,,,,,,,,,,,
4376664,1501040479223,,,,,,,,,0,0,0,,,,,,,,,,,,,,,
4376674,1501040479233,,,,,,,,,0,0,0,,,,,,,,,,,,,,,
4376684,1501040479243,3.45,,-0.03,-0.08,1.01,-1,-6,4,0,0,0,,,,,,,,,,,,,,,
4376694,1501040479253,,,,,,,,,0,0,0,,,,,,,,,,,,,,,
4376704,1501040479263,,,,,,,,,0,0,0,,,,,,,,,,,,,,,
4376714,1501040479273,,,,,,,,,0,0,0,,,,,,,,,,,,,,,
4376724,1501040479283,3.44,,-0.03,-0.08,1.01,-1,-6,4,0,0,0,,,,,,,,,,,,,,,
4376734,1501040479293,,,,,,,,,0,0,0,,,,,,,,,,,,,,,
4376744,1501040479297,,,,,,,,,0,0,0,36.113461,-115.145973,0.0,10.244,2032.0,8,3,2.4,0,0.0,-1,0.0,0.0,0.0,0
4376754,1501040479307,,,,,,,,,0,0,0,,,,,,,,,,,,,,,
4376764,1501040479317,3.44,,-0.03,-0.08,1.01,-1,-6,4,0,0,0,,,,,,,,,,,,,,,
4376774,1501040479327,,,,,,,,,0,0,0,,,,,,,,,,,,,,,
4376784,1501040479337,,,,,,,,,0,0,0,,,,,,,,,,,,,,,
4376794,1501040479347,,,,,,,,,0,0,0,,,,,,,,,,,,,,,
4376804,1501040479357,3.44,,-0.03,-0.08,1.01,-1,-6,4,0,0,0,,,,,,,,,,,,,,,
4376814,1501040479367,,,,,,,,,0,0,0,,,,,,,,,,,,,,,
4376824,1501040479377,,,,,,,,,0,0,0,,,,,,,,,,,,,,,
4376834,1501040479393,,,,,,,,,0,0,0,,,,,,,,,,,,,,,
4376844,1501040479403,3.44,,-0.03,-0.08,1.01,-1,-6,4,0,0,0,36.113461,-115.145973,0.0,10.244,2032.0,8,3,2.4,0,0.0,-1,0.0,0.0,0.0,0
4376854,1501040479413,,,,,,,,,0,0,0,,,,,,,,,,,,,,,
4376864,1501040479423,,,,,,,,,0,0,0,,,,,,,,,,,,,,,
4376874,1501040479433,,,,,,,,,0,0,0,,,,,,,,,,,,,,,
4376884,1501040479443,3.44,,-0.03,-0.08,1.01,-1,-5,4,0,0,0,,,,,,,,,,,,,,,
4376894,1501040479453,,,,,,,,,0,0,0,,,,,,,,,,,,,,,
4376904,1501040479463,,,,,,,,,0,0,0,,,,,,,,,,,,,,,
4376914,1501040479473,,,,,,,,,0,0,0,,,,,,,,,,,,,,,
4376924,1501040479483,3.43,,-0.03,-0.07,1.01,-1,-5,4,0,0,0,,,,,,,,,,,,,,,
4376934,1501040479493,,,,,,,,,0,0,0,,,,,,,,,,,,,,,
4376944,1501040479503,,,,,,,,,0,0,0,36.113461,-115.145973,0.0,10.244,2032.0,8,3,2.4,0,0.0,-1,0.0,0.0,0.0,0
4376954,1501040479513,,,,,,,,,0,0,0,,,,,,,,,,,,,,,
4376964,1501040479523,3.44,,-0.03,-0.08,1.01,-1,-6,4,0,0,0,,,,,,,,,,,,,,,
4376974,1501040479533,,,,,,,,,0,0,0,,,,,,,,,,,,,,,
4376984,1501040479543,,,,,,,,,0,0,0,,,,,,,,,,,,,,,
4376994,1501040479553,,,,,,,,,0,0,0,,,,,,,,,,,,,,,
4377004,1501040479563,3.44,,-0.03,-0.08,1.01,-1,-5,4,0,0,0,,,,,,,,,,,,,,,
4377014,1501040479573,,,,,,,,,0,0,0,,,,,,,,,,,,,,,
4377024,1501040479583,,,,,,,,,0,0,0,,,,,,,,,,,,,,,
4377034,1501040479593,,,,,,,,,0,0,0,,,,,,,,,,,,,,,
4377044,1501040479603,3.44,4.52,-0.03,-0.08,1.01,-1,-5,4,0,0,0,36.113461,-115.145973,0.0,10.244,2032.0,8,3,2.4,0,0.0,-1,0.0,0.0,0.0,0
4377054,1501040479613,,,,,,,,,0,0,0,,,,,,,,,,,,,,,
4377064,1501040479623,,,,,,,,,0,0,0,,,,,,,,,,,,,,,
4377074,1501040479633,,,,,,,,,0,0,0,,,,,,,,,,,,,,,
4377084,1501040479643,3.44,,-0.03,-0.08,1.01,-1,-5,4,0,0,0,,,,,,,,,,,,,,,
4377094,1501040479653,,,,,,,,,0,0,0,,,,,,,,,,,,,,,
4377104,1501040479663,,,,,,,,,0,0,0,,,,,,,,,,,,,,,
4377114,1501040479673,,,,,,,,,0,0,0,,,,,,,,,,,,,,,
4377124,1501040479683,3.44,,-0.03,-0.08,1.01,-1,-5,4,0,0,0,,,,,,,,,,,,,,,
4377134,1501040479693,,,,,,,,,0,0,0,,,,,,,,,,,,,,,
4377144,1501040479703,,,,,,,,,0,0,0,36.113461,-115.145973,0.0,10.244,2032.0,8,3,2.4,0,0.0,-1,0.0,0.0,0.0,0
4377154,1501040479713,,,,,,,,,0,0,0,,,,,,,,,,,,,,,
4377164,1501040479723,3.44,,-0.03,-0.07,1.01,-1,-5,4,0,0,0,,,,,,,,,,,,,,,
4377174,1501040479733,,,,,,,,,0,0,0,,,,,,,,,,,,,,,
4377184,1501040479743,,,,,,,,,0,0,0,,,,,,,,,,,,,,,
4377194,1501040479753,,,,,,,,,0,0,0,,,,,,,,,,,,,,,
4377204,1501040479763,3.44,,-0.03,-0.07,1.01,-1,-4,4,0,0,0,,,,,,,,,,,,,,,
4377214,1501040479773,,,,,,,,,0,0,0,,,,,,,,,,,,,,,
4377224,1501040479783,,,,,,,,,0,0,0,,,,,,,,,,,,,,,
4377234,1501040479793,,,,,,,,,0,0,0,,,,,,,,,,,,,,,
4377244,1501040479803,3.44,,-0.03,-0.08,1.01,-1,-5,4,0,0,0,36.113461,-115.145973,0.0,10.244,2032.0,8,3,2.4,0,0.0,-1,0.0,0.0,0.0,0
4377254,1501040479813,,,,,,,,,0,0,0,,,,,,,,,,,,,,,
4377264,1501040479823,,,,,,,,,0,0,0,,,,,,,,,,,,,,,
4377274,1501040479833,,,,,,,,,0,0,0,,,,,,,,,,,,,,,
4377284,1501040479843,3.44,,-0.03,-0.08,1.01,-1,-5,4,0,0,0,,,,,,,,,,,,,,,
4377294,1501040479853,,,,,,,,,0,0,0,,,,,,,,,,,,,,,
4377304,1501040479863,,,,,,,,,0,0,0,,,,,,,,,,,,,,,
4377314,1501040479873,,,,,,,,,0,0,0,,,,,,,,,,,,,,,
4377324,1501040479883,3.43,,-0.03,-0.08,1.01,-1,-5,4,0,0,0,,,,,,,,,,,,,,,
4377334,1501040479893,,,,,,,,,0,0,0,,,,,,,,,,,,,,,
4377344,1501040479903,,,,,,,,,0,0,0,36.113461,-115.145973,0.0,10.244,2032.0,8,3,2.4,0,0.0,-1,0.0,0.0,0.0,0
4377354,1501040479913,,,,,,,,,0,0,0,,,,,,,,,,,,,,,
4377364,1501040479923,3.44,,-0.03,-0.08,1.01,-1,-5,4,0,0,0,,,,,,,,,,,,,,,
4377374,1501040479933,,,,,,,,,0,0,0,,,,,,,,,,,,,,,
4377384,1501040479943,,,,,,,,,0,0,0,,,,,,,,,,,,,,,
4377394,1501040479953,,,,,,,,,0,0,0,,,,,,,,,,,,,,,
4377404,1501040479963,3.43,,-0.03,-0.08,1.01,-1,-6,4,0,0,0,,,,,,,,,,,,,,,
4377414,1501040479973,,,,,,,,,0,0,0,,,,,,,,,,,,,,,
4377424,1501040479983,,,,,,,,,0,0,0,,,,,,,,,,,,,,,
4377434,1501040479993,,,,,,,,,0,0,0,,,,,,,,,,,,,,,
4377444,1501040479995,3.44,,-0.03,-0.08,1.01,-1,-5,4,0,0,0,36.113461,-115.145973,0.0,10.244,2032.0,8,3,2.4,0,0.0,-1,0.0,0.0,0.0,0
4377454,1501040480005,,,,,,,,,0,0,0,,,,,,,,,,,,,,,
4377464,1501040480015,,,,,,,,,0,0,0,,,,,,,,,,,,,,,
4377474,1501040480025,,,,,,,,,0,0,0,,,,,,,,,,,,,,,
4377484,1501040480035,3.44,,-0.03,-0.08,1.01,-1,-5,4,0,0,0,,,,,,,,,,,,,,,
4377494,1501040480045,,,,,,,,,0,0,0,,,,,,,,,,,,,,,
4377504,1501040480055,,,,,,,,,0,0,0,,,,,,,,,,,,,,,
4377514,1501040480065,,,,,,,,,0,0,0,,,,,,,,,,,,,,,
4377524,1501040480075,3.43,,-0.03,-0.08,1.01,-1,-5,4,0,0,0,,,,,,,,,,,,,,,
4377534,1501040480092,,,,,,,,,0,0,0,,,,,,,,,,,,,,,
4377544,1501040480102,,,,,,,,,0,0,0,36.113461,-115.145973,0.0,10.244,2032.0,8,3,2.4,0,0.0,-1,0.0,0.0,0.0,0
4377554,1501040480112,,,,,,,,,0,0,0,,,,,,,,,,,,,,,
4377564,1501040480122,3.43,,-0.03,-0.08,1.01,-1,-6,4,0,0,0,,,,,,,,,,,,,,,
4377574,1501040480132,,,,,,,,,0,0,0,,,,,,,,,,,,,,,
4377584,1501040480142,,,,,,,,,0,0,0,,,,,,,,,,,,,,,
4377594,1501040480152,,,,,,,,,0,0,0,,,,,,,,,,,,,,,
4377604,1501040480162,3.43,,-0.03,-0.08,1.01,-1,-5,4,0,0,0,,,,,,,,,,,,,,,
4377614,1501040480172,,,,,,,,,0,0,0,,,,,,,,,,,,,,,
4377624,1501040480182,,,,,,,,,0,0,0,,,,,,,,,,,,,,,
4377634,1501040480192,,,,,,,,,0,0,0,,,,,,,,,,,,,,,
4377644,1501040480202,3.44,,-0.03,-0.08,1.01,-1,-5,4,0,0,0,36.113461,-115.145973,0.0,10.244,2032.0,8,3,2.4,0,0.0,-1,0.0,0.0,0.0,0
4377654,1501040480212,,,,,,,,,0,0,0,,,,,,,,,,,,,,,
4377664,1501040480222,,,,,,,,,0,0,0,,,,,,,,,,,,,,,
4377674,1501040480232,,,,,,,,,0,0,0,,,,,,,,,,,,,,,
4377684,1501040480242,3.44,,-0.03,-0.08,1.01,-1,-5,4,0,0,0,,,,,,,,,,,,,,,
4377694,1501040480252,,,,,,,,,0,0,0,,,,,,,,,,,,,,,
4377704,1501040480262,,,,,,,,,0,0,0,,,,,,,,,,,,,,,
4377714,1501040480272,,,,,,,,,0,0,0,,,,,,,,,,,,,,,
4377724,1501040480282,3.43,,-0.03,-0.08,1.01,-1,-5,4,0,0,0,,,,,,,,,,,,,,,
4377734,1501040480292,,,,,,,,,0,0,0,,,,,,,,,,,,,,,
4377744,1501040480302,,,,,,,,,0,0,0,36.113461,-115.145973,0.0,10.244,2032.0,8,3,2.4,0,0.0,-1,0.0,0.0,0.0,0
4377754,1501040480312,,,,,,,,,0,0,0,,,,,,,,,,,,,,,
4377764,1501040480322,3.44,,-0.03,-0.08,1.01,-1,-5,4,0,0,0,,,,,,,,,,,,,,,
4377774,1501040480332,,,,,,,,,0,0,0,,,,,,,,,,,,,,,
4377784,1501040480342,,,,,,,,,0,0,0,,,,,,,,,,,,,,,
4377794,1501040480352,,,,,,,,,0,0,0,,,,,,,,,,,,,,,
4377804,1501040480362,3.44,,-0.03,-0.08,1.01,-1,-5,4,0,0,0,,,,,,,,,,,,,,,
4377814,1501040480372,,,,,,,,,0,0,0,,,,,,,,,,,,,,,
4377824,1501040480382,,,,,,,,,0,0,0,,,,,,,,,,,,,,,
4377834,1501040480392,,,,,,,,,0,0,0,,,,,,,,,,,,,,,
4377844,1501040480402,3.44,,-0.03,-0.08,1.01,-1,-5,4,0,0,0,36.113461,-115.145973,0.0,10.244,2032.0,8,3,2.4,0,0.0,-1,0.0,0.0,0.0,0
4377854,1501040480412,,,,,,,,,0,0,0,,,,,,,,,,,,,,,
4377864,1501040480422,,,,,,,,,0,0,0,,,,,,,,,,,,,,,
4377874,1501040480432,,,,,,,,,0,0,0,,,,,,,,,,,,,,,
4377884,1501040480442,3.44,,-0.03,-0.08,1.01,-1,-5,4,0,0,0,,,,,,,,,,,,,,,
4377894,1501040480452,,,,,,,,,0,0,0,,,,,,,,,,,,,,,
4377904,1501040480462,,,,,,,,,0,0,0,,,,,,,,,,,,,,,
4377914,1501040480472,,,,,,,,,0,0,0,,,,,,,,,,,,,,,
4377924,1501040480482,3.44,,-0.03,-0.08,1.01,-1,-5,4,0,0,0,,,,,,,,,,,,,,,
4377934,1501040480494,,,,,,,,,0,0,0,,,,,,,,,,,,,,,
4377944,1501040480504,,,,,,,,,0,0,0,36.113461,-115.145973,0.0,10.244,2032.0,8,3,2.4,0,0.0,-1,0.0,0.0,0.0,0
4377954,1501040480514,,,,,,,,,0,0,0,,,,,,,,,,,,,,,
4377964,1501040480524,3.44,,-0.03,-0.08,1.01,-2,-5,4,0,0,0,,,,,,,,,,,,,,,
4377974,1501040480534,,,,,,,,,0,0,0,,,,,,,,,,,,,,,
4377984,1501040480544,,,,,,,,,0,0,0,,,,,,,,,,,,,,,
4377994,1501040480554,,,,,,,,,0,0,0,,,,,,,,,,,,,,,
4378004,1501040480564,3.44,,-0.03,-0.08,1.01,-1,-5,4,0,0,0,,,,,,,,,,,,,,,
4378014,1501040480574,,,,,,,,,0,0,0,,,,,,,,,,,,,,,
4378024,1501040480584,,,,,,,,,0,0,0,,,,,,,,,,,,,,,
4378034,1501040480592,,,,,,,,,0,0,0,,,,,,,,,,,,,,,
4378044,1501040480602,3.44,4.52,-0.03,-0.08,1.01,-1,-5,4,0,0,0,36.113461,-115.145973,0.0,10.244,2032.0,8,3,2.4,0,0.0,-1,0.0,0.0,0.0,0
4378054,1501040480612,,,,,,,,,0,0,0,,,,,,,,,,,,,,,
4378064,1501040480622,,,,,,,,,0,0,0,,,,,,,,,,,,,,,
4378074,1501040480632,,,,,,,,,0,0,0,,,,,,,,,,,,,,,
4378084,1501040480642,3.44,,-0.03,-0.08,1.01,-1,-4,4,0,0,0,,,,,,,,,,,,,,,
4378094,1501040480652,,,,,,,,,0,0,0,,,,,,,,,,,,,,,
4378104,1501040480662,,,,,,,,,0,0,0,,,,,,,,,,,,,,,
4378114,1501040480672,,,,,,,,,0,0,0,,,,,,,,,,,,,,,
4378124,1501040480682,3.44,,-0.03,-0.08,1.01,-1,-4,4,0,0,0,,,,,,,,,,,,,,,
4378134,1501040480694,,,,,,,,,0,0,0,,,,,,,,,,,,,,,
4378144,1501040480704,,,,,,,,,0,0,0,36.113461,-115.145973,0.0,10.244,2032.0,8,3,2.4,0,0.0,-1,0.0,0.0,0.0,0
4378154,1501040480714,,,,,,,,,0,0,0,,,,,,,,,,,,,,,
4378164,1501040480724,3.44,,-0.03,-0.08,1.01,-1,-5,4,0,0,0,,,,,,,,,,,,,,,
4378174,1501040480734,,,,,,,,,0,0,0,,,,,,,,,,,,,,,
4378184,1501040480744,,,,,,,,,0,0,0,,,,,,,,,,,,,,,
4378194,1501040480754,,,,,,,,,0,0,0,,,,,,,,,,,,,,,
4378204,1501040480764,3.44,,-0.03,-0.08,1.01,-1,-5,4,0,0,0,,,,,,,,,,,,,,,
4378214,1501040480774,,,,,,,,,0,0,0,,,,,,,,,,,,,,,
4378224,1501040480784,,,,,,,,,0,0,0,,,,,,,,,,,,,,,
4378234,1501040480794,,,,,,,,,0,0,0,,,,,,,,,,,,,,,
4378244,1501040480804,3.44,,-0.03,-0.08,1.01,-1,-5,4,0,0,0,36.113461,-115.145973,0.0,10.244,2032.0,8,3,2.4,0,0.0,-1,0.0,0.0,0.0,0
4378254,1501040480814,,,,,,,,,0,0,0,,,,,,,,,,,,,,,
4378264,1501040480824,,,,,,,,,0,0,0,,,,,,,,,,,,,,,
4378274,1501040480834,,,,,,,,,0,0,0,,,,,,,,,,,,,,,
4378284,1501040480844,3.45,,-0.03,-0.08,1.01,-1,-4,3,0,0,0,,,,,,,,,,,,,,,
4378294,1501040480854,,,,,,,,,0,0,0,,,,,,,,,,,,,,,
4378304,1501040480864,,,,,,,,,0,0,0,,,,,,,,,,,,,,,
4378314,1501040480874,,,,,,,,,0,0,0,,,,,,,,,,,,,,,
4378324,1501040480884,3.43,,-0.03,-0.07,1.01,-1,-5,4,0,0,0,,,,,,,,,,,,,,,
4378334,1501040480892,,,,,,,,,0,0,0,,,,,,,,,,,,,,,
4378344,1501040480902,,,,,,,,,0,0,0,36.113461,-115.145973,0.0,10.244,2032.0,8,3,2.4,0,0.0,-1,0.0,0.0,0.0,0
4378354,1501040480912,,,,,,,,,0,0,0,,,,,,,,,,,,,,,
4378364,1501040480922,3.44,,-0.04,-0.07,1.01,-2,-5,4,0,0,0,,,,,,,,,,,,,,,
4378374,1501040480932,,,,,,,,,0,0,0,,,,,,,,,,,,,,,
4378384,1501040480942,,,,,,,,,0,0,0,,,,,,,,,,,,,,,
4378394,1501040480952,,,,,,,,,0,0,0,,,,,,,,,,,,,,,
4378404,1501040480962,3.44,,-0.04,-0.07,1.01,-2,-5,4,0,0,0,,,,,,,,,,,,,,,
4378414,1501040480972,,,,,,,,,0,0,0,,,,,,,,,,,,,,,
4378424,1501040480982,,,,,,,,,0,0,0,,,,,,,,,,,,,,,
4378434,1501040480992,,,,,,,,,0,0,0,,,,,,,,,,,,,,,
4378444,1501040480996,3.44,,-0.03,-0.08,1.01,-2,-5,4,0,0,0,36.113461,-115.145973,0.0,10.244,2032.0,8,3,2.4,0,0.0,-1,0.0,0.0,0.0,0
4378454,1501040481006,,,,,,,,,0,0,0,,,,,,,,,,,,,,,
4378464,1501040481016,,,,,,,,,0,240,0,,,,,,,,,,,,,,,
4378474,1501040481026,,,,,,,,,0,240,0,,,,,,,,,,,,,,,
4378484,1501040481036,3.44,,-0.03,-0.08,1.01,-1,-5,4,0,240,0,,,,,,,,,,,,,,,
4378494,1501040481046,,,,,,,,,0,240,0,,,,,,,,,,,,,,,
4378504,1501040481056,,,,,,,,,0,240,0,,,,,,,,,,,,,,,
4378514,1501040481066,,,,,,,,,0,240,0,,,,,,,,,,,,,,,
4378524,1501040481076,3.44,,-0.03,-0.08,1.01,-1,-5,4,0,240,0,,,,,,,,,,,,,,,
4378534,1501040481093,,,,,,,,,0,240,0,,,,,,,,,,,,,,,
4378544,1501040481103,,,,,,,,,0,240,0,36.113461,-115.145973,0.0,10.244,2032.0,8,3,2.4,0,0.0,-1,0.0,0.0,0.0,0
4378554,1501040481113,,,,,,,,,0,240,0,,,,,,,,,,,,,,,
4378564,1501040481123,3.44,,-0.03,-0.08,1.01,-2,-5,4,0,240,0,,,,,,,,,,,,,,,
4378574,1501040481133,,,,,,,,,0,15000000,0,,,,,,,,,,,,,,,
4378584,1501040481143,,,,,,,,,0,0,0,,,,,,,,,,,,,,,
4378594,1501040481153,,,,,,,,,0,0,0,,,,,,,,,,,,,,,
4378604,1501040481163,3.44,,-0.03,-0.08,1.01,-2,-5,4,0,0,0,,,,,,,,,,,,,,,
4378614,1501040481173,,,,,,,,,0,0,0,,,,,,,,,,,,,,,
4378624,1501040481183,,,,,,,,,0,0,0,,,,,,,,,,,,,,,
4378634,1501040481193,,,,,,,,,0,0,0,,,,,,,,,,,,,,,
4378644,1501040481203,3.44,,-0.03,-0.08,1.01,-1,-5,4,0,0,0,36.113461,-115.145973,0.0,10.244,2032.0,8,3,2.4,0,0.0,-1,0.0,0.0,0.0,0
4378654,1501040481213,,,,,,,,,0,0,0,,,,,,,,,,,,,,,
4378664,1501040481223,,,,,,,,,0,390,0,,,,,,,,,,,,,,,
4378674,1501040481233,,,,,,,,,0,390,0,,,,,,,,,,,,,,,
4378684,1501040481243,3.45,,-0.04,-0.08,1.01,-1,-5,3,0,390,0,,,,,,,,,,,,,,,
4378694,1501040481253,,,,,,,,,0,390,0,,,,,,,,,,,,,,,
4378704,1501040481263,,,,,,,,,0,390,0,,,,,,,,,,,,,,,
4378714,1501040481273,,,,,,,,,0,390,0,,,,,,,,,,,,,,,
4378724,1501040481283,3.43,,-0.04,-0.08,1.01,-1,-5,4,0,390,0,,,,,,,,,,,,,,,
4378734,1501040481293,,,,,,,,,0,390,0,,,,,,,,,,,,,,,
4378744,1501040481303,,,,,,,,,0,390,0,36.113461,-115.145973,0.0,10.244,2032.0,8,3,2.4,0,0.0,-1,0.0,0.0,0.0,0
4378754,1501040481313,,,,,,,,,0,15000000,0,,,,,,,,,,,,,,,
4378764,1501040481323,3.45,,-0.06,-0.08,1.02,-2,-5,4,0,0,0,,,,,,,,,,,,,,,
4378774,1501040481333,,,,,,,,,0,0,0,,,,,,,,,,,,,,,
4378784,1501040481343,,,,,,,,,0,0,0,,,,,,,,,,,,,,,
4378794,1501040481353,,,,,,,,,0,0,0,,,,,,,,,,,,,,,
4378804,1501040481363,3.38,,-0.07,-0.09,1.04,-2,-5,4,0,1005,0,,,,,,,,,,,,,,,
4378814,1501040481373,,,,,,,,,0,1005,0,,,,,,,,,,,,,,,
4378824,1501040481383,,,,,,,,,0,1005,0,,,,,,,,,,,,,,,
4378834,1501040481393,,,,,,,,,0,1005,0,,,,,,,,,,,,,,,
4378844,1501040481403,3.39,,-0.06,-0.09,1.03,-2,-4,4,0,285,0,36.113461,-115.145973,0.0,10.244,2032.0,8,3,0.4,0,0.0,-1,0.0,0.0,0.0,0
4378854,1501040481413,,,,,,,,,0,285,0,,,,,,,,,,,,,,,
4378864,1501040481423,,,,,,,,,0,285,0,,,,,,,,,,,,,,,
4378874,1501040481433,,,,,,,,,0,285,0,,,,,,,,,,,,,,,
4378884,1501040481443,3.44,,-0.06,-0.07,1.02,-1,-5,4,0,360,0,,,,,,,,,,,,,,,
4378894,1501040481453,,,,,,,,,0,360,0,,,,,,,,,,,,,,,
4378904,1501040481463,,,,,,,,,0,360,0,,,,,,,,,,,,,,,
4378914,1501040481473,,,,,,,,,0,435,0,,,,,,,,,,,,,,,
4378924,1501040481483,3.44,,-0.05,-0.07,1.0,-1,-4,4,0,435,0,,,,,,,,,,,,,,,
4378934,1501040481493,,,,,,,,,0,435,0,,,,,,,,,,,,,,,
4378944,1501040481503,,,,,,,,,0,495,0,36.113461,-115.145973,0.0,10.244,2032.0,8,3,0.4,0,0.0,-1,0.0,0.0,0.0,0
4378954,1501040481513,,,,,,,,,0,495,0,,,,,,,,,,,,,,,
4378964,1501040481523,3.44,,-0.05,-0.07,0.99,-2,-4,4,0,555,0,,,,,,,,,,,,,,,
4378974,1501040481533,,,,,,,,,0,555,0,,,,,,,,,,,,,,,
4378984,1501040481543,,,,,,,,,0,600,0,,,,,,,,,,,,,,,
4378994,1501040481553,,,,,,,,,0,600,0,,,,,,,,,,,,,,,
4379004,1501040481563,3.45,,-0.04,-0.07,0.99,-2,-4,3,0,600,0,,,,,,,,,,,,,,,
4379014,1501040481573,,,,,,,,,0,630,0,,,,,,,,,,,,,,,
4379024,1501040481583,,,,,,,,,0,630,0,,,,,,,,,,,,,,,
4379034,1501040481593,,,,,,,,,0,630,0,,,,,,,,,,,,,,,
4379044,1501040481603,3.45,4.51,-0.03,-0.06,0.98,-2,-5,3,0,630,0,36.113461,-115.145973,0.0,10.244,2032.0,8,3,2.4,0,0.0,-1,0.0,0.0,0.0,0
4379054,1501040481613,,,,,,,,,0,600,0,,,,,,,,,,,,,,,
4379064,1501040481623,,,,,,,,,0,600,0,,,,,,,,,,,,,,,
4379074,1501040481633,,,,,,,,,0,855,0,,,,,,,,,,,,,,,
4379084,1501040481643,3.45,,-0.02,-0.03,0.95,-2,-5,3,0,975,0,,,,,,,,,,,,,,,
4379094,1501040481653,,,,,,,,,0,975,0,,,,,,,,,,,,,,,
4379104,1501040481663,,,,,,,,,0,960,0,,,,,,,,,,,,,,,
4379114,1501040481673,,,,,,,,,0,975,0,,,,,,,,,,,,,,,
4379124,1501040481683,3.44,,-0.03,-0.04,0.93,-1,-5,3,0,975,0,,,,,,,,,,,,,,,
4379134,1501040481693,,,,,,,,,0,975,0,,,,,,,,,,,,,,,
4379144,1501040481703,,,,,,,,,0,960,0,36.113461,-115.145973,0.0,10.244,2032.0,8,3,2.4,0,0.0,-1,0.0,0.0,0.0,0
4379154,1501040481713,,,,,,,,,0,960,0,,,,,,,,,,,,,,,
4379164,1501040481723,3.44,,-0.03,-0.05,0.96,-1,-5,3,0,945,0,,,,,,,,,,,,,,,
4379174,1501040481733,,,,,,,,,0,855,0,,,,,,,,,,,,,,,
4379184,1501040481743,,,,,,,,,0,855,0,,,,,,,,,,,,,,,
4379194,1501040481753,,,,,,,,,0,1125,0,,,,,,,,,,,,,,,
4379204,1501040481763,3.44,,-0.01,-0.11,1.06,-1,-5,4,0,1290,0,,,,,,,,,,,,,,,
4379214,1501040481773,,,,,,,,,0,1275,0,,,,,,,,,,,,,,,
4379224,1501040481783,,,,,,,,,0,1290,0,,,,,,,,,,,,,,,
4379234,1501040481793,,,,,,,,,0,1290,0,,,,,,,,,,,,,,,
4379244,1501040481803,3.4,,0.0,-0.11,1.11,-1,-6,4,0,1275,0,36.113461,-115.145973,0.0,10.244,2032.0,8,3,2.4,0,0.0,-1,0.0,0.0,0.0,0
4379254,1501040481813,,,,,,,,,0,1275,0,,,,,,,,,,,,,,,
4379264,1501040481823,,,,,,,,,0,1260,0,,,,,,,,,,,,,,,
4379274,1501040481833,,,,,,,,,0,1200,0,,,,,,,,,,,,,,,
4379284,1501040481843,3.4,,-0.02,-0.16,1.23,-1,-8,4,0,1650,0,,,,,,,,,,,,,,,
4379294,1501040481853,,,,,,,,,0,1620,0,,,,,,,,,,,,,,,
4379304,1501040481863,,,,,,,,,0,1635,0,,,,,,,,,,,,,,,
4379314,1501040481873,,,,,,,,,0,1635,0,,,,,,,,,,,,,,,
4379324,1501040481883,3.43,,-0.03,-0.13,1.21,-1,-9,3,0,1635,0,,,,,,,,,,,,,,,
4379334,1501040481893,,,,,,,,,0,1590,0,,,,,,,,,,,,,,,
4379344,1501040481903,,,,,,,,,0,1560,0,36.113461,-115.145973,0.0,10.244,2032.0,8,3,2.4,0,0.0,-1,0.0,0.0,0.0,0
4379354,1501040481913,,,,,,,,,0,1785,0,,,,,,,,,,,,,,,
4379364,1501040481923,3.49,,-0.04,-0.08,1.12,-2,-11,4,0,1875,0,,,,,,,,,,,,,,,
4379374,1501040481933,,,,,,,,,0,1905,0,,,,,,,,,,,,,,,
4379384,1501040481943,,,,,,,,,0,1905,0,,,,,,,,,,,,,,,
4379394,1501040481953,,,,,,,,,0,1875,0,,,,,,,,,,,,,,,
4379404,1501040481963,3.49,,-0.06,-0.05,1.03,-2,-10,3,0,1875,0,,,,,,,,,,,,,,,
4379414,1501040481973,,,,,,,,,0,1890,0,,,,,,,,,,,,,,,
4379424,1501040481983,,,,,,,,,0,1875,0,,,,,,,,,,,,,,,
4379434,1501040481993,,,,,,,,,0,1830,0,,,,,,,,,,,,,,,
4379444,1501040481997,3.47,,-0.02,-0.02,0.97,-1,-10,3,0,1860,0,36.113461,-115.145973,0.0,10.244,2032.0,8,3,0.4,0,0.0,-1,0.0,0.0,0.0,0
4379454,1501040482007,,,,,,,,,0,1830,0,,,,,,,,,,,,,,,
4379464,1501040482017,,,,,,,,,0,1815,0,,,,,,,,,,,,,,,
4379474,1501040482027,,,,,,,,,0,1830,0,,,,,,,,,,,,,,,
4379484,1501040482037,3.41,,-0.01,-0.04,0.96,-1,-8,2,0,1830,0,,,,,,,,,,,,,,,
4379494,1501040482047,,,,,,,,,0,1785,0,,,,,,,,,,,,,,,
4379504,1501040482057,,,,,,,,,0,1815,0,,,,,,,,,,,,,,,
4379514,1501040482067,,,,,,,,,0,1815,0,,,,,,,,,,,,,,,
4379524,1501040482077,3.45,,0.01,0.01,0.97,-2,-9,3,0,1800,0,,,,,,,,,,,,,,,
4379534,1501040482092,,,,,,,,,0,1800,0,,,,,,,,,,,,,,,
4379544,1501040482102,,,,,,,,,0,1800,0,36.113461,-115.145973,0.0,10.244,2032.0,8,3,0.4,0,0.0,-1,0.0,0.0,0.0,0
4379554,1501040482112,,,,,,,,,0,1785,0,,,,,,,,,,,,,,,
4379564,1501040482122,3.47,,-0.0,-0.05,0.98,-1,-6,3,0,1740,0,,,,,,,,,,,,,,,
4379574,1501040482132,,,,,,,,,0,1770,0,,,,,,,,,,,,,,,
4379584,1501040482142,,,,,,,,,0,1785,0,,,,,,,,,,,,,,,
4379594,1501040482152,,,,,,,,,0,1725,0,,,,,,,,,,,,,,,
4379604,1501040482162,3.45,,-0.03,-0.04,1.0,-1,-5,2,0,1755,0,,,,,,,,,,,,,,,
4379614,1501040482172,,,,,,,,,0,1755,0,,,,,,,,,,,,,,,
4379624,1501040482182,,,,,,,,,0,1755,0,,,,,,,,,,,,,,,
4379634,1501040482192,,,,,,,,,0,1710,0,,,,,,,,,,,,,,,
4379644,1501040482202,3.46,,-0.0,-0.03,0.99,-1,-7,3,0,1725,0,36.113461,-115.145973,0.0,10.244,2032.0,8,3,0.4,0,0.0,-1,0.0,0.0,0.0,0
4379654,1501040482212,,,,,,,,,0,1695,0,,,,,,,,,,,,,,,
4379664,1501040482222,,,,,,,,,0,1695,0,,,,,,,,,,,,,,,
4379674,1501040482232,,,,,,,,,0,1710,0,,,,,,,,,,,,,,,
4379684,1501040482242,3.43,,-0.02,-0.07,0.99,-1,-5,3,0,1740,0,,,,,,,,,,,,,,,
4379694,1501040482252,,,,,,,,,0,1725,0,,,,,,,,,,,,,,,
4379704,1501040482262,,,,,,,,,0,1710,0,,,,,,,,,,,,,,,
4379714,1501040482272,,,,,,,,,0,1710,0,,,,,,,,,,,,,,,
4379724,1501040482282,3.39,,-0.07,-0.07,1.03,-1,-3,4,0,1695,0,,,,,,,,,,,,,,,
4379734,1501040482292,,,,,,,,,0,1665,0,,,,,,,,,,,,,,,
4379744,1501040482302,,,,,,,,,0,1695,0,36.113461,-115.145973,0.0,10.244,2032.0,8,3,0.4,0,0.0,-1,0.0,0.0,0.0,0
4379754,1501040482312,,,,,,,,,0,1710,0,,,,,,,,,,,,,,,
4379764,1501040482322,3.46,,-0.04,-0.06,1.01,-1,-5,4,0,1695,0,,,,,,,,,,,,,,,
4379774,1501040482332,,,,,,,,,0,1665,0,,,,,,,,,,,,,,,
4379784,1501040482342,,,,,,,,,0,1680,0,,,,,,,,,,,,,,,
4379794,1501040482352,,,,,,,,,0,1680,0,,,,,,,,,,,,,,,
4379804,1501040482362,3.4,,-0.04,-0.06,1.0,-1,-4,3,0,1650,0,,,,,,,,,,,,,,,
4379814,1501040482372,,,,,,,,,0,1665,0,,,,,,,,,,,,,,,
4379824,1501040482382,,,,,,,,,0,1680,0,,,,,,,,,,,,,,,
4379834,1501040482392,,,,,,,,,0,1665,0,,,,,,,,,,,,,,,
4379844,1501040482402,3.44,,-0.06,-0.09,1.02,-1,-2,3,0,1650,0,36.113461,-115.145973,0.0,10.244,2032.0,8,3,0.4,0,0.0,-1,0.0,0.0,0.0,0
4379854,1501040482412,,,,,,,,,0,1665,0,,,,,,,,,,,,,,,
4379864,1501040482422,,,,,,,,,0,1665,0,,,,,,,,,,,,,,,
4379874,1501040482432,,,,,,,,,0,1635,0,,,,,,,,,,,,,,,
4379884,1501040482442,3.45,,-0.08,-0.09,1.03,-1,-3,3,0,1620,0,,,,,,,,,,,,,,,
4379894,1501040482452,,,,,,,,,0,1665,0,,,,,,,,,,,,,,,
4379904,1501040482462,,,,,,,,,0,1650,0,,,,,,,,,,,,,,,
4379914,1501040482472,,,,,,,,,0,1635,0,,,,,,,,,,,,,,,
4379924,1501040482482,3.44,,-0.05,-0.07,1.01,-1,-5,3,0,1635,0,,,,,,,,,,,,,,,
4379934,1501040482494,,,,,,,,,0,1650,0,,,,,,,,,,,,,,,
4379944,1501040482504,,,,,,,,,0,1620,0,36.113461,-115.145973,0.0,10.244,2032.0,8,3,0.4,0,0.0,-1,0.0,0.0,0.0,0
4379954,1501040482514,,,,,,,,,0,1605,0,,,,,,,,,,,,,,,
4379964,1501040482524,3.45,,-0.01,-0.05,0.98,-1,-7,4,0,1620,0,,,,,,,,,,,,,,,
4379974,1501040482534,,,,,,,,,0,1635,0,,,,,,,,,,,,,,,
4379984,1501040482544,,,,,,,,,0,1620,0,,,,,,,,,,,,,,,
4379994,1501040482554,,,,,,,,,0,1590,0,,,,,,,,,,,,,,,
4380004,1501040482564,3.44,,0.0,-0.06,0.97,-1,-6,4,0,1605,0,,,,,,,,,,,,,,,
4380014,1501040482574,,,,,,,,,0,1620,0,,,,,,,,,,,,,,,
4380024,1501040482584,,,,,,,,,0,1575,0,,,,,,,,,,,,,,,
4380034,1501040482594,,,,,,,,,0,1575,0,,,,,,,,,,,,,,,
4380044,1501040482604,3.42,4.5,-0.0,-0.08,1.0,-1,-4,4,0,1620,0,36.113461,-115.145973,0.0,10.244,2032.0,8,3,0.4,0,0.0,-1,0.0,0.0,0.0,0
4380054,1501040482614,,,,,,,,,0,1620,0,,,,,,,,,,,,,,,
4380064,1501040482624,,,,,,,,,0,1605,0,,,,,,,,,,,,,,,
4380074,1501040482634,,,,,,,,,0,1620,0,,,,,,,,,,,,,,,
4380084,1501040482644,3.43,,-0.04,-0.1,1.04,-1,-3,4,0,1620,0,,,,,,,,,,,,,,,
4380094,1501040482654,,,,,,,,,0,1590,0,,,,,,,,,,,,,,,
4380104,1501040482664,,,,,,,,,0,1575,0,,,,,,,,,,,,,,,
4380114,1501040482674,,,,,,,,,0,1590,0,,,,,,,,,,,,,,,
4380124,1501040482684,3.43,,-0.06,-0.1,1.07,-1,-3,4,0,1635,0,,,,,,,,,,,,,,,
4380134,1501040482694,,,,,,,,,0,1635,0,,,,,,,,,,,,,,,
4380144,1501040482704,,,,,,,,,0,1635,0,36.113461,-115.145973,0.0,10.244,2032.0,8,3,0.4,0,0.0,-1,0.0,0.0,0.0,0
4380154,1501040482714,,,,,,,,,0,1650,0,,,,,,,,,,,,,,,
4380164,1501040482724,3.45,,-0.06,-0.08,1.05,-1,-5,4,0,1620,0,,,,,,,,,,,,,,,
4380174,1501040482734,,,,,,,,,0,1590,0,,,,,,,,,,,,,,,
4380184,1501040482744,,,,,,,,,0,1620,0,,,,,,,,,,,,,,,
4380194,1501040482754,,,,,,,,,0,1650,0,,,,,,,,,,,,,,,
4380204,1501040482764,3.46,,-0.04,-0.06,1.02,-1,-7,4,0,1650,0,,,,,,,,,,,,,,,
4380214,1501040482774,,,,,,,,,0,1635,0,,,,,,,,,,,,,,,
4380224,1501040482784,,,,,,,,,0,1650,0,,,,,,,,,,,,,,,
4380234,1501040482792,,,,,,,,,0,1650,0,,,,,,,,,,,,,,,
4380244,1501040482802,3.45,,-0.02,-0.06,0.99,-1,-6,3,0,1620,0,36.113461,-115.145973,0.0,10.244,2032.0,8,3,0.4,0,0.0,-1,0.0,0.0,0.0,0
4380254,1501040482812,,,,,,,,,0,1620,0,,,,,,,,,,,,,,,
4380264,1501040482822,,,,,,,,,0,1665,0,,,,,,,,,,,,,,,
4380274,1501040482832,,,,,,,,,0,1665,0,,,,,,,,,,,,,,,
4380284,1501040482842,3.44,,-0.05,-0.09,1.01,-1,-4,3,0,1650,0,,,,,,,,,,,,,,,
4380294,1501040482852,,,,,,,,,0,1665,0,,,,,,,,,,,,,,,
4380304,1501040482862,,,,,,,,,0,1665,0,,,,,,,,,,,,,,,
4380314,1501040482872,,,,,,,,,0,1635,0,,,,,,,,,,,,,,,
4380324,1501040482882,3.44,,-0.07,-0.09,1.04,-1,-3,3,0,1620,0,,,,,,,,,,,,,,,
4380334,1501040482894,,,,,,,,,0,1635,0,,,,,,,,,,,,,,,
4380344,1501040482904,,,,,,,,,0,1665,0,36.113461,-115.145973,0.0,10.244,2032.0,8,3,0.4,0,0.0,-1,0.0,0.0,0.0,0
4380354,1501040482914,,,,,,,,,0,1650,0,,,,,,,,,,,,,,,
4380364,1501040482924,3.44,,-0.05,-0.08,1.02,-1,-5,3,0,1650,0,,,,,,,,,,,,,,,
4380374,1501040482934,,,,,,,,,0,1665,0,,,,,,,,,,,,,,,
4380384,1501040482944,,,,,,,,,0,1635,0,,,,,,,,,,,,,,,
4380394,1501040482954,,,,,,,,,0,1620,0,,,,,,,,,,,,,,,
4380404,1501040482964,3.45,,-0.02,-0.06,0.99,-2,-7,3,0,1635,0,,,,,,,,,,,,,,,
4380414,1501040482974,,,,,,,,,0,1665,0,,,,,,,,,,,,,,,
4380424,1501040482984,,,,,,,,,0,1665,0,,,,,,,,,,,,,,,
4380434,1501040482994,,,,,,,,,0,1635,0,,,,,,,,,,,,,,,
4380444,1501040482996,3.44,,0.0,-0.07,0.97,-1,-7,3,0,1665,0,36.113461,-115.145973,0.0,10.244,2032.0,8,3,0.4,0,0.0,-1,0.0,0.0,0.0,0
4380454,1501040483006,,,,,,,,,0,1635,0,,,,,,,,,,,,,,,
4380464,1501040483016,,,,,,,,,0,1605,0,,,,,,,,,,,,,,,
4380474,1501040483026,,,,,,,,,0,1635,0,,,,,,,,,,,,,,,
4380484,1501040483036,3.43,,-0.01,-0.1,0.98,-1,-5,2,0,1680,0,,,,,,,,,,,,,,,
4380494,1501040483046,,,,,,,,,0,1695,0,,,,,,,,,,,,,,,
4380504,1501040483056,,,,,,,,,0,1680,0,,,,,,,,,,,,,,,
4380514,1501040483066,,,,,,,,,0,1695,0,,,,,,,,,,,,,,,
4380524,1501040483076,3.42,,-0.06,-0.1,1.01,-1,-2,3,0,1695,0,,,,,,,,,,,,,,,
4380534,1501040483093,,,,,,,,,0,1650,0,,,,,,,,,,,,,,,
4380544,1501040483103,,,,,,,,,0,1665,0,36.113461,-115.145973,0.0,10.244,2032.0,8,3,0.4,0,0.0,-1,0.0,0.0,0.0,0
4380554,1501040483113,,,,,,,,,0,1695,0,,,,,,,,,,,,,,,
4380564,1501040483123,3.45,,-0.05,-0.07,1.02,-2,-5,3,0,1695,0,,,,,,,,,,,,,,,
4380574,1501040483133,,,,,,,,,0,1695,0,,,,,,,,,,,,,,,
4380584,1501040483143,,,,,,,,,0,1695,0,,,,,,,,,,,,,,,
4380594,1501040483153,,,,,,,,,0,1710,0,,,,,,,,,,,,,,,
4380604,1501040483163,3.45,,-0.05,-0.06,0.99,-1,-6,4,0,1680,0,,,,,,,,,,,,,,,
4380614,1501040483173,,,,,,,,,0,1665,0,,,,,,,,,,,,,,,
4380624,1501040483183,,,,,,,,,0,1710,0,,,,,,,,,,,,,,,
4380634,1501040483193,,,,,,,,,0,1710,0,,,,,,,,,,,,,,,
4380644,1501040483203,3.45,,-0.07,-0.1,0.99,-1,-3,4,0,1695,0,36.113461,-115.145973,0.0,10.244,2032.0,8,3,0.4,0,0.0,-1,0.0,0.0,0.0,0
4380654,1501040483213,,,,,,,,,0,1695,0,,,,,,,,,,,,,,,
4380664,1501040483223,,,,,,,,,0,1710,0,,,,,,,,,,,,,,,
4380674,1501040483233,,,,,,,,,0,1680,0,,,,,,,,,,,,,,,
4380684,1501040483243,3.4,,-0.09,-0.08,1.02,-1,-3,3,0,1680,0,,,,,,,,,,,,,,,
4380694,1501040483253,,,,,,,,,0,1710,0,,,,,,,,,,,,,,,
4380704,1501040483263,,,,,,,,,0,1725,0,,,,,,,,,,,,,,,
4380714,1501040483273,,,,,,,,,0,1680,0,,,,,,,,,,,,,,,
4380724,1501040483283,3.44,,-0.06,-0.04,0.99,-1,-6,4,0,1695,0,,,,,,,,,,,,,,,
4380734,1501040483293,,,,,,,,,0,1710,0,,,,,,,,,,,,,,,
4380744,1501040483303,,,,,,,,,0,1695,0,36.113461,-115.145973,0.0,10.244,2032.0,8,3,0.4,0,0.0,-1,0.0,0.0,0.0,0
4380754,1501040483313,,,,,,,,,0,1665,0,,,,,,,,,,,,,,,
4380764,1501040483323,3.43,,-0.04,-0.06,0.98,-1,-6,4,0,1710,0,,,,,,,,,,,,,,,
4380774,1501040483333,,,,,,,,,0,1725,0,,,,,,,,,,,,,,,
4380784,1501040483343,,,,,,,,,0,1680,0,,,,,,,,,,,,,,,
4380794,1501040483353,,,,,,,,,0,1710,0,,,,,,,,,,,,,,,
4380804,1501040483363,3.43,,-0.06,-0.09,1.01,-1,-4,4,0,1710,0,,,,,,,,,,,,,,,
4380814,1501040483373,,,,,,,,,0,1680,0,,,,,,,,,,,,,,,
4380824,1501040483383,,,,,,,,,0,1665,0,,,,,,,,,,,,,,,
4380834,1501040483393,,,,,,,,,0,1710,0,,,,,,,,,,,,,,,
4380844,1501040483403,3.44,,-0.06,-0.06,1.03,-1,-5,4,0,1725,0,36.113461,-115.145973,0.0,10.244,2032.0,8,3,0.4,0,0.0,-1,0.0,0.0,0.0,0
4380854,1501040483413,,,,,,,,,0,1695,0,,,,,,,,,,,,,,,
4380864,1501040483423,,,,,,,,,0,1710,0,,,,,,,,,,,,,,,
4380874,1501040483433,,,,,,,,,0,1710,0,,,,,,,,,,,,,,,
4380884,1501040483443,3.46,,-0.02,-0.06,1.01,-1,-7,5,0,1695,0,,,,,,,,,,,,,,,
4380894,1501040483453,,,,,,,,,0,1665,0,,,,,,,,,,,,,,,
4380904,1501040483463,,,,,,,,,0,1710,0,,,,,,,,,,,,,,,
4380914,1501040483473,,,,,,,,,0,1710,0,,,,,,,,,,,,,,,
4380924,1501040483483,3.45,,-0.02,-0.08,1.0,-1,-6,4,0,1680,0,,,,,,,,,,,,,,,
4380934,1501040483493,,,,,,,,,0,1710,0,,,,,,,,,,,,,,,
4380944,1501040483503,,,,,,,,,0,1710,0,36.113461,-115.145973,0.0,10.244,2032.0,8,3,0.4,0,0.0,-1,0.0,0.0,0.0,0
4380954,1501040483513,,,,,,,,,0,1680,0,,,,,,,,,,,,,,,
4380964,1501040483523,3.46,,-0.04,-0.09,1.03,-1,-4,4,0,1665,0,,,,,,,,,,,,,,,
4380974,1501040483533,,,,,,,,,0,1680,0,,,,,,,,,,,,,,,
4380984,1501040483543,,,,,,,,,0,1725,0,,,,,,,,,,,,,,,
4380994,1501040483553,,,,,,,,,0,1680,0,,,,,,,,,,,,,,,
4381004,1501040483563,3.45,,-0.02,-0.07,1.04,-1,-6,4,0,1695,0,,,,,,,,,,,,,,,
4381014,1501040483573,,,,,,,,,0,1710,0,,,,,,,,,,,,,,,
4381024,1501040483583,,,,,,,,,0,1680,0,,,,,,,,,,,,,,,
4381034,1501040483593,,,,,,,,,0,1665,0,,,,,,,,,,,,,,,
4381044,1501040483603,3.45,4.52,0.02,-0.07,1.02,-2,-8,4,0,1680,0,36.113461,-115.145973,0.0,10.244,2032.0,8,3,0.4,0,0.0,-1,0.0,0.0,0.0,0
4381054,1501040483613,,,,,,,,,0,1695,0,,,,,,,,,,,,,,,
4381064,1501040483623,,,,,,,,,0,1665,0,,,,,,,,,,,,,,,
4381074,1501040483633,,,,,,,,,0,1680,0,,,,,,,,,,,,,,,
4381084,1501040483643,3.43,,0.02,-0.1,1.01,-2,-6,4,0,1695,0,,,,,,,,,,,,,,,
4381094,1501040483653,,,,,,,,,0,1665,0,,,,,,,,,,,,,,,
4381104,1501040483663,,,,,,,,,0,1650,0,,,,,,,,,,,,,,,
4381114,1501040483673,,,,,,,,,0,1665,0,,,,,,,,,,,,,,,
4381124,1501040483683,3.43,,-0.02,-0.1,1.05,-2,-4,4,0,1695,0,,,,,,,,,,,,,,,
4381134,1501040483693,,,,,,,,,0,1680,0,,,,,,,,,,,,,,,
4381144,1501040483703,,,,,,,,,0,1695,0,36.113461,-115.145973,0.0,10.244,2032.0,8,3,0.4,0,0.0,-1,0.0,0.0,0.0,0
4381154,1501040483713,,,,,,,,,0,1695,0,,,,,,,,,,,,,,,
4381164,1501040483723,3.46,,-0.0,-0.07,1.05,-2,-7,4,0,1680,0,,,,,,,,,,,,,,,
4381174,1501040483733,,,,,,,,,0,1650,0,,,,,,,,,,,,,,,
4381184,1501040483743,,,,,,,,,0,1680,0,,,,,,,,,,,,,,,
4381194,1501040483753,,,,,,,,,0,1695,0,,,,,,,,,,,,,,,
4381204,1501040483763,3.47,,0.02,-0.05,1.02,-2,-7,4,0,1710,0,,,,,,,,,,,,,,,
4381214,1501040483773,,,,,,,,,0,1695,0,,,,,,,,,,,,,,,
4381224,1501040483783,,,,,,,,,0,1695,0,,,,,,,,,,,,,,,
4381234,1501040483793,,,,,,,,,0,1680,0,,,,,,,,,,,,,,,
4381244,1501040483803,3.46,,0.0,-0.09,1.0,-2,-4,3,0,1650,0,36.113461,-115.145973,0.0,10.244,2032.0,8,3,0.4,0,0.0,-1,0.0,0.0,0.0,0
4381254,1501040483813,,,,,,,,,0,1680,0,,,,,,,,,,,,,,,
4381264,1501040483823,,,,,,,,,0,1695,0,,,,,,,,,,,,,,,
4381274,1501040483833,,,,,,,,,0,1710,0,,,,,,,,,,,,,,,
4381284,1501040483843,3.46,,-0.03,-0.1,1.01,-2,-3,3,0,1665,0,,,,,,,,,,,,,,,
4381294,1501040483853,,,,,,,,,0,1710,0,,,,,,,,,,,,,,,
4381304,1501040483863,,,,,,,,,0,1680,0,,,,,,,,,,,,,,,
4381314,1501040483873,,,,,,,,,0,1650,0,,,,,,,,,,,,,,,
4381324,1501040483883,3.44,,-0.01,-0.07,1.0,-2,-5,4,0,1665,0,,,,,,,,,,,,,,,
4381334,1501040483893,,,,,,,,,0,1710,0,,,,,,,,,,,,,,,
4381344,1501040483903,,,,,,,,,0,1695,0,36.113461,-115.145973,0.0,10.244,2032.0,8,3,0.4,0,0.0,-1,0.0,0.0,0.0,0
4381354,1501040483913,,,,,,,,,0,1665,0,,,,,,,,,,,,,,,
4381364,1501040483923,3.44,,0.01,-0.06,0.98,-1,-7,3,0,1680,0,,,,,,,,,,,,,,,
4381374,1501040483933,,,,,,,,,0,1650,0,,,,,,,,,,,,,,,
4381384,1501040483943,,,,,,,,,0,1650,0,,,,,,,,,,,,,,,
4381394,1501040483953,,,,,,,,,0,1665,0,,,,,,,,,,,,,,,
4381404,1501040483963,3.42,,-0.0,-0.09,0.98,-1,-4,3,0,1695,0,,,,,,,,,,,,,,,
4381414,1501040483973,,,,,,,,,0,1680,0,,,,,,,,,,,,,,,
4381424,1501040483983,,,,,,,,,0,1680,0,,,,,,,,,,,,,,,
4381434,1501040483993,,,,,,,,,0,1680,0,,,,,,,,,,,,,,,
4381444,1501040483997,3.44,,-0.05,-0.09,1.02,-1,-2,3,0,1695,0,36.113461,-115.145973,0.0,10.244,2032.0,8,3,0.4,0,0.0,-1,0.0,0.0,0.0,0
4381454,1501040484007,,,,,,,,,0,1665,0,,,,,,,,,,,,,,,
4381464,1501040484017,,,,,,,,,0,1665,0,,,,,,,,,,,,,,,
4381474,1501040484027,,,,,,,,,0,1695,0,,,,,,,,,,,,,,,
4381484,1501040484037,3.46,,-0.05,-0.06,1.03,-2,-4,4,0,1695,0,,,,,,,,,,,,,,,
4381494,1501040484047,,,,,,,,,0,1650,0,,,,,,,,,,,,,,,
4381504,1501040484057,,,,,,,,,0,1680,0,,,,,,,,,,,,,,,
4381514,1501040484067,,,,,,,,,0,1680,0,,,,,,,,,,,,,,,
4381524,1501040484077,3.46,,-0.02,-0.06,1.01,-2,-6,4,0,1650,0,,,,,,,,,,,,,,,
4381534,1501040484087,,,,,,,,,0,1620,0,,,,,,,,,,,,,,,
4381544,1501040484094,,,,,,,,,0,1680,0,36.113461,-115.145973,0.0,10.244,2032.0,8,3,0.4,0,0.0,-1,0.0,0.0,0.0,0
4381554,1501040484104,,,,,,,,,0,1695,0,,,,,,,,,,,,,,,
4381564,1501040484114,3.45,,-0.02,-0.08,0.99,-1,-5,4,0,1665,0,,,,,,,,,,,,,,,
4381574,1501040484124,,,,,,,,,0,1680,0,,,,,,,,,,,,,,,
4381584,1501040484134,,,,,,,,,0,1680,0,,,,,,,,,,,,,,,
4381594,1501040484144,,,,,,,,,0,1665,0,,,,,,,,,,,,,,,
4381604,1501040484154,3.45,,-0.04,-0.1,1.03,-1,-3,4,0,1635,0,,,,,,,,,,,,,,,
4381614,1501040484164,,,,,,,,,0,1665,0,,,,,,,,,,,,,,,
4381624,1501040484174,,,,,,,,,0,1680,0,,,,,,,,,,,,,,,
4381634,1501040484192,,,,,,,,,0,1650,0,,,,,,,,,,,,,,,
4381644,1501040484202,3.46,,-0.04,-0.08,1.04,-2,-5,4,0,1665,0,36.113461,-115.145973,0.0,10.244,2032.0,8,3,0.4,0,0.0,-1,0.0,0.0,0.0,0
4381654,1501040484212,,,,,,,,,0,1665,0,,,,,,,,,,,,,,,
4381664,1501040484222,,,,,,,,,0,1635,0,,,,,,,,,,,,,,,
4381674,1501040484232,,,,,,,,,0,1620,0,,,,,,,,,,,,,,,
4381684,1501040484242,3.46,,-0.01,-0.07,1.01,-2,-7,4,0,1635,0,,,,,,,,,,,,,,,
4381694,1501040484252,,,,,,,,,0,1665,0,,,,,,,,,,,,,,,
4381704,1501040484262,,,,,,,,,0,1680,0,,,,,,,,,,,,,,,
4381714,1501040484272,,,,,,,,,0,1665,0,,,,,,,,,,,,,,,
4381724,1501040484282,3.37,,0.01,-0.07,0.99,-1,-7,3,0,1680,0,,,,,,,,,,,,,,,
4381734,1501040484292,,,,,,,,,0,1650,0,,,,,,,,,,,,,,,
4381744,1501040484302,,,,,,,,,0,1620,0,36.113461,-115.145973,0.0,10.244,2032.0,8,3,0.4,0,0.0,-1,0.0,0.0,0.0,0
4381754,1501040484312,,,,,,,,,0,1650,0,,,,,,,,,,,,,,,
4381764,1501040484322,3.44,,-0.01,-0.09,1.0,-1,-5,3,0,1695,0,,,,,,,,,,,,,,,
4381774,1501040484332,,,,,,,,,0,1710,0,,,,,,,,,,,,,,,
4381784,1501040484342,,,,,,,,,0,1665,0,,,,,,,,,,,,,,,
4381794,1501040484352,,,,,,,,,0,1680,0,,,,,,,,,,,,,,,
4381804,1501040484362,3.45,,-0.05,-0.08,1.04,-1,-3,3,0,1695,0,,,,,,,,,,,,,,,
4381814,1501040484372,,,,,,,,,0,1650,0,,,,,,,,,,,,,,,
4381824,1501040484382,,,,,,,,,0,1665,0,,,,,,,,,,,,,,,
4381834,1501040484392,,,,,,,,,0,1680,0,,,,,,,,,,,,,,,
4381844,1501040484402,3.47,,-0.04,-0.06,1.03,-2,-5,4,0,1680,0,36.113461,-115.145973,0.0,10.244,2032.0,8,3,0.4,0,0.0,-1,0.0,0.0,0.0,0
4381854,1501040484412,,,,,,,,,0,1650,0,,,,,,,,,,,,,,,
4381864,1501040484422,,,,,,,,,0,1665,0,,,,,,,,,,,,,,,
4381874,1501040484432,,,,,,,,,0,1680,0,,,,,,,,,,,,,,,
4381884,1501040484442,3.46,,-0.02,-0.06,1.01,-2,-6,4,0,1650,0,,,,,,,,,,,,,,,
4381894,1501040484452,,,,,,,,,0,1650,0,,,,,,,,,,,,,,,
4381904,1501040484462,,,,,,,,,0,1695,0,,,,,,,,,,,,,,,
4381914,1501040484472,,,,,,,,,0,1710,0,,,,,,,,,,,,,,,
4381924,1501040484482,3.44,,-0.03,-0.09,1.01,-1,-4,4,0,1680,0,,,,,,,,,,,,,,,
4381934,1501040484492,,,,,,,,,0,1695,0,,,,,,,,,,,,,,,
4381944,1501040484502,,,,,,,,,0,1695,0,36.113461,-115.145973,0.0,10.244,2032.0,8,3,0.4,0,0.0,-1,0.0,0.0,0.0,0
4381954,1501040484512,,,,,,,,,0,1680,0,,,,,,,,,,,,,,,
4381964,1501040484522,3.46,,-0.05,-0.1,1.05,-1,-3,4,0,1650,0,,,,,,,,,,,,,,,
4381974,1501040484532,,,,,,,,,0,1695,0,,,,,,,,,,,,,,,
4381984,1501040484542,,,,,,,,,0,1695,0,,,,,,,,,,,,,,,
4381994,1501040484552,,,,,,,,,0,1665,0,,,,,,,,,,,,,,,
4382004,1501040484562,3.45,,-0.02,-0.07,1.02,-1,-6,4,0,1680,0,,,,,,,,,,,,,,,
4382014,1501040484572,,,,,,,,,0,1680,0,,,,,,,,,,,,,,,
4382024,1501040484582,,,,,,,,,0,1665,0,,,,,,,,,,,,,,,
4382034,1501040484594,,,,,,,,,0,1635,0,,,,,,,,,,,,,,,
4382044,1501040484604,3.45,4.51,0.01,-0.08,0.99,-2,-7,4,0,1665,0,36.113461,-115.145973,0.0,10.244,2032.0,8,3,0.4,0,0.0,-1,0.0,0.0,0.0,0
4382054,1501040484614,,,,,,,,,0,1710,0,,,,,,,,,,,,,,,
4382064,1501040484624,,,,,,,,,0,1665,0,,,,,,,,,,,,,,,
4382074,1501040484634,,,,,,,,,0,1695,0,,,,,,,,,,,,,,,
4382084,1501040484644,3.44,,0.0,-0.11,1.01,-2,-5,4,0,1710,0,,,,,,,,,,,,,,,
4382094,1501040484654,,,,,,,,,0,1680,0,,,,,,,,,,,,,,,
4382104,1501040484664,,,,,,,,,0,1650,0,,,,,,,,,,,,,,,
4382114,1501040484674,,,,,,,,,0,1665,0,,,,,,,,,,,,,,,
4382124,1501040484684,3.44,,-0.03,-0.11,1.05,-2,-4,4,0,1710,0,,,,,,,,,,,,,,,
4382134,1501040484694,,,,,,,,,0,1680,0,,,,,,,,,,,,,,,
4382144,1501040484704,,,,,,,,,0,1695,0,36.113461,-115.145973,0.0,10.244,2032.0,8,3,0.4,0,0.0,-1,0.0,0.0,0.0,0
4382154,1501040484714,,,,,,,,,0,1710,0,,,,,,,,,,,,,,,
4382164,1501040484724,3.47,,-0.01,-0.08,1.05,-2,-7,5,0,1680,0,,,,,,,,,,,,,,,
4382174,1501040484734,,,,,,,,,0,1650,0,,,,,,,,,,,,,,,
4382184,1501040484744,,,,,,,,,0,1680,0,,,,,,,,,,,,,,,
4382194,1501040484754,,,,,,,,,0,1710,0,,,,,,,,,,,,,,,
4382204,1501040484764,3.47,,0.01,-0.08,1.01,-2,-7,5,0,1710,0,,,,,,,,,,,,,,,
4382214,1501040484774,,,,,,,,,0,1710,0,,,,,,,,,,,,,,,
4382224,1501040484784,,,,,,,,,0,1710,0,,,,,,,,,,,,,,,
4382234,1501040484794,,,,,,,,,0,1680,0,,,,,,,,,,,,,,,
4382244,1501040484804,3.46,,-0.01,-0.11,1.01,-2,-4,3,0,1665,0,36.113461,-115.145973,0.0,10.244,2032.0,8,3,0.4,0,0.0,-1,0.0,0.0,0.0,0
4382254,1501040484814,,,,,,,,,0,1680,0,,,,,,,,,,,,,,,
4382264,1501040484824,,,,,,,,,0,1710,0,,,,,,,,,,,,,,,
4382274,1501040484834,,,,,,,,,0,1695,0,,,,,,,,,,,,,,,
4382284,1501040484844,3.46,,-0.02,-0.1,1.03,-2,-4,3,0,1680,0,,,,,,,,,,,,,,,
4382294,1501040484854,,,,,,,,,0,1695,0,,,,,,,,,,,,,,,
4382304,1501040484864,,,,,,,,,0,1665,0,,,,,,,,,,,,,,,
4382314,1501040484874,,,,,,,,,0,1635,0,,,,,,,,,,,,,,,
4382324,1501040484884,3.45,,0.0,-0.07,1.0,-2,-6,4,0,1665,0,,,,,,,,,,,,,,,
4382334,1501040484894,,,,,,,,,0,1695,0,,,,,,,,,,,,,,,
4382344,1501040484904,,,,,,,,,0,1695,0,36.113461,-115.145973,0.0,10.244,2032.0,8,3,0.4,0,0.0,-1,0.0,0.0,0.0,0
4382354,1501040484914,,,,,,,,,0,1665,0,,,,,,,,,,,,,,,
4382364,1501040484924,3.46,,0.03,-0.08,0.99,-2,-6,3,0,1695,0,,,,,,,,,,,,,,,
4382374,1501040484934,,,,,,,,,0,1665,0,,,,,,,,,,,,,,,
4382384,1501040484944,,,,,,,,,0,1650,0,,,,,,,,,,,,,,,
4382394,1501040484954,,,,,,,,,0,1665,0,,,,,,,,,,,,,,,
4382404,1501040484964,3.43,,0.0,-0.11,1.0,-2,-4,3,0,1695,0,,,,,,,,,,,,,,,
4382414,1501040484974,,,,,,,,,0,1695,0,,,,,,,,,,,,,,,
4382424,1501040484984,,,,,,,,,0,1665,0,,,,,,,,,,,,,,,
4382434,1501040484994,,,,,,,,,0,1680,0,,,,,,,,,,,,,,,
4382444,1501040484998,3.45,,-0.03,-0.09,1.02,-2,-3,4,0,1695,0,36.113461,-115.145973,0.0,10.244,2032.0,8,2,0.5,0,0.0,-1,0.0,0.0,0.0,0
4382454,1501040485008,,,,,,,,,0,1635,0,,,,,,,,,,,,,,,
4382464,1501040485018,,,,,,,,,0,1665,0,,,,,,,,,,,,,,,
4382474,1501040485028,,,,,,,,,0,1695,0,,,,,,,,,,,,,,,
4382484,1501040485038,3.46,,-0.03,-0.06,1.0,-2,-5,4,0,1695,0,,,,,,,,,,,,,,,
4382494,1501040485048,,,,,,,,,0,1665,0,,,,,,,,,,,,,,,
4382504,1501040485058,,,,,,,,,0,1680,0,,,,,,,,,,,,,,,
4382514,1501040485068,,,,,,,,,0,1695,0,,,,,,,,,,,,,,,
4382524,1501040485078,3.46,,-0.02,-0.07,0.98,-1,-5,4,0,1665,0,,,,,,,,,,,,,,,
4382534,1501040485093,,,,,,,,,0,1665,0,,,,,,,,,,,,,,,
4382544,1501040485103,,,,,,,,,0,1695,0,36.113461,-115.145973,0.0,10.244,2032.0,8,2,0.5,0,0.0,-1,0.0,0.0,0.0,0
4382554,1501040485113,,,,,,,,,0,1695,0,,,,,,,,,,,,,,,
4382564,1501040485123,3.45,,-0.04,-0.09,0.99,-1,-3,3,0,1680,0,,,,,,,,,,,,,,,
4382574,1501040485133,,,,,,,,,0,1695,0,,,,,,,,,,,,,,,
4382584,1501040485143,,,,,,,,,0,1695,0,,,,,,,,,,,,,,,
4382594,1501040485153,,,,,,,,,0,1665,0,,,,,,,,,,,,,,,
4382604,1501040485163,3.45,,-0.07,-0.08,1.03,-1,-2,3,0,1650,0,,,,,,,,,,,,,,,
4382614,1501040485173,,,,,,,,,0,1695,0,,,,,,,,,,,,,,,
4382624,1501040485183,,,,,,,,,0,1710,0,,,,,,,,,,,,,,,
4382634,1501040485195,,,,,,,,,0,1665,0,,,,,,,,,,,,,,,
4382644,1501040485205,3.46,,-0.05,-0.06,1.01,-1,-6,4,0,1695,0,36.113461,-115.145973,0.0,10.244,2032.0,8,2,0.5,0,0.0,-1,0.0,0.0,0.0,0
4382654,1501040485215,,,,,,,,,0,1695,0,,,,,,,,,,,,,,,
4382664,1501040485225,,,,,,,,,0,1680,0,,,,,,,,,,,,,,,
4382674,1501040485235,,,,,,,,,0,1650,0,,,,,,,,,,,,,,,
4382684,1501040485245,3.46,,-0.01,-0.07,0.99,-1,-7,4,0,1665,0,,,,,,,,,,,,,,,
4382694,1501040485255,,,,,,,,,0,1695,0,,,,,,,,,,,,,,,
4382704,1501040485265,,,,,,,,,0,1650,0,,,,,,,,,,,,,,,
4382714,1501040485275,,,,,,,,,0,1680,0,,,,,,,,,,,,,,,
4382724,1501040485285,3.44,,-0.01,-0.1,1.0,-1,-4,4,0,1680,0,,,,,,,,,,,,,,,
4382734,1501040485295,,,,,,,,,0,1650,0,,,,,,,,,,,,,,,
4382744,1501040485305,,,,,,,,,0,1635,0,36.113461,-115.145973,0.0,10.244,2032.0,8,2,0.5,0,0.0,-1,0.0,0.0,0.0,0
4382754,1501040485315,,,,,,,,,0,1650,0,,,,,,,,,,,,,,,
4382764,1501040485325,3.45,,-0.04,-0.1,1.04,-1,-4,4,0,1680,0,,,,,,,,,,,,,,,
4382774,1501040485335,,,,,,,,,0,1680,0,,,,,,,,,,,,,,,
4382784,1501040485345,,,,,,,,,0,1665,0,,,,,,,,,,,,,,,
4382794,1501040485355,,,,,,,,,0,1665,0,,,,,,,,,,,,,,,
4382804,1501040485365,3.46,,-0.03,-0.07,1.04,-2,-6,4,0,1635,0,,,,,,,,,,,,,,,
4382814,1501040485375,,,,,,,,,0,1620,0,,,,,,,,,,,,,,,
4382824,1501040485385,,,,,,,,,0,1635,0,,,,,,,,,,,,,,,
4382834,1501040485395,,,,,,,,,0,1680,0,,,,,,,,,,,,,,,
4382844,1501040485405,3.48,,-0.01,-0.06,1.01,-2,-7,4,0,1680,0,36.113461,-115.145973,0.0,10.244,2032.0,8,2,0.4,0,0.0,-1,0.0,0.0,0.0,0
4382854,1501040485415,,,,,,,,,0,1665,0,,,,,,,,,,,,,,,
4382864,1501040485425,,,,,,,,,0,1665,0,,,,,,,,,,,,,,,
